{"version": 0.6, "generator": "Overpass API 0.7.62.8 e802775f", "osm3s": {"timestamp_osm_base": "2025-10-22T15:11:45Z", "copyright": "The data included in this document is from www.openstreetmap.org. The data is made available under ODbL."}, "elements": [{"type": "node", "id": 2476404999, "lat": 46.0530068, "lon": 18.1545938}, {"type": "node", "id": 2476405000, "lat": 46.0530175, "lon": 18.1481458}, {"type": "node", "id": 2476405010, "lat": 46.054196, "lon": 18.1545896}, {"type": "node", "id": 2476405037, "lat": 46.0550286, "lon": 18.148045}, {"type": "node", "id": 2476405074, "lat": 46.0554172, "lon": 18.1493685}, {"type": "node", "id": 2476405076, "lat": 46.0554223, "lon": 18.151979}, {"type": "way", "id": 239858295, "nodes": [2476405000, 2476404999, 2476405010, 2476405076, 2476405074, 2476405037, 2476405000], "tags": {"addr:city": "P\u00e9cs", "addr:housenumber": "40", "addr:postcode": "7634", "addr:street": "\u00c1llom\u00e1s utca", "landuse": "industrial", "man_made": "wastewater_plant", "name": "P\u00e9cs v\u00e1rosi szennyv\u00edztiszt\u00edt\u00f3 telep"}}]}