{"version": 0.6, "generator": "Overpass API 0.7.62.8 e802775f", "osm3s": {"timestamp_osm_base": "2025-11-17T18:42:43Z", "copyright": "The data included in this document is from www.openstreetmap.org. The data is made available under ODbL."}, "elements": [{"type": "node", "id": 347330011, "lat": 51.4491064, "lon": -2.4745503, "tags": {"name": "CHILTERN CL.", "operator": "National Grid Electricity Distribution", "operator:wikidata": "Q7988183", "power": "substation", "ref": "791840", "voltage": "11000"}}, {"type": "node", "id": 368338828, "lat": 51.8242448, "lon": -2.2648685, "tags": {"ele": "21.9957275", "postal_code": "GL2 2DL", "power": "substation"}}, {"type": "node", "id": 369339734, "lat": 51.8224288, "lon": -2.2936209, "tags": {"power": "substation"}}, {"type": "node", "id": 369764118, "lat": 51.8309508, "lon": -2.2502217, "tags": {"ele": "19.5924072", "name": "GURNEY AVE.", "operator": "National Grid Electricity Distribution", "operator:wikidata": "Q7988183", "power": "substation", "ref": "790189"}}, {"type": "node", "id": 371569860, "lat": 51.8270169, "lon": -2.2620044, "tags": {"ele": "24.8796387", "name": "DUNSTER CLOSE", "operator": "National Grid Electricity Distribution", "operator:wikidata": "Q7988183", "power": "substation", "ref": "794649", "voltage": "11000"}}, {"type": "node", "id": 371742677, "lat": 51.8282915, "lon": -2.2655821, "tags": {"ele": "23.6779785", "name": "AvEBURY CL.", "power": "substation", "ref": "794144", "voltage": "11000"}}, {"type": "node", "id": 372771501, "lat": 51.8243861, "lon": -2.2590499, "tags": {"ele": "7.3356934", "name": "CHATSWORTH AVE.", "operator": "National Grid Electricity Distribution", "operator:wikidata": "Q7988183", "power": "substation", "ref": "794673", "voltage": "11000"}}, {"type": "node", "id": 372782083, "lat": 51.8270865, "lon": -2.2574032, "tags": {"ele": "24.1585693", "name": "WOBURN AVE.", "operator": "National Grid Electricity Distribution", "operator:wikidata": "Q7988183", "power": "substation", "ref": "794650"}}, {"type": "node", "id": 374573949, "lat": 51.8296547, "lon": -2.2547893, "tags": {"ele": "19.3521729", "name": "HOLMWOOD CL.", "operator": "National Grid Electricity Distribution", "operator:wikidata": "Q7988183", "power": "substation", "ref": "794772"}}, {"type": "node", "id": 375848198, "lat": 51.8324926, "lon": -2.261376, "tags": {"ele": "13.8245850", "name": "LABURNUM WAY", "operator": "National Grid Electricity Distribution", "operator:wikidata": "Q7988183", "power": "substation", "ref": "794147", "voltage": "11000"}}, {"type": "node", "id": 377043237, "lat": 51.8290954, "lon": -2.2586187, "tags": {"ele": "23.6779785", "name": "SANDRINGHAM AVE.", "operator": "National Grid Electricity Distribution", "operator:wikidata": "Q7988183", "power": "substation", "ref": "794004"}}, {"type": "node", "id": 377049742, "lat": 51.8355663, "lon": -2.2572611, "tags": {"ele": "20.0731201", "power": "substation", "ref": "5836"}}, {"type": "node", "id": 377058887, "lat": 51.8319597, "lon": -2.2580078, "tags": {"ele": "20.7940674", "name": "GRANGE RD. INFANTS", "operator": "National Grid Electricity Distribution", "operator:wikidata": "Q7988183", "power": "substation", "ref": "794146", "voltage": "11000"}}, {"type": "node", "id": 430405510, "lat": 51.8458332, "lon": -2.1928213, "tags": {"name": "Lobleys Drive", "power": "substation", "ref": "62286"}}, {"type": "node", "id": 443143748, "lat": 51.825759, "lon": -2.1925123, "tags": {"name": "Watery Lane", "power": "substation", "ref": "4562", "voltage": "11000"}}, {"type": "node", "id": 444546629, "lat": 51.8324911, "lon": -2.2001016, "tags": {"name": "Upton Saint Leonards", "power": "substation", "ref": "4560"}}, {"type": "node", "id": 457196967, "lat": 51.5084183, "lon": -3.1335665, "tags": {"power": "substation", "source": "local_knowledge"}}, {"type": "node", "id": 457489357, "lat": 51.5170586, "lon": -3.1217563, "tags": {"power": "substation", "source": "local_knowledge"}}, {"type": "node", "id": 457516409, "lat": 51.8318449, "lon": -2.2207034, "tags": {"power": "substation", "ref": "5136"}}, {"type": "node", "id": 467841055, "lat": 51.836671, "lon": -2.198825, "tags": {"name": "Commelines Mill", "power": "substation", "ref": "4567"}}, {"type": "node", "id": 469996274, "lat": 51.8551744, "lon": -2.1855164, "tags": {"name": "Blenheim House", "power": "substation", "ref": "5510", "source": "survey"}}, {"type": "node", "id": 471536616, "lat": 51.8205755, "lon": -2.280006, "tags": {"name": "The Holly Grove", "power": "substation", "ref": "5822"}}, {"type": "node", "id": 473158879, "lat": 51.8168537, "lon": -2.2906132, "tags": {"name": "Westland Road", "power": "substation", "ref": "794184", "source": "survey"}}, {"type": "node", "id": 473503823, "lat": 51.8204746, "lon": -2.2842124, "tags": {"name": "Field Court", "power": "substation", "ref": "5799"}}, {"type": "node", "id": 473608336, "lat": 51.8218756, "lon": -2.288175, "tags": {"name": "Brecon Close", "power": "substation", "ref": "5791", "source": "survey"}}, {"type": "node", "id": 476877411, "lat": 51.4455024, "lon": -2.0965939, "tags": {"power": "substation"}}, {"type": "node", "id": 491440480, "lat": 51.2612782, "lon": -2.1814729, "tags": {"name": "Bitham Lane S/S", "power": "substation", "ref": "2456"}}, {"type": "node", "id": 494267273, "lat": 51.2588195, "lon": -2.1813914, "tags": {"name": "Bratton Road S/S", "power": "substation"}}, {"type": "node", "id": 494267275, "lat": 51.2640856, "lon": -2.1741612, "tags": {"name": "Cheyney Walk S/S", "power": "substation", "ref": "3145", "ref:GB:uprn": "10024726373"}}, {"type": "node", "id": 495355176, "lat": 51.2557379, "lon": -2.1848416, "tags": {"power": "substation"}}, {"type": "node", "id": 496153746, "lat": 51.253633, "lon": -2.1866484, "tags": {"power": "substation"}}, {"type": "node", "id": 500367360, "lat": 51.2671698, "lon": -2.1840863, "tags": {"name": "Orchard Edge S/S", "power": "substation", "ref:GB:uprn": "10024733387"}}, {"type": "node", "id": 500885940, "lat": 51.2649584, "lon": -2.1852493, "tags": {"name": "Downsview Road S/S", "power": "substation", "ref": "1629", "ref:GB:uprn": "10024732245"}}, {"type": "node", "id": 500885981, "lat": 51.2664149, "lon": -2.1851249, "tags": {"name": "Meadow Lane S/S (Reserve site)", "power": "substation", "ref": "2397"}}, {"type": "node", "id": 504466023, "lat": 51.2633908, "lon": -2.1916866, "tags": {"power": "substation", "ref:GB:uprn": "10025063747"}}, {"type": "node", "id": 504466025, "lat": 51.2643952, "lon": -2.1944761, "tags": {"name": "Bridge Court S/S", "power": "substation", "ref:GB:uprn": "10024722711"}}, {"type": "node", "id": 504641365, "lat": 51.2660976, "lon": -2.1907854, "tags": {"name": "The Meadows S/S", "power": "substation", "ref": "3052", "ref:GB:uprn": "10024727530"}}, {"type": "node", "id": 504641387, "lat": 51.2682975, "lon": -2.1883607, "tags": {"name": "Bramble Drive S/S", "power": "substation"}}, {"type": "node", "id": 505397601, "lat": 51.2566206, "lon": -2.1909227, "tags": {"name": "Holdoways Westbury S/S", "power": "substation", "ref": "1815"}}, {"type": "node", "id": 506811412, "lat": 51.2620051, "lon": -2.1937079, "tags": {"name": "Oldfield Park S/S", "power": "substation", "ref": "343", "ref:GB:uprn": "10024722712"}}, {"type": "node", "id": 507252862, "lat": 51.2627839, "lon": -2.1960511, "tags": {"name": "Oldfield Park (West)", "power": "substation", "ref:GB:uprn": "10024721520"}}, {"type": "node", "id": 507540850, "lat": 51.2615975, "lon": -2.1979055, "tags": {"name": "Penleigh Grove S/S", "power": "substation", "ref:GB:uprn": "10024726359"}}, {"type": "node", "id": 508474442, "lat": 51.2562665, "lon": -2.1945169, "tags": {"power": "substation", "ref:GB:uprn": "10025069509"}}, {"type": "node", "id": 510798341, "lat": 51.2533817, "lon": -2.200281, "tags": {"power": "substation"}}, {"type": "node", "id": 510931535, "lat": 51.2556861, "lon": -2.1995852, "tags": {"name": "Fell Road S/S", "power": "substation"}}, {"type": "node", "id": 512526433, "lat": 51.2539671, "lon": -2.1953022, "tags": {"name": "Gooseland (sic) S/S", "power": "substation", "ref": "34260", "ref:GB:uprn": "10024719348"}}, {"type": "node", "id": 514725293, "lat": 51.2522642, "lon": -2.195637, "tags": {"name": "Becks Mill S/S", "power": "substation", "ref:GB:uprn": "10024728829"}}, {"type": "node", "id": 514818223, "lat": 51.2516411, "lon": -2.1987441, "tags": {"name": "Exmoor Road S/S", "power": "substation"}}, {"type": "node", "id": 514909555, "lat": 51.2501261, "lon": -2.2009413, "tags": {"name": "35 Dartmoor Road S/S", "power": "substation"}}, {"type": "node", "id": 514909559, "lat": 51.2508102, "lon": -2.2009435, "tags": {"name": "Dartmoor Road S/S", "power": "substation"}}, {"type": "node", "id": 516188571, "lat": 51.8420047, "lon": -2.2000163, "tags": {"name": "Abbeymead Boulevard", "power": "substation", "ref": "62114", "source": "survey"}}, {"type": "node", "id": 516188573, "lat": 51.8499994, "lon": -2.188597, "tags": {"name": "Parkwood Crescent", "power": "substation", "ref": "5336", "source": "survey"}}, {"type": "node", "id": 517371503, "lat": 51.838875, "lon": -2.2157597, "tags": {"name": "Matson Avenue", "power": "substation", "ref": "5234", "source": "survey"}}, {"type": "node", "id": 517438198, "lat": 51.2549665, "lon": -2.1895087, "tags": {"name": "Green Lane S/S", "power": "substation", "ref": "2005", "ref:GB:uprn": "10024720401"}}, {"type": "node", "id": 517779260, "lat": 51.2485891, "lon": -2.2015421, "tags": {"name": "Suffolk Road S/S", "power": "substation"}}, {"type": "node", "id": 525789386, "lat": 51.2575528, "lon": -2.177699, "tags": {"name": "Studland Park S/S", "power": "substation", "ref:GB:uprn": "10024721619"}}, {"type": "node", "id": 528226107, "lat": 51.2615966, "lon": -2.1773788, "tags": {"name": "Newtown Cross Rds S/S", "power": "substation", "ref": "2947", "ref:GB:uprn": "10025073174"}}, {"type": "node", "id": 528226114, "lat": 51.2604418, "lon": -2.1756191, "tags": {"name": "Newtown S/S", "power": "substation"}}, {"type": "node", "id": 528360837, "lat": 51.2649368, "lon": -2.1754088, "tags": {"name": "Bitham Park S/S", "power": "substation", "ref": "3068", "ref:GB:uprn": "10024728713"}}, {"type": "node", "id": 529554244, "lat": 51.2628261, "lon": -2.1763015, "tags": {"name": "Bremeridge Road S/S", "power": "substation", "ref": "3125", "ref:GB:uprn": "10024733386"}}, {"type": "node", "id": 529681719, "lat": 51.2659221, "lon": -2.1808953, "tags": {"name": "Lo-cost Supermarket S/S", "power": "substation", "ref": "2134732", "ref:GB:uprn": "10025640022"}}, {"type": "node", "id": 529681823, "lat": 51.264824, "lon": -2.1773659, "tags": {"name": "Arundell Close S/S", "power": "substation", "ref": "3416", "ref:GB:uprn": "10025640525"}}, {"type": "node", "id": 529713938, "lat": 51.2608203, "lon": -2.1816187, "tags": {"name": "Chantry Lane S/S", "power": "substation"}}, {"type": "node", "id": 529973397, "lat": 51.2647799, "lon": -2.1831164, "tags": {"name": "Frogmore Road S/S", "power": "substation", "ref": "2455", "ref:GB:uprn": "10025063751"}}, {"type": "node", "id": 530750725, "lat": 51.2631163, "lon": -2.1877985, "tags": {"name": "Westbury Fire Station S/S", "power": "substation", "ref": "2872", "ref:GB:uprn": "10024726393"}}, {"type": "node", "id": 534419907, "lat": 51.2498525, "lon": -2.1959578, "tags": {"name": "Leigh Close S/S", "power": "substation", "ref": "347", "ref:GB:uprn": "10024726390"}}, {"type": "node", "id": 534419958, "lat": 51.2498412, "lon": -2.1936693, "tags": {"name": "Leighton Park (West) S/S", "power": "substation", "ref": "2089", "ref:GB:uprn": "10024726391"}}, {"type": "node", "id": 534419959, "lat": 51.249723, "lon": -2.1914892, "tags": {"name": "Leighton Park (East) S/S", "power": "substation", "ref": "2662", "ref:GB:uprn": "10024720403"}}, {"type": "node", "id": 534727171, "lat": 51.2598871, "lon": -2.1847488, "tags": {"name": "Haynes Road S/S", "power": "substation", "ref:GB:uprn": "10024727529"}}, {"type": "node", "id": 534767016, "lat": 51.2623639, "lon": -2.183124, "tags": {"name": "Maristow Street S/S", "power": "substation", "ref": "340"}}, {"type": "node", "id": 534963483, "lat": 51.8500328, "lon": -2.2675482, "tags": {"name": "HEMPSTEAD CT.", "note": "No ref on station", "operator": "National Grid Electricity Distribution", "operator:wikidata": "Q7988183", "power": "substation", "ref": "794215", "voltage": "11000"}}, {"type": "node", "id": 535314027, "lat": 51.2602319, "lon": -2.1901889, "tags": {"name": "Eden Vale Road S/S", "power": "substation", "ref": "3019", "ref:GB:uprn": "10024720404"}}, {"type": "node", "id": 550250876, "lat": 51.2657255, "lon": -2.2037931, "tags": {"name": "Brook Lane Industrial Units S/S", "power": "substation", "ref": "3222", "ref:GB:uprn": "10025075152"}}, {"type": "node", "id": 551512876, "lat": 51.8416555, "lon": -2.2173775, "tags": {"note": "Ref might be incorrect, it was far away and difficult to read", "power": "substation", "ref": "4595"}}, {"type": "node", "id": 553359139, "lat": 51.2656364, "lon": -2.1872657, "tags": {"name": "Chichester Park S/S", "power": "substation", "ref": "2324", "ref:GB:uprn": "10024726374"}}, {"type": "node", "id": 566201116, "lat": 51.2605201, "lon": -2.1830723, "tags": {"name": "Lavington Mill", "power": "substation"}}, {"type": "node", "id": 568470738, "lat": 51.2768142, "lon": -2.200354, "tags": {"name": "Biggs Bush Road S/S", "power": "substation", "ref": "33602"}}, {"type": "node", "id": 568470739, "lat": 51.276679, "lon": -2.1988678, "tags": {"name": "Commerce Close S/S", "power": "substation", "ref:GB:uprn": "10024722878"}}, {"type": "node", "id": 568470740, "lat": 51.2703405, "lon": -2.2076554, "tags": {"name": "Northacre S/S", "power": "substation"}}, {"type": "node", "id": 568470741, "lat": 51.2692393, "lon": -2.2074041, "tags": {"name": "B2 Northacre Park S/S", "power": "substation", "ref:GB:uprn": "10025319036"}}, {"type": "node", "id": 568470745, "lat": 51.2729126, "lon": -2.2073207, "tags": {"name": "Control Packaging S/S", "power": "substation", "ref": "3535", "ref:GB:uprn": "10025739569"}}, {"type": "node", "id": 568470746, "lat": 51.2739935, "lon": -2.2051074, "tags": {"name": "Tesco Warehouse (W Wilts Industrial Estate) S/S", "power": "substation", "ref": "2134", "ref:GB:uprn": "10025075155"}}, {"type": "node", "id": 568470747, "lat": 51.2773477, "lon": -2.2044883, "tags": {"name": "Rygors", "power": "substation", "ref": "3156", "ref:GB:uprn": "10024726375"}}, {"type": "node", "id": 568470751, "lat": 51.2742812, "lon": -2.209335, "tags": {"name": "24 Headquarters Road WWTE", "power": "substation", "ref:GB:uprn": "10025319042"}}, {"type": "node", "id": 568470816, "lat": 51.2751517, "lon": -2.2122817, "tags": {"name": "Engineer Road S/S", "power": "substation", "ref": "1882"}}, {"type": "node", "id": 568470831, "lat": 51.2741645, "lon": -2.2099071, "tags": {"name": "Headquarters Road WWTE", "power": "substation", "ref:GB:uprn": "10025075154"}}, {"type": "node", "id": 574774743, "lat": 51.8477706, "lon": -2.2023414, "tags": {"name": "Bodenham Field", "note": "No ref present", "power": "substation", "source": "survey"}}, {"type": "node", "id": 574774762, "lat": 51.848736, "lon": -2.199678, "tags": {"name": "Milton Green", "power": "substation", "ref": "62297", "source": "survey"}}, {"type": "node", "id": 574774777, "lat": 51.8458318, "lon": -2.2008205, "tags": {"power": "substation", "ref": "62145", "source": "survey"}}, {"type": "node", "id": 581060662, "lat": 51.2585557, "lon": -2.1943045, "tags": {"name": "Queens Road Oldfield Estate", "power": "substation", "ref": "1117"}}, {"type": "node", "id": 587602105, "lat": 51.8295507, "lon": -2.2186226, "tags": {"power": "substation", "ref": "5542", "source": "survey"}}, {"type": "node", "id": 587602122, "lat": 51.8323073, "lon": -2.2134567, "tags": {"power": "substation", "ref": "5453", "source": "survey"}}, {"type": "node", "id": 710751543, "lat": 51.3574786, "lon": -2.3785049, "tags": {"power": "substation", "source": "survey"}}, {"type": "node", "id": 710751545, "lat": 51.3552329, "lon": -2.3820072, "tags": {"power": "substation", "source": "survey"}}, {"type": "node", "id": 710751547, "lat": 51.3528853, "lon": -2.379787, "tags": {"power": "substation", "source": "survey"}}, {"type": "node", "id": 721207474, "lat": 51.4916492, "lon": -2.5121044, "tags": {"name": "Rockland Rd Substation", "operator": "National Grid Electricity Distribution", "operator:wikidata": "Q7988183", "power": "substation", "ref:GB:wpd_site": "110321", "source": "nged_open_data", "substation": "minor_distribution", "voltage": "11000"}}, {"type": "node", "id": 721209479, "lat": 51.4837393, "lon": -2.5089715, "tags": {"addr:street": "Pleasant Road", "name": "PLEASANT RD OD", "power": "substation", "ref": "111776", "voltage": "11000"}}, {"type": "node", "id": 721363194, "lat": 51.4823571, "lon": -2.5118902, "tags": {"brand": "National Grid", "brand:wikidata": "Q1465461", "name": "TYLERS LANE P", "operator": "National Grid Electricity Distribution", "operator:old": "Western Power Distribution", "operator:wikidata": "Q7988183", "owner": "National Grid Electricity Distribution (South West) Plc", "owner:wikidata": "Q114397866", "power": "substation", "ref": "112883", "voltage": "11000"}}, {"type": "node", "id": 728737652, "lat": 51.3550876, "lon": -2.3633053, "tags": {"location": "outdoor", "operator": "Wales & West Utilities", "power": "substation", "ref": "W6M 1029DG", "substation": "minor_distribution"}}, {"type": "node", "id": 746703160, "lat": 51.4842317, "lon": -2.5156685, "tags": {"brand": "National Grid", "brand:wikidata": "Q1465461", "name": "Cassell Rd ID Substation", "operator": "National Grid Electricity Distribution", "operator:old": "Western Power Distribution", "operator:wikidata": "Q7988183", "owner": "National Grid Electricity Distribution (South West) Plc", "owner:wikidata": "Q114397866", "power": "substation", "ref:GB:wpd_site": "110209", "voltage": "11000"}}, {"type": "node", "id": 830477466, "lat": 51.8105969, "lon": -2.158212, "tags": {"name": "CRANHAM CH.", "power": "substation", "ref": "794591", "source": "survey", "voltage": "11000"}}, {"type": "node", "id": 918603213, "lat": 51.4820582, "lon": -2.6200943, "tags": {"power": "substation"}}, {"type": "node", "id": 974002674, "lat": 51.5138653, "lon": -2.5502139, "tags": {"name": "NEW ROAD 225", "operator": "National Grid Electricity Distribution", "operator:wikidata": "Q7988183", "power": "substation", "ref": "113568", "voltage": "11000"}}, {"type": "node", "id": 974002779, "lat": 51.5115269, "lon": -2.5451075, "tags": {"name": "WESTFIELD LANE", "operator": "National Grid Electricity Distribution", "operator:wikidata": "Q7988183", "power": "substation", "ref": "113655", "voltage": "11000"}}, {"type": "node", "id": 976060669, "lat": 51.5052671, "lon": -2.5491334, "tags": {"power": "substation"}}, {"type": "node", "id": 976060726, "lat": 51.5128753, "lon": -2.5442142, "tags": {"name": "WHITLEY MEAD", "power": "substation", "ref": "113674", "voltage": "11000"}}, {"type": "node", "id": 976062609, "lat": 51.5121213, "lon": -2.5408869, "tags": {"brand": "National Grid", "brand:wikidata": "Q1465461", "name": "THE DEANS HAMBROOK LANE", "operator": "National Grid Electricity Distribution", "operator:old": "Western Power Distribution", "operator:wikidata": "Q7988183", "owner": "National Grid Electricity Distribution (South West) Plc", "owner:wikidata": "Q114397866", "power": "substation", "ref": "114411"}}, {"type": "node", "id": 976802370, "lat": 51.505897, "lon": -2.5197765, "tags": {"name": "HAMBROOK BAKERY SUBSTATION", "operator": "National Grid Electricity Distribution Plc", "operator:wikidata": "Q7988183", "power": "substation", "ref:GB:wpd_site": "112090", "source": "nged_open_data", "substation": "minor_distribution", "voltage": "11000"}}, {"type": "node", "id": 1289024990, "lat": 51.4790019, "lon": -3.1532154, "tags": {"power": "substation", "source": "Bing;survey"}}, {"type": "node", "id": 1320935721, "lat": 51.526361, "lon": -2.5418173, "tags": {"name": "MEADOW WAY", "operator": "National Grid Electricity Distribution", "operator:wikidata": "Q7988183", "power": "substation", "ref": "113623", "voltage": "11000"}}, {"type": "node", "id": 1338618109, "lat": 51.530606, "lon": -2.5463317, "tags": {"name": "HAWKINS CRESCENT", "operator": "National Grid Electricity Distribution", "operator:wikidata": "Q7988183", "power": "substation", "ref": "113929", "voltage": "11000"}}, {"type": "node", "id": 1338997225, "lat": 51.5356754, "lon": -2.5508624, "tags": {"name": "Manor Farm Crescent Substation", "operator": "National Grid Electricity Distribution", "operator:wikidata": "Q7988183", "power": "substation", "ref:GB:wpd_site": "114030", "source": "nged_open_data", "substation": "minor_distribution", "voltage": "11000"}}, {"type": "node", "id": 1339077640, "lat": 51.5279522, "lon": -2.5505558, "tags": {"name": "ELM CLOSE P", "operator": "National Grid Electricity Distribution", "operator:wikidata": "Q7988183", "power": "substation", "ref": "113143", "voltage": "11000"}}, {"type": "node", "id": 1339706197, "lat": 51.5259257, "lon": -2.5501558, "tags": {"name": "HERCULES CLOSE P", "operator": "National Grid Electricity Distribution", "operator:wikidata": "Q7988183", "power": "substation", "ref": "112737", "voltage": "11000"}}, {"type": "node", "id": 1339875773, "lat": 51.5238676, "lon": -2.5364149, "tags": {"name": "BAILEYS CRT RD WEST", "operator": "National Grid Electricity Distribution", "operator:wikidata": "Q7988183", "power": "substation", "ref": "113540", "voltage": "11000"}}, {"type": "node", "id": 1339980209, "lat": 51.5240376, "lon": -2.5411906, "tags": {"name": "PURSEY DRIVE", "operator": "National Grid Electricity Distribution", "operator:wikidata": "Q7988183", "power": "substation", "ref": "113776", "voltage": "11000"}}, {"type": "node", "id": 1346286684, "lat": 51.5243554, "lon": -2.5468405, "tags": {"name": "STEANBRIDGE ROAD", "operator": "National Grid Electricity Distribution", "operator:wikidata": "Q7988183", "power": "substation", "ref": "113533", "voltage": "11000"}}, {"type": "node", "id": 1346348356, "lat": 51.5217336, "lon": -2.5397642, "tags": {"name": "MEAD ROAD", "operator": "National Grid Electricity Distribution", "operator:wikidata": "Q7988183", "power": "substation", "ref": "113491", "voltage": "11000"}}, {"type": "node", "id": 1360955121, "lat": 51.5186886, "lon": -2.5463436, "tags": {"name": "RATCLIFFE DRIVE OD", "operator": "National Grid Electricity Distribution", "operator:wikidata": "Q7988183", "power": "substation", "ref": "113378", "voltage": "11000"}}, {"type": "node", "id": 1360955164, "lat": 51.5211607, "lon": -2.5439313, "tags": {"name": "RATCLIFFE DRIVE NTH", "operator": "National Grid Electricity Distribution", "operator:wikidata": "Q7988183", "power": "substation", "ref": "113432", "voltage": "11000"}}, {"type": "node", "id": 1362158226, "lat": 51.5161864, "lon": -2.5438229, "tags": {"name": "BEAUFORT CRESCENT", "operator": "National Grid Electricity Distribution", "operator:wikidata": "Q7988183", "power": "substation", "ref": "113385", "voltage": "11000"}}, {"type": "node", "id": 1445748673, "lat": 51.514658, "lon": -2.5455622, "tags": {"name": "BRISTOL PARKWAY", "operator": "National Grid Electricity Distribution", "operator:wikidata": "Q7988183", "power": "substation", "ref": "113779", "voltage": "11000"}}, {"type": "node", "id": 1450586729, "lat": 51.9066397, "lon": -2.0782908, "tags": {"power": "substation", "ref": "FCH 1 CATERING"}}, {"type": "node", "id": 1483921272, "lat": 51.7305968, "lon": -2.3660089, "tags": {"power": "substation"}}, {"type": "node", "id": 1518497685, "lat": 51.5419554, "lon": -2.5644689, "tags": {"power": "substation"}}, {"type": "node", "id": 1518764081, "lat": 51.5363225, "lon": -2.558229, "tags": {"name": "Courtlands Substation", "operator": "National Grid Electricity Distribution", "operator:wikidata": "Q7988183", "power": "substation", "ref:GB:wpd_site": "113680", "source": "nged_open_data", "substation": "minor_distribution", "voltage": "11000"}}, {"type": "node", "id": 1600548097, "lat": 51.5349354, "lon": -2.5745431, "tags": {"name": "CONISTON ROAD EAST", "operator": "National Grid Electricity Distribution", "operator:wikidata": "Q7988183", "power": "substation", "ref": "111334", "voltage": "11000"}}, {"type": "node", "id": 1601777315, "lat": 51.5310484, "lon": -2.5800993, "tags": {"name": "ST CHADS CHURCH P", "operator": "National Grid Electricity Distribution", "operator:wikidata": "Q7988183", "power": "substation", "ref": "112441", "voltage": "11000"}}, {"type": "node", "id": 1602837922, "lat": 51.5023669, "lon": -2.5252066, "tags": {"brand": "National Grid", "brand:wikidata": "Q1465461", "name": "GREENBURY ROAD O D SUBSTATION", "operator": "National Grid Electricity Distribution", "operator:old": "Western Power Distribution", "operator:wikidata": "Q7988183", "owner": "National Grid Electricity Distribution (South West) Plc", "owner:wikidata": "Q114397866", "power": "substation", "ref:GB:wpd_site": "112079", "source": "nged_open_data", "substation": "minor_distribution", "voltage": "11000"}}, {"type": "node", "id": 1612376615, "lat": 51.5072462, "lon": -2.5520474, "tags": {"power": "substation"}}, {"type": "node", "id": 1650984943, "lat": 51.4778577, "lon": -2.6053706, "tags": {"name": "Upper Cranbrook Rd S/S", "operator": "national grid", "power": "substation", "ref": "2009"}}, {"type": "node", "id": 1652213846, "lat": 51.4795655, "lon": -2.6207893, "tags": {"name": "Parrys Lane P. S/S", "power": "substation", "ref": "110570", "voltage": "11000"}}, {"type": "node", "id": 1652213862, "lat": 51.4824015, "lon": -2.6253636, "tags": {"name": "Unigate Dairies Parrys Lane", "operator": "National Grid", "power": "substation", "ref": "113876", "voltage": "11000"}}, {"type": "node", "id": 1656725374, "lat": 51.528777, "lon": -2.5870733, "tags": {"name": "LARCH WAY P", "operator": "National Grid Electricity Distribution", "operator:wikidata": "Q7988183", "power": "substation", "ref": "112498", "voltage": "11000"}}, {"type": "node", "id": 1656737998, "lat": 51.5287248, "lon": -2.5842206, "tags": {"name": "FIR TREE CLOSE P", "operator": "National Grid Electricity Distribution", "operator:wikidata": "Q7988183", "power": "substation", "ref": "112500", "voltage": "11000"}}, {"type": "node", "id": 1656851532, "lat": 51.5305826, "lon": -2.5828564, "tags": {"name": "RODWAY ROAD P", "operator": "National Grid Electricity Distribution", "operator:wikidata": "Q7988183", "power": "substation", "ref": "110341", "voltage": "11000"}}, {"type": "node", "id": 1666673127, "lat": 51.5092663, "lon": -2.5685718, "tags": {"power": "substation"}}, {"type": "node", "id": 1685230407, "lat": 51.536404, "lon": -2.5831997, "tags": {"name": "SEVERN WAY OD", "operator": "National Grid Electricity Distribution", "operator:wikidata": "Q7988183", "power": "substation", "ref": "112152", "voltage": "11000"}}, {"type": "node", "id": 1695270392, "lat": 51.8519153, "lon": -2.2187554, "tags": {"power": "substation"}}, {"type": "node", "id": 1741942064, "lat": 51.4867106, "lon": -2.6182945, "tags": {"name": "Great Brockeridge North P", "power": "substation", "ref": "2666"}}, {"type": "node", "id": 1758846093, "lat": 51.4869992, "lon": -2.6416935, "tags": {"brand": "National Grid", "brand:wikidata": "Q1465461", "name": "Bell Barn Road ID", "operator": "National Grid Electricity Distribution Plc", "operator:old": "Western Power Distribution", "operator:wikidata": "Q7988183", "owner": "National Grid Electricity Distribution (South West) Plc", "owner:wikidata": "Q114397866", "power": "substation", "ref": "0174"}}, {"type": "node", "id": 1758846105, "lat": 51.4893756, "lon": -2.6388332, "tags": {"name": "Woodland Grove P S/S", "power": "substation", "ref": "1350"}}, {"type": "node", "id": 1758880686, "lat": 51.4837411, "lon": -2.641985, "tags": {"power": "substation"}}, {"type": "node", "id": 1831445590, "lat": 51.4881575, "lon": -2.6440653, "tags": {"power": "substation"}}, {"type": "node", "id": 1833491984, "lat": 51.4782635, "lon": -2.6332098, "tags": {"name": "Stoke Hill M", "power": "substation", "ref": "0587"}}, {"type": "node", "id": 1833492021, "lat": 51.4818563, "lon": -2.6396971, "tags": {"operator": "national grid", "power": "substation", "substation": "minor_distribution"}}, {"type": "node", "id": 1833492022, "lat": 51.4826783, "lon": -2.6363776, "tags": {"name": "Druid Stoke Ave East", "operator": "national grid", "power": "substation", "ref": "11 2438"}}, {"type": "node", "id": 1833527087, "lat": 51.4775436, "lon": -2.6363326, "tags": {"power": "substation"}}, {"type": "node", "id": 1835771907, "lat": 51.4528802, "lon": -2.6233007, "tags": {"power": "substation"}}, {"type": "node", "id": 1837110739, "lat": 51.4845199, "lon": -2.635113, "tags": {"power": "substation"}}, {"type": "node", "id": 1850603723, "lat": 51.494761, "lon": -2.5251712, "tags": {"name": "Begbrooke Park Substation", "operator": "National Grid Electricity Distribution", "operator:wikidata": "Q7988183", "power": "substation", "ref:GB:wpd_site": "111921", "source": "nged_open_data", "substation": "minor_distribution", "voltage": "11000"}}, {"type": "node", "id": 1867994972, "lat": 51.4751243, "lon": -2.6078471, "tags": {"power": "substation"}}, {"type": "node", "id": 1878571565, "lat": 51.4924173, "lon": -2.6090766, "tags": {"power": "substation"}}, {"type": "node", "id": 1881469640, "lat": 51.4609692, "lon": -2.5998285, "tags": {"power": "substation"}}, {"type": "node", "id": 1881624843, "lat": 51.4520726, "lon": -2.5830325, "tags": {"brand": "National Grid", "brand:wikidata": "Q1465461", "level": "0", "location": "indoor", "operator": "National Grid Electricity Distribution", "operator:old": "Western Power Distribution", "operator:wikidata": "Q7988183", "owner": "National Grid Electricity Distribution (South West) Plc", "owner:wikidata": "Q114397866", "power": "substation", "substation": "minor_distribution"}}, {"type": "node", "id": 1881745696, "lat": 51.4734926, "lon": -2.6290033, "tags": {"power": "substation"}}, {"type": "node", "id": 1884612274, "lat": 51.5003163, "lon": -2.5232992, "tags": {"name": "MALMAINS DR WEST O D SUBSTATION", "operator": "National Grid Electricity Distribution", "operator:wikidata": "Q7988183", "power": "substation", "ref:GB:wpd_site": "110324", "source": "nged_open_data", "substation": "minor_distribution", "voltage": "11000"}}, {"type": "node", "id": 1884612275, "lat": 51.5009187, "lon": -2.5221252, "tags": {"name": "WADHAM DRIVE SUBSTATION", "operator": "National Grid Electricity Distribution", "operator:wikidata": "Q7988183", "power": "substation", "ref:GB:wpd_site": "111609", "source": "nged_open_data", "substation": "minor_distribution", "voltage": "11000"}}, {"type": "node", "id": 1884633015, "lat": 51.5023438, "lon": -2.5217254, "tags": {"name": "MARLBOROUGH DRIVE SUBSTATION", "operator": "National Grid Electricity Distribution", "operator:wikidata": "Q7988183", "power": "substation", "ref:GB:wpd_site": "111608", "source": "nged_open_data", "substation": "minor_distribution", "voltage": "11000"}}, {"type": "node", "id": 1885570951, "lat": 51.4525568, "lon": -2.6109372, "tags": {"power": "substation"}}, {"type": "node", "id": 1890729626, "lat": 51.5061001, "lon": -2.5355552, "tags": {"brand": "National Grid", "brand:wikidata": "Q1465461", "name": "FILTON ROAD LIGHTING", "operator": "National Grid Electricity Distribution Plc", "operator:old": "Western Power Distribution", "operator:wikidata": "Q7988183", "owner": "National Grid Electricity Distribution (South West) Plc", "owner:wikidata": "Q114397866", "power": "substation", "ref": "114408"}}, {"type": "node", "id": 1909195961, "lat": 51.4616036, "lon": -2.6103007, "tags": {"name": "Oakfield Lane P. S/S", "power": "substation", "ref": "2036"}}, {"type": "node", "id": 1910720451, "lat": 51.4436603, "lon": -2.5647115, "tags": {"power": "substation"}}, {"type": "node", "id": 1912279856, "lat": 51.4063303, "lon": -2.5578331, "tags": {"power": "substation"}}, {"type": "node", "id": 1924398841, "lat": 51.4861532, "lon": -2.5687253, "tags": {"power": "substation"}}, {"type": "node", "id": 1940027804, "lat": 51.3302309, "lon": -2.9510462, "tags": {"designation": "St Modwen Substation", "power": "substation", "substation": "minor_distribution"}}, {"type": "node", "id": 1941968309, "lat": 51.5095646, "lon": -2.5187874, "tags": {"name": "CROWN INN Substation", "operator": "National Grid Electricity Distribution Plc", "operator:wikidata": "Q7988183", "power": "substation", "ref:GB:wpd_site": "110091", "source": "nged_open_data", "substation": "minor_distribution", "voltage": "11000"}}, {"type": "node", "id": 1944930908, "lat": 51.508622, "lon": -2.5154334, "tags": {"brand": "National Grid", "brand:wikidata": "Q1465461", "name": "THE LODGE HAMBROOK Substation", "operator": "National Grid Electricity Distribution", "operator:old": "Western Power Distribution", "operator:wikidata": "Q7988183", "owner": "National Grid Electricity Distribution (South West) Plc", "owner:wikidata": "Q114397866", "power": "substation", "ref": "4170", "source": "nged_open_data", "substation": "minor_distribution", "voltage": "11000"}}, {"type": "node", "id": 1959562989, "lat": 51.5161487, "lon": -2.5217366, "tags": {"name": "Forest Hills Old Glous Substation", "operator": "National Grid Electricity Distribution", "operator:wikidata": "Q7988183", "power": "substation", "ref:GB:wpd_site": "114357", "source": "nged_open_data", "substation": "minor_distribution", "voltage": "11000"}}, {"type": "node", "id": 1973209734, "lat": 51.5142204, "lon": -2.5340033, "tags": {"name": "HAMBROOK LANE", "operator": "National Grid Electricity Distribution", "operator:wikidata": "Q7988183", "power": "substation", "ref": "113218", "voltage": "11000"}}, {"type": "node", "id": 1975737405, "lat": 51.4682149, "lon": -2.6192279, "tags": {"power": "substation"}}, {"type": "node", "id": 1975737528, "lat": 51.4739588, "lon": -2.6261382, "tags": {"power": "substation"}}, {"type": "node", "id": 1975788454, "lat": 51.459485, "lon": -2.6188811, "tags": {"power": "substation"}}, {"type": "node", "id": 1986197666, "lat": 51.4755335, "lon": -2.628952, "tags": {"name": "Stoke House", "operator": "national grid", "power": "substation", "ref": "0140"}}, {"type": "node", "id": 1986230371, "lat": 51.4750531, "lon": -2.6384538, "tags": {"name": "0159 Church Road K", "power": "substation"}}, {"type": "node", "id": 1986248401, "lat": 51.4713102, "lon": -2.6351645, "tags": {"power": "substation"}}, {"type": "node", "id": 1986248421, "lat": 51.472602, "lon": -2.6380883, "tags": {"power": "substation"}}, {"type": "node", "id": 1986248432, "lat": 51.4733401, "lon": -2.6405504, "tags": {"power": "substation"}}, {"type": "node", "id": 1998046644, "lat": 51.4958826, "lon": -2.5997304, "tags": {"power": "substation"}}, {"type": "node", "id": 2007290090, "lat": 51.4904832, "lon": -2.6235866, "tags": {"name": "Newcombe Rd O/D S/S", "power": "substation", "ref": "2639"}}, {"type": "node", "id": 2007399502, "lat": 51.4995828, "lon": -2.6231121, "tags": {"power": "substation"}}, {"type": "node", "id": 2009828212, "lat": 51.4921422, "lon": -2.6173977, "tags": {"name": "Cambridge Cres P. S/S", "operator": "national grid", "power": "substation", "ref": "2780"}}, {"type": "node", "id": 2011456800, "lat": 51.4890686, "lon": -2.5144459, "tags": {"brand": "National Grid", "brand:wikidata": "Q1465461", "name": "Frenchay Road Substation", "operator": "National Grid Electricity Distribution", "operator:old": "Western Power Distribution", "operator:wikidata": "Q7988183", "owner": "National Grid Electricity Distribution (South West) Plc", "owner:wikidata": "Q114397866", "power": "substation", "ref:GB:wpd_site": "113490", "substation": "yes", "voltage": "11000"}}, {"type": "node", "id": 2014302566, "lat": 51.5029209, "lon": -2.5193799, "tags": {"name": "HARFORD DRIVE SUBSTATION", "operator": "National Grid Electricity Distribution Plc", "operator:wikidata": "Q7988183", "power": "substation", "ref:GB:wpd_site": "113050", "source": "nged_open_data", "substation": "minor_distribution", "voltage": "11000"}}, {"type": "node", "id": 2018970248, "lat": 51.4653671, "lon": -2.6107836, "tags": {"power": "substation"}}, {"type": "node", "id": 2019080331, "lat": 51.4553082, "lon": -2.5966716, "tags": {"power": "substation"}}, {"type": "node", "id": 2019080332, "lat": 51.4557324, "lon": -2.5973488, "tags": {"power": "substation"}}, {"type": "node", "id": 2035094209, "lat": 51.4111122, "lon": -2.5832339, "tags": {"power": "substation"}}, {"type": "node", "id": 2045108007, "lat": 51.4843465, "lon": -2.6166795, "tags": {"power": "substation"}}, {"type": "node", "id": 2093636029, "lat": 51.6385815, "lon": -2.3508914, "tags": {"power": "substation", "substation": "minor_distribution"}}, {"type": "node", "id": 2290976068, "lat": 51.4811938, "lon": -2.5707179, "tags": {"power": "substation"}}, {"type": "node", "id": 2291910213, "lat": 51.4955597, "lon": -2.6158962, "tags": {"name": "Passage Road O/D", "power": "substation", "ref": "0571"}}, {"type": "node", "id": 2291910303, "lat": 51.5070823, "lon": -2.6014075, "tags": {"power": "substation"}}, {"type": "node", "id": 2315240631, "lat": 51.540306, "lon": -2.566741, "tags": {"name": "NEW INN KIOSK", "operator": "National Grid Electricity Distribution", "operator:wikidata": "Q7988183", "power": "substation", "ref": "110143", "voltage": "11000"}}, {"type": "node", "id": 2334804500, "lat": 51.4617155, "lon": -2.6299545, "tags": {"power": "substation"}}, {"type": "node", "id": 2334883316, "lat": 51.4428533, "lon": -2.6036685, "tags": {"name": "MERRYWOOD RD", "operator": "National Grid Electricity Distribution", "operator:wikidata": "Q7988183", "power": "substation", "ref": "110490", "voltage": "11000"}}, {"type": "node", "id": 2334903955, "lat": 51.4520437, "lon": -2.6182979, "tags": {"power": "substation"}}, {"type": "node", "id": 2356706998, "lat": 51.4993774, "lon": -2.5448626, "tags": {"power": "substation"}}, {"type": "node", "id": 2383579567, "lat": 51.4455525, "lon": -2.5880403, "tags": {"power": "substation"}}, {"type": "node", "id": 2385192240, "lat": 51.4488537, "lon": -2.5868219, "tags": {"power": "substation"}}, {"type": "node", "id": 2390895922, "lat": 51.2409455, "lon": -2.3059197, "tags": {"power": "substation"}}, {"type": "node", "id": 2545914719, "lat": 51.4961605, "lon": -2.5582805, "tags": {"power": "substation"}}, {"type": "node", "id": 2563792742, "lat": 51.5056241, "lon": -2.5617753, "tags": {"name": "ABBEYWOOD MALL", "operator": "National Grid Electricity Distribution", "operator:wikidata": "Q7988183", "power": "substation", "ref": "114680", "voltage": "11000"}}, {"type": "node", "id": 2579722282, "lat": 51.4924258, "lon": -2.5998997, "tags": {"power": "substation"}}, {"type": "node", "id": 2626437353, "lat": 51.5092451, "lon": -2.572667, "tags": {"power": "substation"}}, {"type": "node", "id": 2631837841, "lat": 51.5294271, "lon": -2.5721756, "tags": {"name": "HAZELDENE RD K", "operator": "National Grid Electricity Distribution", "operator:wikidata": "Q7988183", "power": "substation", "ref": "110306", "voltage": "11000"}}, {"type": "node", "id": 2669003058, "lat": 51.7771033, "lon": -2.1916664, "tags": {"name": "DUTCHCOMBE FM.", "operator": "National Grid Electricity Distribution", "operator:wikidata": "Q7988183", "power": "substation", "ref": "793202", "transformer": "distribution", "voltage": "11000"}}, {"type": "node", "id": 2679384625, "lat": 51.5079532, "lon": -2.5387068, "tags": {"FIXME": "approximate", "power": "substation"}}, {"type": "node", "id": 2693318476, "lat": 51.4866023, "lon": -2.5484461, "tags": {"name": "GROVE VIEW SUBSTATION", "operator": "National Grid Electricity Distribution", "operator:wikidata": "Q7988183", "power": "substation", "ref:GB:wpd_site": "111982", "substation": "minor_distribution", "voltage": "11000"}}, {"type": "node", "id": 2693318479, "lat": 51.4870569, "lon": -2.5498676, "tags": {"name": "DUCHESS WAY SUBSTATION", "operator": "National Grid Electricity Distribution", "operator:wikidata": "Q7988183", "power": "substation", "ref:GB:wpd_site": "112631", "substation": "minor_distribution", "voltage": "11000"}}, {"type": "node", "id": 2698973888, "lat": 51.4903384, "lon": -2.6084611, "tags": {"name": "Eastfield Terr", "operator": "National Grid", "power": "substation", "ref": "1998"}}, {"type": "node", "id": 2698973944, "lat": 51.4912304, "lon": -2.6044899, "tags": {"power": "substation"}}, {"type": "node", "id": 2732882410, "lat": 51.4577644, "lon": -2.6046798, "tags": {"power": "substation"}}, {"type": "node", "id": 2735328089, "lat": 51.4836366, "lon": -2.6060522, "tags": {"power": "substation"}}, {"type": "node", "id": 2778395368, "lat": 51.4753956, "lon": -2.6277206, "tags": {"name": "University Hostel S/S", "operator": "national grid", "power": "substation", "ref": "1177"}}, {"type": "node", "id": 2782338319, "lat": 51.4865101, "lon": -2.6518705, "tags": {"power": "substation"}}, {"type": "node", "id": 2782448015, "lat": 51.4953687, "lon": -2.6832854, "tags": {"name": "HOPE & ANCHOR", "operator": "National Grid Electricity Distribution", "operator:wikidata": "Q7988183", "power": "substation", "ref": "110113", "voltage": "11000"}}, {"type": "node", "id": 2793607080, "lat": 51.4949364, "lon": -2.6186228, "tags": {"power": "substation"}}, {"type": "node", "id": 2793892568, "lat": 51.4916161, "lon": -2.5863801, "tags": {"power": "substation"}}, {"type": "node", "id": 2800819243, "lat": 51.4746242, "lon": -2.6141218, "tags": {"power": "substation"}}, {"type": "node", "id": 2807342530, "lat": 51.5060269, "lon": -2.6561981, "tags": {"name": "ST BEDES SEC. SCH P", "operator": "National Grid Electricity Distribution", "operator:wikidata": "Q7988183", "power": "substation", "ref": "112511", "voltage": "11000"}}, {"type": "node", "id": 2807342928, "lat": 51.5244249, "lon": -2.685464, "tags": {"name": "RROCKINGHAM BUSINESS PARK", "operator": "National Grid Electricity Distribution", "operator:wikidata": "Q7988183", "power": "substation", "ref": "114692", "voltage": "11000"}}, {"type": "node", "id": 2807547761, "lat": 51.5587114, "lon": -2.6657299, "tags": {"name": "SEAWALL PARK", "operator": "National Grid Electricity Distribution", "operator:wikidata": "Q7988183", "power": "substation", "ref": "113828", "voltage": "11000"}}, {"type": "node", "id": 2807656033, "lat": 51.5552311, "lon": -2.64363, "tags": {"power": "substation"}}, {"type": "node", "id": 2807656072, "lat": 51.5630884, "lon": -2.6419419, "tags": {"name": "CROSS HANDS ROAD OD", "operator": "National Grid Electricity Distribution", "operator:wikidata": "Q7988183", "power": "substation", "ref": "111942", "voltage": "11000"}}, {"type": "node", "id": 2815440421, "lat": 51.527319, "lon": -2.5744623, "tags": {"power": "substation"}}, {"type": "node", "id": 2822543023, "lat": 51.4548469, "lon": -2.6177168, "tags": {"power": "substation"}}, {"type": "node", "id": 2853929416, "lat": 51.4914905, "lon": -2.5637456, "tags": {"power": "substation"}}, {"type": "node", "id": 2864592013, "lat": 51.5048035, "lon": -2.6003275, "tags": {"power": "substation"}}, {"type": "node", "id": 2864637843, "lat": 51.5037064, "lon": -2.5988907, "tags": {"power": "substation"}}, {"type": "node", "id": 2875299558, "lat": 51.491156, "lon": -2.5656166, "tags": {"power": "substation"}}, {"type": "node", "id": 2882341587, "lat": 51.4759604, "lon": -2.6050121, "tags": {"power": "substation"}}, {"type": "node", "id": 2882618045, "lat": 51.4681494, "lon": -2.6001311, "tags": {"power": "substation"}}, {"type": "node", "id": 2889954669, "lat": 51.4917133, "lon": -2.5672424, "tags": {"power": "substation"}}, {"type": "node", "id": 2892521989, "lat": 51.4657783, "lon": -2.6065287, "tags": {"operator": "national grid", "power": "substation"}}, {"type": "node", "id": 2901824066, "lat": 51.488428, "lon": -2.5688522, "tags": {"power": "substation"}}, {"type": "node", "id": 2911857134, "lat": 51.4922027, "lon": -2.6255095, "tags": {"name": "Canford Park", "operator": "National Grid", "power": "substation", "ref": "1954"}}, {"type": "node", "id": 2911857142, "lat": 51.4929351, "lon": -2.6223578, "tags": {"power": "substation"}}, {"type": "node", "id": 2919627411, "lat": 51.4745818, "lon": -2.5837242, "tags": {"power": "substation"}}, {"type": "node", "id": 2919627451, "lat": 51.4777303, "lon": -2.5815834, "tags": {"power": "substation"}}, {"type": "node", "id": 2923382418, "lat": 51.4812008, "lon": -2.5139472, "tags": {"name": "OVERNHILL RD POCKET", "power": "substation", "ref": "110051", "voltage": "11000"}}, {"type": "node", "id": 2925404130, "lat": 51.4660932, "lon": -2.6149248, "tags": {"power": "substation"}}, {"type": "node", "id": 2933392533, "lat": 51.4538663, "lon": -2.5810602, "tags": {"power": "substation"}}, {"type": "node", "id": 2933567701, "lat": 51.4889413, "lon": -2.5813598, "tags": {"power": "substation"}}, {"type": "node", "id": 2946765982, "lat": 51.458962, "lon": -2.5629169, "tags": {"name": "CATTYBROOK ST P", "operator": "National Grid Electricity Distribution", "operator:wikidata": "Q7988183", "power": "substation", "ref": "114320", "voltage": "11000"}}, {"type": "node", "id": 2955157204, "lat": 51.4305084, "lon": -2.6566094, "tags": {"power": "substation"}}, {"type": "node", "id": 2976583653, "lat": 51.4959208, "lon": -2.5206663, "tags": {"name": "Frenchay Substation", "operator": "National Grid Electricity Distribution", "operator:wikidata": "Q7988183", "power": "substation", "ref:GB:wpd_site": "110673", "source": "nged_open_data", "voltage": "11000"}}, {"type": "node", "id": 3001245477, "lat": 51.4560021, "lon": -2.600162, "tags": {"power": "substation"}}, {"type": "node", "id": 3022269410, "lat": 51.4534857, "lon": -2.6309863, "tags": {"name": "Suspension Bridge", "power": "substation", "ref": "112490"}}, {"type": "node", "id": 3054458710, "lat": 51.2600526, "lon": -2.5080429, "tags": {"name": "Chilcompton Substation", "operator": "National Grid Electricity Distribution", "operator:wikidata": "Q7988183", "power": "substation", "ref:GB:wpd_site": "160416", "source": "nged_open_data", "substation": "minor_distribution", "voltage": "11000"}}, {"type": "node", "id": 3061519542, "lat": 51.4969397, "lon": -2.5610491, "tags": {"power": "substation"}}, {"type": "node", "id": 3067620465, "lat": 51.4399889, "lon": -2.6000296, "tags": {"name": "ST JOHN STREET P.", "operator": "National Grid Electricity Distribution", "operator:wikidata": "Q7988183", "power": "substation", "ref": "113936", "voltage": "11000"}}, {"type": "node", "id": 3067620470, "lat": 51.4401527, "lon": -2.5976645, "tags": {"name": "CHURCH LANE", "operator": "National Grid Electricity Distribution", "operator:wikidata": "Q7988183", "power": "substation", "ref": "113308", "voltage": "11000"}}, {"type": "node", "id": 3067620609, "lat": 51.4426873, "lon": -2.6056309, "tags": {"name": "GREVILLE ST NORTH P", "operator": "National Grid Electricity Distribution", "operator:wikidata": "Q7988183", "power": "substation", "ref": "112440", "voltage": "11000"}}, {"type": "node", "id": 3091555636, "lat": 51.5416193, "lon": -2.5802133, "tags": {"operator": "National Grid Electricity Distribution", "operator:wikidata": "Q7988183", "power": "substation", "ref": "113692", "voltage": "11000"}}, {"type": "node", "id": 3091555637, "lat": 51.5416206, "lon": -2.5804255, "tags": {"name": "AZTEC WEST G", "operator": "National Grid Electricity Distribution", "operator:wikidata": "Q7988183", "power": "substation", "ref": "113587"}}, {"type": "node", "id": 3092884612, "lat": 51.5396065, "lon": -2.5762764, "tags": {"power": "substation"}}, {"type": "node", "id": 3092998759, "lat": 51.5394679, "lon": -2.5742766, "tags": {"power": "substation"}}, {"type": "node", "id": 3092999147, "lat": 51.5411898, "lon": -2.5703712, "tags": {"name": "300 PARK AVENUE", "power": "substation", "ref": "114687", "voltage": "11000"}}, {"type": "node", "id": 3092999158, "lat": 51.5413968, "lon": -2.5678603, "tags": {"power": "substation"}}, {"type": "node", "id": 3096571435, "lat": 51.5339107, "lon": -2.5711911, "tags": {"name": "DERWENT CLOSE", "operator": "National Grid Electricity Distribution", "operator:wikidata": "Q7988183", "power": "substation", "ref": "113085", "voltage": "11000"}}, {"type": "node", "id": 3098017794, "lat": 51.5388816, "lon": -2.5631566, "tags": {"name": "STANDISH AVE OD", "operator": "National Grid Electricity Distribution", "operator:wikidata": "Q7988183", "power": "substation", "ref": "112028", "voltage": "11000"}}, {"type": "node", "id": 3098017804, "lat": 51.5400701, "lon": -2.558121, "tags": {"name": "Brackendene Substation", "operator": "National Grid Electricity Distribution", "operator:wikidata": "Q7988183", "power": "substation", "ref:GB:wpd_site": "113862", "source": "nged_open_data", "substation": "minor_distribution", "voltage": "11000"}}, {"type": "node", "id": 3098017953, "lat": 51.5427294, "lon": -2.5614225, "tags": {"name": "Bradley Stoke Way North S/S", "power": "substation", "ref": "113532", "voltage": "11000"}}, {"type": "node", "id": 3104486986, "lat": 51.5468632, "lon": -2.5562432, "tags": {"name": "360 Networks Substation", "operator": "National Grid Electricity Distribution", "operator:wikidata": "Q7988183", "power": "substation", "ref:GB:wpd_site": "114105", "source": "nged_open_data", "substation": "minor_distribution", "voltage": "11000"}}, {"type": "node", "id": 3104486987, "lat": 51.5468913, "lon": -2.5562428, "tags": {"name": "Eagleswood A Substation", "operator": "National Grid Electricity Distribution", "operator:wikidata": "Q7988183", "power": "substation", "ref:GB:wpd_site": "113569", "source": "nged_open_data", "substation": "minor_distribution", "voltage": "11000"}}, {"type": "node", "id": 3108249222, "lat": 51.5419999, "lon": -2.577044, "tags": {"name": "Ardman Animation", "operator": "National Grid Electricity Distribution", "operator:wikidata": "Q7988183", "power": "substation", "ref": "1140200421918", "voltage": "11000"}}, {"type": "node", "id": 3108364369, "lat": 51.545775, "lon": -2.5657272, "tags": {"name": "WOODLANDS COURT", "operator": "National Grid Electricity Distribution", "operator:wikidata": "Q7988183", "power": "substation", "ref": "113566", "voltage": "11000"}}, {"type": "node", "id": 3110360522, "lat": 51.5445691, "lon": -2.5638693, "tags": {"power": "substation"}}, {"type": "node", "id": 3110360580, "lat": 51.547085, "lon": -2.5633211, "tags": {"name": "ASHRIDGE ROAD", "operator": "National Grid Electricity Distribution", "operator:wikidata": "Q7988183", "power": "substation", "ref": "113590", "voltage": "11000"}}, {"type": "node", "id": 3115651734, "lat": 51.5482947, "lon": -2.5594387, "tags": {"name": "GRIDCO OFFICES", "operator": "National Grid Electricity Distribution", "operator:wikidata": "Q7988183", "power": "substation", "ref": "113635", "voltage": "11000"}}, {"type": "node", "id": 3121226191, "lat": 51.5478653, "lon": -2.5815208, "tags": {"power": "substation"}}, {"type": "node", "id": 3134269618, "lat": 51.5334304, "lon": -2.5877263, "tags": {"name": "SWALLOW DRIVE", "operator": "National Grid Electricity Distribution", "operator:wikidata": "Q7988183", "power": "substation", "ref": "113076", "voltage": "11000"}}, {"type": "node", "id": 3146564163, "lat": 51.5549324, "lon": -2.5671747, "tags": {"name": "ALMONDSBURY PO", "operator": "National Grid Electricity Distribution", "operator:wikidata": "Q7988183", "power": "substation", "ref": "112332", "voltage": "11000"}}, {"type": "node", "id": 3155093259, "lat": 51.5521429, "lon": -2.5687694, "tags": {"name": "ALMONDSBURY M", "operator": "National Grid Electricity Distribution", "operator:wikidata": "Q7988183", "power": "substation", "ref": "110065", "voltage": "11000"}}, {"type": "node", "id": 3160405446, "lat": 51.5559929, "lon": -2.5625066, "tags": {"name": "FLORNCE PARK OD", "operator": "National Grid Electricity Distribution", "operator:wikidata": "Q7988183", "power": "substation", "ref": "110787", "voltage": "11000"}}, {"type": "node", "id": 3160405634, "lat": 51.5579717, "lon": -2.5627474, "tags": {"name": "SCOPPS QUARRY K", "operator": "National Grid Electricity Distribution", "operator:wikidata": "Q7988183", "power": "substation", "ref": "119193", "voltage": "11000"}}, {"type": "node", "id": 3167444014, "lat": 51.5291088, "lon": -2.578315, "tags": {"name": "WOOD STREET", "operator": "National Grid Electricity Distribution", "operator:wikidata": "Q7988183", "power": "substation", "ref": "114583", "voltage": "11000"}}, {"type": "node", "id": 3179924614, "lat": 51.5226978, "lon": -2.584299, "tags": {"name": "HAYES SHOWROOM POCKET", "operator": "National Grid Electricity Distribution", "operator:wikidata": "Q7988183", "power": "substation", "ref": "114661", "voltage": "11000"}}, {"type": "node", "id": 3179924619, "lat": 51.5228301, "lon": -2.5825458, "tags": {"name": "PATCHWAY LINK RD", "operator": "National Grid Electricity Distribution", "operator:wikidata": "Q7988183", "power": "substation", "ref": "114607", "voltage": "11000"}}, {"type": "node", "id": 3183765219, "lat": 51.5321118, "lon": -2.5936301, "tags": {"name": "BRITTANIA ROAD OD", "operator": "National Grid Electricity Distribution", "operator:wikidata": "Q7988183", "power": "substation", "ref": "113319", "voltage": "11000ldf(\"ddd\","}}, {"type": "node", "id": 3203758335, "lat": 51.5390658, "lon": -2.5849894, "tags": {"name": "BLAKENEY ROAD NORTH OD", "operator": "National Grid Electricity Distribution", "operator:wikidata": "Q7988183", "power": "substation", "ref": "113078", "voltage": "11000"}}, {"type": "node", "id": 3203956987, "lat": 51.5261327, "lon": -2.5927303, "tags": {"power": "substation"}}, {"type": "node", "id": 3203957007, "lat": 51.5270665, "lon": -2.5921867, "tags": {"power": "substation"}}, {"type": "node", "id": 3266040423, "lat": 51.5526316, "lon": -2.5801863, "tags": {"name": "LWR KNOWLE FRM OD", "operator": "National Grid Electricity Distribution", "operator:wikidata": "Q7988183", "power": "substation", "ref": "111261", "voltage": "11000"}}, {"type": "node", "id": 3313255144, "lat": 51.5304518, "lon": -2.5694908, "tags": {"name": "CLIFFORD DAIRIES", "operator": "National Grid Electricity Distribution", "operator:wikidata": "Q7988183", "power": "substation", "ref": "113232", "voltage": "11000"}}, {"type": "node", "id": 3315607670, "lat": 51.5270256, "lon": -2.5709511, "tags": {"name": "GLOUCESTER RD POLICE ST", "operator": "National Grid Electricity Distribution", "operator:wikidata": "Q7988183", "power": "substation", "ref": "114696", "voltage": "11000"}}, {"type": "node", "id": 3317713780, "lat": 51.5256419, "lon": -2.5554861, "tags": {"name": "KINGSWAY P", "operator": "National Grid Electricity Distribution", "operator:wikidata": "Q7988183", "power": "substation", "ref": "112844", "voltage": "11000"}}, {"type": "node", "id": 3335205507, "lat": 51.5279496, "lon": -2.5968984, "tags": {"power": "substation"}}, {"type": "node", "id": 3335205512, "lat": 51.5280576, "lon": -2.5976591, "tags": {"power": "substation"}}, {"type": "node", "id": 3340796442, "lat": 51.7380138, "lon": -2.3704085, "tags": {"power": "substation"}}, {"type": "node", "id": 3340917687, "lat": 51.531237, "lon": -2.5640219, "tags": {"name": "GALLIVAN CLOSE", "operator": "National Grid Electricity Distribution", "operator:wikidata": "Q7988183", "power": "substation", "ref": "113823", "voltage": "11000"}}, {"type": "node", "id": 3350677008, "lat": 51.5367647, "lon": -2.5643548, "tags": {"name": "SHELLMORE AVE OD", "operator": "National Grid Electricity Distribution", "operator:wikidata": "Q7988183", "power": "substation", "ref": "111199", "voltage": "11000"}}, {"type": "node", "id": 3375596015, "lat": 51.4922109, "lon": -2.6349955, "tags": {"name": "Hammond Gardens O/D", "power": "substation", "ref": "1457"}}, {"type": "node", "id": 3375596047, "lat": 51.4932822, "lon": -2.6351433, "tags": {"name": "Churchill Drive O/D", "operator": "national grid", "power": "substation", "ref": "2345"}}, {"type": "node", "id": 3429467234, "lat": 51.459255, "lon": -2.6043406, "tags": {"power": "substation"}}, {"type": "node", "id": 3438332132, "lat": 51.4949499, "lon": -2.6241629, "tags": {"power": "substation"}}, {"type": "node", "id": 3567157479, "lat": 51.5232928, "lon": -2.6142554, "tags": {"addr:street": "Catbrain Lane", "name": "Redrow / Catbrain Lane", "power": "substation", "ref": "4288"}}, {"type": "node", "id": 3578786724, "lat": 51.5014225, "lon": -2.6170574, "tags": {"power": "substation"}}, {"type": "node", "id": 3578933607, "lat": 51.4826388, "lon": -2.6089691, "tags": {"power": "substation"}}, {"type": "node", "id": 3578933649, "lat": 51.495772, "lon": -2.6066153, "tags": {"power": "substation"}}, {"type": "node", "id": 3586924996, "lat": 51.5257552, "lon": -2.5473033, "tags": {"operator": "National Grid Electricity Distribution", "operator:wikidata": "Q7988183", "power": "substation", "voltage": "11000"}}, {"type": "node", "id": 3597196795, "lat": 51.4890359, "lon": -2.6127073, "tags": {"power": "substation"}}, {"type": "node", "id": 3622579672, "lat": 51.4839191, "lon": -2.671392, "tags": {"power": "substation"}}, {"type": "node", "id": 3622602849, "lat": 51.4901644, "lon": -2.6815052, "tags": {"power": "substation"}}, {"type": "node", "id": 3624097596, "lat": 51.4684988, "lon": -2.6757235, "tags": {"power": "substation"}}, {"type": "node", "id": 3627937586, "lat": 51.4548333, "lon": -2.6456607, "tags": {"power": "substation"}}, {"type": "node", "id": 3627937909, "lat": 51.4593929, "lon": -2.6595421, "tags": {"power": "substation"}}, {"type": "node", "id": 3639908271, "lat": 51.4484792, "lon": -2.5764992, "tags": {"name": "SPRINGFORD & TAYLORS", "operator": "National Grid Electricity Distribution", "operator:wikidata": "Q7988183", "power": "substation", "ref": "110196", "voltage": "11000"}}, {"type": "node", "id": 3662409161, "lat": 51.5158559, "lon": -2.5716399, "tags": {"power": "substation"}}, {"type": "node", "id": 3662409191, "lat": 51.5173077, "lon": -2.5674485, "tags": {"power": "substation"}}, {"type": "node", "id": 3700386523, "lat": 51.5173275, "lon": -2.6503246, "tags": {"power": "substation"}}, {"type": "node", "id": 3729785491, "lat": 51.5015851, "lon": -2.5800462, "tags": {"name": "Braemar Ave P. S/S", "power": "substation", "ref": "2533"}}, {"type": "node", "id": 3748468859, "lat": 51.5074842, "lon": -2.623081, "tags": {"power": "substation"}}, {"type": "node", "id": 3749937242, "lat": 51.5120335, "lon": -2.6339127, "tags": {"power": "substation"}}, {"type": "node", "id": 3749937308, "lat": 51.5126729, "lon": -2.6294959, "tags": {"power": "substation"}}, {"type": "node", "id": 3756450829, "lat": 51.5001235, "lon": -2.6955185, "tags": {"power": "substation"}}, {"type": "node", "id": 3771222009, "lat": 51.3818588, "lon": -2.3515125, "tags": {"power": "substation"}}, {"type": "node", "id": 3774143423, "lat": 51.4470968, "lon": -2.5903848, "tags": {"power": "substation"}}, {"type": "node", "id": 3774370063, "lat": 51.3477691, "lon": -2.2587719, "tags": {"power": "substation"}}, {"type": "node", "id": 3774370146, "lat": 51.3504259, "lon": -2.2612518, "tags": {"power": "substation"}}, {"type": "node", "id": 3793491685, "lat": 51.6366858, "lon": -2.3537837, "tags": {"name": "The Chipping", "operator": "National Grid Electricity Distribution", "operator:wikidata": "Q7988183", "power": "substation", "ref": "793967", "voltage": "11000"}}, {"type": "node", "id": 3799890014, "lat": 51.4170224, "lon": -2.5646289, "tags": {"power": "substation"}}, {"type": "node", "id": 3799890028, "lat": 51.417174, "lon": -2.5695243, "tags": {"name": "TYNING ESTATE", "operator": "National Grid Electricity Distribution", "operator:wikidata": "Q7988183", "power": "substation", "ref": "110766", "voltage": "11000"}}, {"type": "node", "id": 3799890066, "lat": 51.4210466, "lon": -2.5721542, "tags": {"name": "CLATWORTHY DRIVE OD", "operator": "National Grid Electricity Distribution", "operator:wikidata": "Q7988183", "power": "substation", "ref": "110701", "voltage": "11000"}}, {"type": "node", "id": 3804338396, "lat": 51.4193578, "lon": -2.2530025, "tags": {"power": "substation"}}, {"type": "node", "id": 3821603175, "lat": 51.4294478, "lon": -2.6278139, "tags": {"name": "LANGLEY CRES K", "operator": "National Grid Electricity Distribution", "operator:wikidata": "Q7988183", "power": "substation", "ref": "110455", "voltage": "11000"}}, {"type": "node", "id": 3841882754, "lat": 51.524743, "lon": -2.5720716, "tags": {"power": "substation"}}, {"type": "node", "id": 3976470303, "lat": 51.4725256, "lon": -2.5515408, "tags": {"name": "ROYATE HILL P", "operator": "National Grid Electricity Distribution", "operator:wikidata": "Q7988183", "power": "substation", "ref": "112675", "voltage": "11000"}}, {"type": "node", "id": 3976516545, "lat": 51.4669001, "lon": -2.5685512, "tags": {"power": "substation"}}, {"type": "node", "id": 4010329133, "lat": 51.4905842, "lon": -2.5950167, "tags": {"power": "substation"}}, {"type": "node", "id": 4020659889, "lat": 51.5366144, "lon": -2.5476134, "tags": {"name": "Bradley Stoke Shopping Centre Substation", "operator": "National Grid Electricity Distribution", "operator:wikidata": "Q7988183", "power": "substation", "ref:GB:wpd_site": "114512", "source": "nged_open_data", "substation": "minor_distribution", "voltage": "11000"}}, {"type": "node", "id": 4026913092, "lat": 51.5271832, "lon": -2.5891488, "tags": {"power": "substation"}}, {"type": "node", "id": 4026982792, "lat": 51.5428872, "lon": -2.5593334, "tags": {"name": "Bradley Pavilions Substation", "operator": "National Grid Electricity Distribution", "operator:wikidata": "Q7988183", "power": "substation", "ref:GB:wpd_site": "113725", "source": "nged_open_data", "substation": "minor_distribution", "voltage": "11000"}}, {"type": "node", "id": 4035611895, "lat": 51.4632913, "lon": -2.5564619, "tags": {"power": "substation"}}, {"type": "node", "id": 4052042298, "lat": 51.4663878, "lon": -2.5255442, "tags": {"name": "WHITEWAY RD", "operator": "National Grid Electricity Distribution", "operator:wikidata": "Q7988183", "power": "substation", "ref": "111659", "voltage": "11000"}}, {"type": "node", "id": 4080238368, "lat": 51.4328027, "lon": -2.5530092, "tags": {"power": "substation"}}, {"type": "node", "id": 4080393377, "lat": 51.426117, "lon": -2.5577792, "tags": {"power": "substation"}}, {"type": "node", "id": 4080545736, "lat": 51.4300613, "lon": -2.5383758, "tags": {"name": "WRIGHTS P", "operator": "National Grid Electricity Distribution", "operator:wikidata": "Q7988183", "power": "substation", "ref": "111103", "voltage": "11000"}}, {"type": "node", "id": 4080654853, "lat": 51.432029, "lon": -2.5342342, "tags": {"power": "substation"}}, {"type": "node", "id": 4080654875, "lat": 51.4329679, "lon": -2.5332331, "tags": {"power": "substation"}}, {"type": "node", "id": 4080734624, "lat": 51.443117, "lon": -2.5416638, "tags": {"name": "BIRCHWOOD ROAD SOUTH OD", "operator": "National Grid Electricity Distribution", "operator:wikidata": "Q7988183", "power": "substation", "ref": "110197", "voltage": "11000"}}, {"type": "node", "id": 4080734694, "lat": 51.4499196, "lon": -2.538639, "tags": {"name": "BANGOR GROVE", "operator": "National Grid Electricity Distribution", "operator:wikidata": "Q7988183", "power": "substation", "ref": "110488", "voltage": "11000"}}, {"type": "node", "id": 4089208648, "lat": 51.6379707, "lon": -2.3487374, "tags": {"name": "Potters Pond", "operator": "National Grid Electricity Distribution", "operator:wikidata": "Q7988183", "power": "substation", "ref": "793113", "voltage": "11000"}}, {"type": "node", "id": 4114899594, "lat": 51.4862604, "lon": -2.6212835, "tags": {"name": "The Dell K", "power": "substation", "ref": "11-0603"}}, {"type": "node", "id": 4116860409, "lat": 51.8146009, "lon": -2.7365588, "tags": {"power": "substation"}}, {"type": "node", "id": 4116860411, "lat": 51.8146225, "lon": -2.7365561, "tags": {"power": "substation"}}, {"type": "node", "id": 4119624300, "lat": 51.5477665, "lon": -2.5692391, "tags": {"name": "ALMONDSBURY RNDABT OD", "operator": "National Grid Electricity Distribution", "operator:wikidata": "Q7988183", "power": "substation", "ref": "111817", "voltage": "11000"}}, {"type": "node", "id": 4150116226, "lat": 51.4696248, "lon": -2.6149947, "tags": {"power": "substation"}}, {"type": "node", "id": 4185989271, "lat": 51.4815736, "lon": -2.6340088, "tags": {"name": "Glen Drive", "operator": "national grid", "power": "substation", "ref": "11 0272"}}, {"type": "node", "id": 4199302827, "lat": 51.4369277, "lon": -2.5976611, "tags": {"name": "COTSWOLD RD P", "operator": "National Grid Electricity Distribution", "operator:wikidata": "Q7988183", "power": "substation", "ref": "111752", "substation": "minor_distribution", "voltage": "11000"}}, {"type": "node", "id": 4259478857, "lat": 51.5144134, "lon": -2.5038197, "tags": {"name": "CAMP VIEW Substation", "operator": "National Grid Electricity Distribution", "operator:wikidata": "Q7988183", "power": "substation", "ref:GB:wpd_site": "112006", "source": "nged_open_data", "substation": "minor_distribution", "voltage": "11000"}}, {"type": "node", "id": 4270212605, "lat": 51.5260982, "lon": -2.5729799, "tags": {"amenity": "grit_bin", "name": "HAYS WAY HOTEL", "operator": "National Grid Electricity Distribution", "operator:wikidata": "Q7988183", "power": "substation", "ref": "114778", "voltage": "11000"}}, {"type": "node", "id": 4320006037, "lat": 51.5501289, "lon": -2.5782504, "tags": {"power": "substation"}}, {"type": "node", "id": 4331499798, "lat": 51.4731134, "lon": -2.7688403, "tags": {"power": "substation"}}, {"type": "node", "id": 4334617468, "lat": 51.5365827, "lon": -2.5475907, "tags": {"name": "Tesco Car Park Substation", "operator": "National Grid Electricity Distribution", "operator:wikidata": "Q7988183", "power": "substation", "ref:GB:wpd_site": "114496", "source": "nged_open_data", "substation": "minor_distribution", "voltage": "11000"}}, {"type": "node", "id": 4341744353, "lat": 51.4507819, "lon": -2.6230606, "tags": {"power": "substation"}}, {"type": "node", "id": 4455758636, "lat": 51.5038549, "lon": -2.5918479, "tags": {"power": "substation"}}, {"type": "node", "id": 4467699527, "lat": 51.5018884, "lon": -2.6046297, "tags": {"power": "substation"}}, {"type": "node", "id": 4561732764, "lat": 51.4989567, "lon": -2.616563, "tags": {"power": "substation"}}, {"type": "node", "id": 4581540702, "lat": 51.4691576, "lon": -2.6152794, "tags": {"power": "substation"}}, {"type": "node", "id": 4587847263, "lat": 51.5284605, "lon": -2.5696417, "tags": {"name": "RAVENSCOURT ROAD OD", "operator": "National Grid Electricity Distribution", "operator:wikidata": "Q7988183", "power": "substation", "ref": "111365", "voltage": "11000"}}, {"type": "node", "id": 4587847283, "lat": 51.5317746, "lon": -2.5628325, "tags": {"name": "BIBURY AVENUE", "operator": "National Grid Electricity Distribution", "operator:wikidata": "Q7988183", "power": "substation", "ref": "112174", "voltage": "11000"}}, {"type": "node", "id": 4621389985, "lat": 51.4653211, "lon": -2.6078649, "tags": {"power": "substation"}}, {"type": "node", "id": 4630871229, "lat": 51.4675554, "lon": -2.6135685, "tags": {"power": "substation"}}, {"type": "node", "id": 4636349768, "lat": 51.4497422, "lon": -2.5924285, "tags": {"power": "substation"}}, {"type": "node", "id": 4661094418, "lat": 51.4566705, "lon": -2.586545, "tags": {"power": "substation"}}, {"type": "node", "id": 4751832518, "lat": 51.609079, "lon": -2.5269281, "tags": {"name": "CASTLE COURT", "operator": "National Grid Electricity Distribution", "operator:wikidata": "Q7988183", "power": "substation", "ref": "793437", "voltage": "11000"}}, {"type": "node", "id": 4804269071, "lat": 51.4820801, "lon": -2.5442165, "tags": {"name": "SMALL LANE SUBSTATION", "operator": "National Grid Electricity Distribution", "operator:wikidata": "Q7988183", "power": "substation", "ref:GB:wpd_site": "113679", "source": "survey", "substation": "minor_distribution", "voltage": "11000"}}, {"type": "node", "id": 4840574885, "lat": 51.3701088, "lon": -2.1422125, "tags": {"power": "substation", "substation": "yes"}}, {"type": "node", "id": 4851737082, "lat": 51.7459843, "lon": -2.2280272, "tags": {"power": "substation"}}, {"type": "node", "id": 4881345849, "lat": 51.4583557, "lon": -2.5678356, "tags": {"power": "substation"}}, {"type": "node", "id": 4890674661, "lat": 51.4467846, "lon": -2.5227778, "tags": {"name": "MEMORIAL ROAD OD", "operator": "National Grid Electricity Distribution", "operator:wikidata": "Q7988183", "power": "substation", "ref": "111806", "voltage": "11000"}}, {"type": "node", "id": 4892914261, "lat": 51.4404942, "lon": -2.5205483, "tags": {"name": "HANHAM", "operator": "National Grid Electricity Distribution", "operator:wikidata": "Q7988183", "power": "substation", "ref": "791809", "voltage": "11000"}}, {"type": "node", "id": 4898397686, "lat": 51.4677244, "lon": -2.535965, "tags": {"name": "FERNHURST ROAD", "operator": "National Grid Electricity Distribution", "operator:wikidata": "Q7988183", "power": "substation", "ref": "114673", "voltage": "11000"}}, {"type": "node", "id": 4898398059, "lat": 51.4699702, "lon": -2.5288202, "tags": {"name": "ARGYLE HALL", "operator": "National Grid Electricity Distribution", "operator:wikidata": "Q7988183", "power": "substation", "ref": "110238", "voltage": "11000"}}, {"type": "node", "id": 4900636227, "lat": 51.49477, "lon": -2.6600312, "tags": {"power": "substation"}}, {"type": "node", "id": 4904868785, "lat": 51.4445826, "lon": -2.5602014, "tags": {"name": "AVON BUILDING", "operator": "National Grid Electricity Distribution", "operator:wikidata": "Q7988183", "power": "substation", "ref": "113826", "voltage": "11000"}}, {"type": "node", "id": 4922965861, "lat": 51.43719, "lon": -2.4874686, "tags": {"name": "COTTONWOOD DR.", "operator": "National Grid Electricity Distribution", "operator:wikidata": "Q7988183", "power": "substation", "ref": "791714", "voltage": "11000"}}, {"type": "node", "id": 4929609781, "lat": 51.4388665, "lon": -2.4949238, "tags": {"name": "BATH RD LONGWELL GRN EMBEDDED NETWORK", "operator": "National Grid Electricity Distribution", "operator:wikidata": "Q7988183", "power": "substation", "ref": "793798", "voltage": "11000"}}, {"type": "node", "id": 4960607007, "lat": 51.484225, "lon": -2.6396766, "tags": {"power": "substation"}}, {"type": "node", "id": 4983887252, "lat": 51.527193, "lon": -2.6591219, "tags": {"power": "substation"}}, {"type": "node", "id": 5031187371, "lat": 51.4513568, "lon": -2.5612568, "tags": {"name": "TAMAR RD FEEDER RD P", "operator": "National Grid Electricity Distribution", "operator:wikidata": "Q7988183", "power": "substation", "ref": "112358", "voltage": "11000"}}, {"type": "node", "id": 5039970360, "lat": 51.7435385, "lon": -2.2166573, "tags": {"power": "substation"}}, {"type": "node", "id": 5065033614, "lat": 51.4589795, "lon": -2.5926024, "tags": {"power": "substation"}}, {"type": "node", "id": 5065949177, "lat": 51.4843991, "lon": -2.6453508, "tags": {"power": "substation"}}, {"type": "node", "id": 5067602892, "lat": 51.4844651, "lon": -2.6487478, "tags": {"power": "substation"}}, {"type": "node", "id": 5067602897, "lat": 51.4844555, "lon": -2.6487887, "tags": {"power": "substation"}}, {"type": "node", "id": 5070413535, "lat": 51.4942966, "lon": -2.6391032, "tags": {"power": "substation"}}, {"type": "node", "id": 5073278108, "lat": 51.4978809, "lon": -2.6423487, "tags": {"name": "Drayton Rd P. S/S", "power": "substation", "ref": "1651"}}, {"type": "node", "id": 5092992225, "lat": 51.4919068, "lon": -2.648385, "tags": {"power": "substation"}}, {"type": "node", "id": 5104277355, "lat": 51.4853871, "lon": -2.6043787, "tags": {"power": "substation"}}, {"type": "node", "id": 5133961129, "lat": 51.4671485, "lon": -2.5685182, "tags": {"power": "substation"}}, {"type": "node", "id": 5153489309, "lat": 51.4454694, "lon": -2.5835332, "tags": {"power": "substation"}}, {"type": "node", "id": 5159839187, "lat": 51.4436314, "lon": -2.5786824, "tags": {"power": "substation"}}, {"type": "node", "id": 5166510015, "lat": 51.4875604, "lon": -2.6011983, "tags": {"power": "substation"}}, {"type": "node", "id": 5184744913, "lat": 51.4777872, "lon": -2.5905941, "tags": {"power": "substation"}}, {"type": "node", "id": 5258610751, "lat": 51.5153386, "lon": -2.6930331, "tags": {"name": "ROCKINGHAM", "operator": "National Grid Electricity Distribution", "operator:wikidata": "Q7988183", "power": "substation", "ref": "113937", "voltage": "11000"}}, {"type": "node", "id": 5314556555, "lat": 51.4803197, "lon": -2.6447667, "tags": {"name": "Roman Way 26", "power": "substation", "ref": "2996"}}, {"type": "node", "id": 5324552862, "lat": 51.4921853, "lon": -2.5003841, "tags": {"name": "Farm Road OD Substation", "operator": "National Grid Electricity Distribution", "operator:wikidata": "Q7988183", "power": "substation", "ref:GB:wpd_site": "112242", "source": "nged_open_data", "substation": "minor_distribution", "voltage": "11000"}}, {"type": "node", "id": 5324552888, "lat": 51.4916396, "lon": -2.4933735, "tags": {"brand": "National Grid", "brand:wikidata": "Q1465461", "name": "Downend Sec Sch ID Substation", "operator": "National Grid Electricity Distribution", "operator:old": "Western Power Distribution", "operator:wikidata": "Q7988183", "owner": "National Grid Electricity Distribution (South West) Plc", "owner:wikidata": "Q114397866", "power": "substation", "ref": "111160", "ref:GB:wpd_site": "111160", "source": "nged_open_data", "substation": "minor_distribution", "voltage": "11000"}}, {"type": "node", "id": 5397123619, "lat": 51.4571027, "lon": -2.6154542, "tags": {"power": "substation"}}, {"type": "node", "id": 5408567875, "lat": 51.4945938, "lon": -2.60829, "tags": {"power": "substation"}}, {"type": "node", "id": 5413208901, "lat": 51.4903687, "lon": -2.5879334, "tags": {"power": "substation"}}, {"type": "node", "id": 5422586746, "lat": 51.6378245, "lon": -2.6733968, "tags": {"power": "substation"}}, {"type": "node", "id": 5446023109, "lat": 51.484833, "lon": -2.5975974, "tags": {"power": "substation"}}, {"type": "node", "id": 5446692604, "lat": 51.5251851, "lon": -2.6066358, "tags": {"power": "substation"}}, {"type": "node", "id": 5452214852, "lat": 51.5088768, "lon": -2.5977744, "tags": {"power": "substation"}}, {"type": "node", "id": 5457839239, "lat": 51.5131762, "lon": -2.601897, "tags": {"power": "substation"}}, {"type": "node", "id": 5474322533, "lat": 51.4977448, "lon": -2.6671652, "tags": {"power": "substation"}}, {"type": "node", "id": 5476707114, "lat": 51.4868309, "lon": -2.6757295, "tags": {"power": "substation"}}, {"type": "node", "id": 5479088806, "lat": 51.485466, "lon": -2.6789743, "tags": {"power": "substation"}}, {"type": "node", "id": 5481502690, "lat": 51.4830658, "lon": -2.6711865, "tags": {"fixme": "check", "power": "substation"}}, {"type": "node", "id": 5485251426, "lat": 51.4421644, "lon": -2.6243712, "tags": {"power": "substation"}}, {"type": "node", "id": 5486074448, "lat": 51.4389535, "lon": -2.6150338, "tags": {"power": "substation"}}, {"type": "node", "id": 5543848822, "lat": 51.4343483, "lon": -2.6073667, "tags": {"power": "substation"}}, {"type": "node", "id": 5551309632, "lat": 51.4772326, "lon": -2.6081264, "tags": {"power": "substation"}}, {"type": "node", "id": 5569891227, "lat": 51.4692417, "lon": -2.5939509, "tags": {"power": "substation"}}, {"type": "node", "id": 5579409261, "lat": 51.5224411, "lon": -2.5642709, "tags": {"name": "GIPSY PATCH EAST EMBEDDED NETWORK", "operator": "National Grid Electricity Distribution", "operator:wikidata": "Q7988183", "power": "substation", "ref": "114806", "voltage": "11000"}}, {"type": "node", "id": 5579409262, "lat": 51.5224127, "lon": -2.5642696, "tags": {"name": "GIPSY PATCH EAST EMBEDDED NETWORK", "operator": "National Grid Electricity Distribution", "operator:wikidata": "Q7988183", "power": "substation", "ref": "114807", "voltage": "11000"}}, {"type": "node", "id": 5579409373, "lat": 51.5203725, "lon": -2.567507, "tags": {"power": "substation"}}, {"type": "node", "id": 5666846725, "lat": 51.3773504, "lon": -2.356214, "tags": {"power": "substation"}}, {"type": "node", "id": 5821602881, "lat": 51.5259832, "lon": -2.5795488, "tags": {"power": "substation"}}, {"type": "node", "id": 5826810173, "lat": 51.4592214, "lon": -2.6143599, "tags": {"power": "substation"}}, {"type": "node", "id": 5842603291, "lat": 51.4390367, "lon": -2.6000865, "tags": {"name": "WESLEY STREET BEDMINSTER", "operator": "National Grid Electricity Distribution", "operator:wikidata": "Q7988183", "power": "substation", "ref": "114428", "voltage": "11000"}}, {"type": "node", "id": 5844609286, "lat": 51.5477679, "lon": -2.5614439, "tags": {"name": "INTERPLEX", "operator": "National Grid Electricity Distribution", "operator:wikidata": "Q7988183", "power": "substation", "ref": "113607", "voltage": "11000"}}, {"type": "node", "id": 5857384040, "lat": 51.4361788, "lon": -2.6001871, "tags": {"name": "CLINTON ROAD OD", "operator": "National Grid Electricity Distribution", "operator:wikidata": "Q7988183", "power": "substation", "ref": "111775", "voltage": "11000"}}, {"type": "node", "id": 5883070181, "lat": 51.4518466, "lon": -2.5905325, "tags": {"power": "substation"}}, {"type": "node", "id": 5885840425, "lat": 51.4495285, "lon": -2.6185283, "tags": {"power": "substation"}}, {"type": "node", "id": 5935203681, "lat": 51.4150835, "lon": -2.6004982, "tags": {"power": "substation"}}, {"type": "node", "id": 5937922107, "lat": 51.4201251, "lon": -2.5986046, "tags": {"name": "NOVERS LANE P", "operator": "National Grid Electricity Distribution", "operator:wikidata": "Q7988183", "power": "substation", "ref": "113205", "voltage": "11000"}}, {"type": "node", "id": 5944935680, "lat": 51.5327917, "lon": -2.5541939, "tags": {"name": "THE WILLOWS", "operator": "National Grid Electricity Distribution", "operator:wikidata": "Q7988183", "power": "substation", "ref": "113864", "voltage": "11000"}}, {"type": "node", "id": 5949737036, "lat": 51.5349519, "lon": -2.5548725, "tags": {"name": "Merryweather Close Substation", "operator": "National Grid Electricity Distribution", "operator:wikidata": "Q7988183", "power": "substation", "ref:GB:wpd_site": "113908", "source": "nged_open_data", "substation": "minor_distribution", "voltage": "11000"}}, {"type": "node", "id": 5961993775, "lat": 51.4761772, "lon": -2.5391514, "tags": {"name": "DRUMMOND ROAD P", "operator": "National Grid Electricity Distribution", "operator:wikidata": "Q7988183", "power": "substation", "ref": "112474", "voltage": "11000"}}, {"type": "node", "id": 6005887598, "lat": 51.4954755, "lon": -2.674491, "tags": {"name": "HUMBERSTAN WALK", "operator": "National Grid Electricity Distribution", "operator:wikidata": "Q7988183", "power": "substation", "ref": "113556", "voltage": "11000"}}, {"type": "node", "id": 6042422619, "lat": 51.4710796, "lon": -2.5982526, "tags": {"power": "substation"}}, {"type": "node", "id": 6047608225, "lat": 51.5093075, "lon": -2.5727977, "tags": {"operator": "National Grid Electricity Distribution", "operator:wikidata": "Q7988183", "power": "substation", "ref": "113369", "voltage": "11000"}}, {"type": "node", "id": 6051782215, "lat": 51.4295378, "lon": -2.5426872, "tags": {"power": "substation"}}, {"type": "node", "id": 6067450079, "lat": 51.4505695, "lon": -2.5961731, "tags": {"power": "substation"}}, {"type": "node", "id": 6069191533, "lat": 51.5237579, "lon": -2.604555, "tags": {"power": "substation"}}, {"type": "node", "id": 6069211352, "lat": 51.5231829, "lon": -2.6061972, "tags": {"power": "substation"}}, {"type": "node", "id": 6069274863, "lat": 51.4502829, "lon": -2.6046543, "tags": {"power": "substation"}}, {"type": "node", "id": 6080974188, "lat": 51.4353114, "lon": -2.5719789, "tags": {"power": "substation"}}, {"type": "node", "id": 6096711780, "lat": 51.491018, "lon": -2.6529434, "tags": {"power": "substation"}}, {"type": "node", "id": 6096829763, "lat": 51.4942089, "lon": -2.6456907, "tags": {"power": "substation"}}, {"type": "node", "id": 6114288495, "lat": 51.5568857, "lon": -2.5611629, "tags": {"name": "COPE PARK", "operator": "National Grid Electricity Distribution", "operator:wikidata": "Q7988183", "power": "substation", "ref": "112872", "voltage": "11000"}}, {"type": "node", "id": 6168991888, "lat": 51.5289739, "lon": -2.5759486, "tags": {"name": "CHESSELL DRIVE POCKET", "operator": "National Grid Electricity Distribution", "operator:wikidata": "Q7988183", "power": "substation", "ref": "114757", "voltage": "11000"}}, {"type": "node", "id": 6169094392, "lat": 51.5271722, "lon": -2.5745398, "tags": {"power": "substation"}}, {"type": "node", "id": 6171628684, "lat": 51.5227958, "lon": -2.5714619, "tags": {"name": "APC FILTON", "operator": "National Grid Electricity Distribution", "operator:wikidata": "Q7988183", "power": "substation", "ref": "113910", "voltage": "11000"}}, {"type": "node", "id": 6184920459, "lat": 51.5300798, "lon": -2.5505528, "tags": {"name": "KEMPERLEYE WAY", "operator": "National Grid Electricity Distribution", "operator:wikidata": "Q7988183", "power": "substation", "ref": "113699", "voltage": "11000"}}, {"type": "node", "id": 6188753628, "lat": 51.4987275, "lon": -2.6222576, "tags": {"power": "substation"}}, {"type": "node", "id": 6211450989, "lat": 51.4614282, "lon": -2.5822645, "tags": {"power": "substation"}}, {"type": "node", "id": 6219497293, "lat": 51.5339404, "lon": -2.5441584, "tags": {"power": "substation", "ref": "114217", "voltage": "11000"}}, {"type": "node", "id": 6227478762, "lat": 51.501755, "lon": -2.5075289, "tags": {"building": "hut", "name": "Wedgewood Rd O/D Substation", "operator": "National Grid Electricity Distribution Plc", "operator:wikidata": "Q7988183", "power": "substation", "ref": "1178", "ref:GB:wpd_site": "111178", "source": "nged_open_data", "substation": "minor_distribution", "voltage": "11000"}}, {"type": "node", "id": 6227478763, "lat": 51.5011144, "lon": -2.5038748, "tags": {"name": "Queensholm Ave OD Substation", "operator": "National Grid Electricity Distribution", "operator:wikidata": "Q7988183", "power": "substation", "ref:GB:wpd_site": "111179", "source": "nged_open_data", "substation": "minor_distribution", "voltage": "11000"}}, {"type": "node", "id": 6227478764, "lat": 51.5005275, "lon": -2.5003069, "tags": {"name": "Four Acre Rd OD Substation", "operator": "National Grid Electricity Distribution", "operator:wikidata": "Q7988183", "power": "substation", "ref:GB:wpd_site": "111136", "source": "nged_open_data", "substation": "minor_distribution", "voltage": "11000"}}, {"type": "node", "id": 6227478765, "lat": 51.4941363, "lon": -2.5014469, "tags": {"name": "Badminton Rd S Substation", "operator": "National Grid Electricity Distribution", "operator:wikidata": "Q7988183", "power": "substation", "ref:GB:wpd_site": "110071", "source": "nged_open_data", "substation": "minor_distribution", "voltage": "11000"}}, {"type": "node", "id": 6227478766, "lat": 51.4940657, "lon": -2.5051825, "tags": {"name": "Oakdale Court Substation", "operator": "National Grid Electricity Distribution", "operator:wikidata": "Q7988183", "power": "substation", "ref:GB:wpd_site": "112627", "source": "nged_open_data", "substation": "minor_distribution", "voltage": "11000"}}, {"type": "node", "id": 6227478767, "lat": 51.4963209, "lon": -2.5057232, "tags": {"name": "Oakdale Ave OD Substation", "operator": "National Grid Electricity Distribution", "operator:wikidata": "Q7988183", "power": "substation", "ref:GB:wpd_site": "110790", "source": "nged_open_data", "substation": "minor_distribution", "voltage": "11000"}}, {"type": "node", "id": 6227478768, "lat": 51.489555, "lon": -2.4993973, "tags": {"brand": "National Grid", "brand:wikidata": "Q1465461", "name": "Westerleigh Rd OD Substation", "operator": "National Grid Electricity Distribution", "operator:old": "Western Power Distribution", "operator:wikidata": "Q7988183", "owner": "National Grid Electricity Distribution (South West) Plc", "owner:wikidata": "Q114397866", "power": "substation", "ref": "110595", "ref:GB:wpd_site": "110595", "source": "nged_open_data", "substation": "minor_distribution", "voltage": "11000"}}, {"type": "node", "id": 6227478769, "lat": 51.5019049, "lon": -2.4941411, "tags": {"brand": "National Grid", "brand:wikidata": "Q1465461", "name": "Aintree Drive Substation", "operator": "National Grid Electricity Distribution", "operator:old": "Western Power Distribution", "operator:wikidata": "Q7988183", "owner": "National Grid Electricity Distribution (West Midlands) Plc", "owner:wikidata": "Q114397791", "power": "substation", "ref:GB:wpd_site": "790321", "source": "nged_open_data", "substation": "minor_distribution", "voltage": "11000"}}, {"type": "node", "id": 6227478770, "lat": 51.5037148, "lon": -2.4972578, "tags": {"brand": "National Grid", "brand:wikidata": "Q1465461", "name": "Aintree Drive Substation", "operator": "National Grid Electricity Distribution", "operator:old": "Western Power Distribution", "operator:wikidata": "Q7988183", "owner": "National Grid Electricity Distribution (South West) Plc", "owner:wikidata": "Q114397866", "power": "substation", "ref:GB:wpd_site": "113714", "source": "nged_open_data", "substation": "minor_distribution", "voltage": "11000"}}, {"type": "node", "id": 6227485362, "lat": 51.4988738, "lon": -2.504634, "tags": {"brand": "National Grid", "brand:wikidata": "Q1465461", "name": "Oakdale Rd OD Substation", "operator": "National Grid Electricity Distribution", "operator:old": "Western Power Distribution", "operator:wikidata": "Q7988183", "owner": "National Grid Electricity Distribution (South West) Plc", "owner:wikidata": "Q114397866", "power": "substation", "ref": "1972", "ref:GB:wpd_site": "111972", "source": "nged_open_data", "substation": "minor_distribution", "voltage": "11000"}}, {"type": "node", "id": 6307800684, "lat": 51.4911722, "lon": -2.5024903, "tags": {"brand": "National Grid", "brand:wikidata": "Q1465461", "name": "Cleve Lodge RD P Substation", "operator": "National Grid Electricity Distribution", "operator:old": "Western Power Distribution", "operator:wikidata": "Q7988183", "owner": "National Grid Electricity Distribution (South West) Plc", "owner:wikidata": "Q114397866", "power": "substation", "ref:GB:wpd_site": "112736", "source": "nged_open_data", "substation": "minor_distribution", "voltage": "11000"}}, {"type": "node", "id": 6317196623, "lat": 51.456328, "lon": -2.6183349, "tags": {"power": "substation"}}, {"type": "node", "id": 6337846017, "lat": 51.4949256, "lon": -2.4954261, "tags": {"brand": "National Grid", "brand:wikidata": "Q1465461", "name": "St Augustines Church OD Substation", "operator": "National Grid Electricity Distribution", "operator:old": "Western Power Distribution", "operator:wikidata": "Q7988183", "owner": "National Grid Electricity Distribution (South West) Plc", "owner:wikidata": "Q114397866", "power": "substation", "ref": "112322", "ref:GB:wpd_site": "112322", "source": "nged_open_data", "substation": "minor_distribution", "voltage": "11000"}}, {"type": "node", "id": 6346111392, "lat": 51.4433617, "lon": -2.6137255, "tags": {"name": "GREENWAY BUSH LANE", "operator": "National Grid Electricity Distribution", "operator:wikidata": "Q7988183", "power": "substation", "ref": "110371", "voltage": "11000"}}, {"type": "node", "id": 6363557093, "lat": 51.4615207, "lon": -2.6013055, "tags": {"power": "substation"}}, {"type": "node", "id": 6367732903, "lat": 51.4885626, "lon": -2.4932372, "tags": {"name": "Northcote Rd OD Substation", "operator": "National Grid Electricity Distribution", "operator:wikidata": "Q7988183", "power": "substation", "ref:GB:wpd_site": "112008", "source": "nged_open_data", "substation": "minor_distribution", "voltage": "11000"}}, {"type": "node", "id": 6367740531, "lat": 51.4845944, "lon": -2.4958383, "tags": {"name": "HILLHOUSE ROAD", "operator": "National Grid Electricity Distribution", "operator:wikidata": "Q7988183", "power": "substation", "ref": "110373", "voltage": "11000"}}, {"type": "node", "id": 6369206737, "lat": 51.5302726, "lon": -2.5994407, "tags": {"name": "MCDONALDS/ASDA", "operator": "National Grid Electricity Distribution", "operator:wikidata": "Q7988183", "power": "substation", "ref": "113854", "voltage": "11000"}}, {"type": "node", "id": 6389300845, "lat": 51.4535289, "lon": -2.5893389, "tags": {"brand": "National Grid", "brand:wikidata": "Q1465461", "level": "0", "location": "indoor", "operator": "National Grid Electricity Distribution", "operator:old": "Western Power Distribution", "operator:wikidata": "Q7988183", "owner": "National Grid Electricity Distribution (South West) Plc", "owner:wikidata": "Q114397866", "power": "substation", "substation": "minor_distribution"}}, {"type": "node", "id": 6396595542, "lat": 51.4577223, "lon": -2.578095, "tags": {"brand": "National Grid", "brand:wikidata": "Q1465461", "location": "indoor", "operator": "National Grid Electricity Distribution", "operator:old": "Western Power Distribution", "operator:wikidata": "Q7988183", "owner": "National Grid Electricity Distribution (South West) Plc", "owner:wikidata": "Q114397866", "power": "substation", "substation": "minor_distribution"}}, {"type": "node", "id": 6401584994, "lat": 51.5444714, "lon": -2.5700726, "tags": {"power": "substation"}}, {"type": "node", "id": 6401584995, "lat": 51.5444689, "lon": -2.5700189, "tags": {"power": "substation"}}, {"type": "node", "id": 6405243630, "lat": 51.5470919, "lon": -2.5586772, "tags": {"name": "NEW LEAZE", "operator": "National Grid Electricity Distribution", "operator:wikidata": "Q7988183", "power": "substation", "ref": "113604", "voltage": "11000"}}, {"type": "node", "id": 6405260793, "lat": 51.5483525, "lon": -2.5598131, "tags": {"operator": "National Grid Electricity Distribution", "operator:wikidata": "Q7988183", "power": "substation", "voltage": "11000"}}, {"type": "node", "id": 6405260794, "lat": 51.548345, "lon": -2.5598466, "tags": {"name": "GREAT PARK", "operator": "National Grid Electricity Distribution", "operator:wikidata": "Q7988183", "power": "substation", "ref": "114775", "voltage": "11000"}}, {"type": "node", "id": 6417777690, "lat": 51.451417, "lon": -2.5949983, "tags": {"brand": "National Grid", "brand:wikidata": "Q1465461", "location": "indoor", "operator": "National Grid Electricity Distribution Plc", "operator:old": "Western Power Distribution", "operator:wikidata": "Q7988183", "owner": "National Grid Electricity Distribution (South West) Plc", "owner:wikidata": "Q114397866", "power": "substation", "substation": "minor_distribution"}}, {"type": "node", "id": 6419743607, "lat": 51.4526681, "lon": -2.5941977, "tags": {"brand": "National Grid", "brand:wikidata": "Q1465461", "location": "indoor", "operator": "National Grid Electricity Distribution Plc", "operator:old": "Western Power Distribution", "operator:wikidata": "Q7988183", "owner": "National Grid Electricity Distribution (South West) Plc", "owner:wikidata": "Q114397866", "power": "substation", "substation": "minor_distribution"}}, {"type": "node", "id": 6436942243, "lat": 51.5080304, "lon": -2.6338086, "tags": {"power": "substation"}}, {"type": "node", "id": 6450758737, "lat": 51.472833, "lon": -2.6334988, "tags": {"power": "substation"}}, {"type": "node", "id": 6464673009, "lat": 51.3780542, "lon": -2.3338272, "tags": {"power": "substation"}}, {"type": "node", "id": 6517061056, "lat": 51.4403759, "lon": -2.6851769, "tags": {"power": "substation"}}, {"type": "node", "id": 6517093102, "lat": 51.4399583, "lon": -2.6830164, "tags": {"power": "substation"}}, {"type": "node", "id": 6534405038, "lat": 51.5097975, "lon": -2.6130858, "tags": {"power": "substation"}}, {"type": "node", "id": 6582735940, "lat": 51.5047307, "lon": -2.6167135, "tags": {"power": "substation"}}, {"type": "node", "id": 6630861126, "lat": 51.4962247, "lon": -2.5649456, "tags": {"power": "substation"}}, {"type": "node", "id": 6659257998, "lat": 51.5057692, "lon": -2.6183966, "tags": {"power": "substation"}}, {"type": "node", "id": 6680417698, "lat": 51.5616155, "lon": -2.6340227, "tags": {"name": "BANKS ROAD O.D", "operator": "National Grid Electricity Distribution", "operator:wikidata": "Q7988183", "power": "substation", "ref": "112602", "voltage": "11000"}}, {"type": "node", "id": 6695946004, "lat": 51.5038262, "lon": -2.6097652, "tags": {"power": "substation"}}, {"type": "node", "id": 6699243893, "lat": 51.5070547, "lon": -2.6014276, "tags": {"power": "substation"}}, {"type": "node", "id": 6746961791, "lat": 51.4781426, "lon": -2.6444415, "tags": {"power": "substation"}}, {"type": "node", "id": 6762427786, "lat": 51.4951545, "lon": -2.6243269, "tags": {"power": "substation"}}, {"type": "node", "id": 6796065258, "lat": 51.5259623, "lon": -2.6136518, "tags": {"power": "substation"}}, {"type": "node", "id": 6813175712, "lat": 51.5253552, "lon": -2.5740922, "tags": {"name": "NORTHFIELD PARK RETAIL", "operator": "National Grid Electricity Distribution", "operator:wikidata": "Q7988183", "power": "substation", "ref": "114913", "voltage": "11000"}}, {"type": "node", "id": 6813216297, "lat": 51.5229501, "lon": -2.5887287, "tags": {"power": "substation"}}, {"type": "node", "id": 6876355986, "lat": 51.4851491, "lon": -2.5259764, "tags": {"name": "Vassall Road Substation", "operator": "National Grid Electricity Distribution", "operator:wikidata": "Q7988183", "power": "substation", "ref:GB:wpd_site": "114452", "source": "nged_open_data", "substation": "minor_distribution", "voltage": "11000"}}, {"type": "node", "id": 6887206747, "lat": 51.3686967, "lon": -2.1366382, "tags": {"power": "substation"}}, {"type": "node", "id": 6910698423, "lat": 51.4932028, "lon": -2.5937752, "tags": {"power": "substation"}}, {"type": "node", "id": 6918616553, "lat": 51.4907934, "lon": -2.5902488, "tags": {"power": "substation"}}, {"type": "node", "id": 6966011045, "lat": 51.5142971, "lon": -2.5000065, "tags": {"brand": "National Grid", "brand:wikidata": "Q1465461", "name": "CROSS HANDS Substation", "operator": "National Grid Electricity Distribution", "operator:old": "Western Power Distribution", "operator:wikidata": "Q7988183", "owner": "National Grid Electricity Distribution (South West) Plc", "owner:wikidata": "Q114397866", "power": "substation", "ref:GB:wpd_site": "110187", "source": "nged_open_data", "substation": "minor_distribution", "voltage": "11000"}}, {"type": "node", "id": 6970970752, "lat": 51.4957352, "lon": -2.4895677, "tags": {"name": "Beaufort Road Substation", "operator": "National Grid Electricity Distribution", "operator:wikidata": "Q7988183", "power": "substation", "ref:GB:wpd_site": "111182", "source": "nged_open_data", "substation": "minor_distribution", "voltage": "11000"}}, {"type": "node", "id": 6970970753, "lat": 51.4963944, "lon": -2.4889664, "tags": {"brand": "National Grid", "brand:wikidata": "Q1465461", "name": "Beaufort Road Care Home Substation", "operator": "National Grid Electricity Distribution", "operator:old": "Western Power Distribution", "operator:wikidata": "Q7988183", "owner": "National Grid Electricity Distribution (South West) Plc", "owner:wikidata": "Q114397866", "power": "substation", "ref:GB:wpd_site": "114574", "source": "nged_open_data", "substation": "minor_distribution", "voltage": "11000"}}, {"type": "node", "id": 6973980011, "lat": 51.5222487, "lon": -2.507832, "tags": {"name": "Flaxpits Lane Substation", "operator": "National Grid Electricity Distribution", "operator:wikidata": "Q7988183", "power": "substation", "ref:GB:wpd_site": "112468", "source": "nged_open_data", "substation": "minor_distribution", "voltage": "11000"}}, {"type": "node", "id": 6975270499, "lat": 51.4802437, "lon": -2.6876472, "tags": {"power": "substation"}}, {"type": "node", "id": 6977219035, "lat": 51.5219253, "lon": -2.5048753, "tags": {"name": "Bradley Avenue ID Substation", "operator": "National Grid Electricity Distribution", "operator:wikidata": "Q7988183", "power": "substation", "ref:GB:wpd_site": "111458", "source": "nged_open_data", "substation": "minor_distribution", "voltage": "11000"}}, {"type": "node", "id": 6985885118, "lat": 51.4778891, "lon": -2.6826388, "tags": {"power": "substation"}}, {"type": "node", "id": 6986854607, "lat": 51.4934273, "lon": -2.4901669, "tags": {"name": "Stockwell Hill Substation", "operator": "National Grid Electricity Distribution", "operator:wikidata": "Q7988183", "power": "substation", "ref:GB:wpd_site": "110189", "source": "nged_open_data", "substation": "minor_distribution", "voltage": "11000"}}, {"type": "node", "id": 6986854634, "lat": 51.4949945, "lon": -2.4854719, "tags": {"brand": "National Grid", "brand:wikidata": "Q1465461", "name": "Downend Traing Centr Substation", "operator": "National Grid Electricity Distribution", "operator:old": "Western Power Distribution", "operator:wikidata": "Q7988183", "owner": "National Grid Electricity Distribution (South West) Plc", "owner:wikidata": "Q114397866", "power": "substation", "ref:GB:wpd_site": "112101", "source": "nged_open_data", "substation": "minor_distribution", "voltage": "11000"}}, {"type": "node", "id": 6989362675, "lat": 51.5227828, "lon": -2.5098714, "tags": {"brand": "National Grid", "brand:wikidata": "Q1465461", "name": "Beacon Lane Substation", "operator": "National Grid Electricity Distribution", "operator:old": "Western Power Distribution", "operator:wikidata": "Q7988183", "owner": "National Grid Electricity Distribution (South West) Plc", "owner:wikidata": "Q114397866", "power": "substation", "ref:GB:wpd_site": "112334", "voltage": "11000"}}, {"type": "node", "id": 6989590881, "lat": 51.5183759, "lon": -2.5021267, "tags": {"name": "Huckford Road OD Substation", "operator": "National Grid Electricity Distribution", "operator:wikidata": "Q7988183", "power": "substation", "ref:GB:wpd_site": "111224", "source": "nged_open_data", "substation": "minor_distribution", "voltage": "11000"}}, {"type": "node", "id": 6995608299, "lat": 51.5199559, "lon": -2.5025387, "tags": {"name": "Barton Close OD Substation", "operator": "National Grid Electricity Distribution", "operator:wikidata": "Q7988183", "power": "substation", "ref:GB:wpd_site": "111437", "source": "nged_open_data", "substation": "minor_distribution", "voltage": "11000"}}, {"type": "node", "id": 6996340598, "lat": 51.4865309, "lon": -2.4752422, "tags": {"name": "Johnson Roard North Substation", "operator": "National Grid Electricity Distribution", "operator:wikidata": "Q7988183", "power": "substation", "ref:GB:wpd_site": "114048", "source": "nged_open_data", "substation": "minor_distribution", "voltage": "11000"}}, {"type": "node", "id": 7008002488, "lat": 51.490173, "lon": -2.4747666, "tags": {"name": "Sarum Close Emersons Substation", "operator": "National Grid Electricity Distribution", "operator:wikidata": "Q7988183", "power": "substation", "ref:GB:wpd_site": "114153", "source": "nged_open_data", "substation": "minor_distribution", "voltage": "11000"}}, {"type": "node", "id": 7008466491, "lat": 51.4883905, "lon": -2.4735023, "tags": {"name": "Corinum Close Substation", "operator": "National Grid Electricity Distribution", "operator:wikidata": "Q7988183", "power": "substation", "ref:GB:wpd_site": "114165", "source": "nged_open_data", "substation": "minor_distribution", "voltage": "11000"}}, {"type": "node", "id": 7016572194, "lat": 51.4835558, "lon": -2.4882296, "tags": {"name": "Valley Rd Substation", "operator": "National Grid Electricity Distribution", "operator:wikidata": "Q7988183", "power": "substation", "ref:GB:wpd_site": "110411", "source": "nged_open_data", "substation": "minor_distribution", "voltage": "11000"}},