{"version": 0.6, "generator": "Overpass API 0.7.62.8 e802775f", "osm3s": {"timestamp_osm_base": "2025-11-17T18:00:28Z", "copyright": "The data included in this document is from www.openstreetmap.org. The data is made available under ODbL."}, "elements": [{"type": "node", "id": 615356165, "lat": 46.8864784, "lon": 15.5138376, "tags": {"operator": "Wildon Schlo\u00dfberg", "power": "substation"}}, {"type": "node", "id": 615690501, "lat": 46.8792895, "lon": 15.5069872, "tags": {"operator": "Bockberg", "power": "substation"}}, {"type": "node", "id": 619516519, "lat": 47.0434831, "lon": 15.5165986, "tags": {"power": "substation"}}, {"type": "node", "id": 669159454, "lat": 47.2687178, "lon": 15.3352435, "tags": {"power": "substation"}}, {"type": "node", "id": 669268390, "lat": 47.1504248, "lon": 15.6648719, "tags": {"power": "substation"}}, {"type": "node", "id": 844209760, "lat": 47.3115249, "lon": 15.6892734, "tags": {"operator": "Estag", "power": "substation"}}, {"type": "node", "id": 850054763, "lat": 47.3108046, "lon": 15.7250066, "tags": {"operator": "Steweag", "power": "substation"}}, {"type": "node", "id": 857305683, "lat": 47.3392766, "lon": 15.6835934, "tags": {"operator": "Steweag", "power": "substation"}}, {"type": "node", "id": 888716336, "lat": 47.2544503, "lon": 15.2466012, "tags": {"power": "substation"}}, {"type": "node", "id": 1296561561, "lat": 47.0852031, "lon": 15.5323493, "tags": {"name": "Kainbach Sportanlage II", "power": "substation", "source": "bing", "substation": "minor_distribution"}}, {"type": "node", "id": 1437207003, "lat": 47.4665574, "lon": 15.3268507, "tags": {"power": "substation"}}, {"type": "node", "id": 1586999418, "lat": 47.0951046, "lon": 15.4078274, "tags": {"power": "substation"}}, {"type": "node", "id": 1788663804, "lat": 47.4143335, "lon": 15.2055747, "tags": {"building": "yes", "operator": "STEWEAG", "power": "substation", "source": "survey,geoimage.at"}}, {"type": "node", "id": 1792426620, "lat": 47.4248452, "lon": 14.9914798, "tags": {"power": "substation"}}, {"type": "node", "id": 1846944943, "lat": 47.4089862, "lon": 15.2613326, "tags": {"building": "yes", "power": "substation"}}, {"type": "node", "id": 1847224056, "lat": 47.4087891, "lon": 15.2559658, "tags": {"building": "yes", "operator": "Stadtwerke Bruck", "power": "substation"}}, {"type": "node", "id": 1849563735, "lat": 47.1420874, "lon": 15.5321348, "tags": {"power": "substation"}}, {"type": "node", "id": 1865778004, "lat": 47.0951314, "lon": 15.4538616, "tags": {"operator": "Energie Steiermark", "operator:wikidata": "Q1341214", "power": "substation"}}, {"type": "node", "id": 1888119095, "lat": 47.15424, "lon": 15.526861, "tags": {"power": "substation"}}, {"type": "node", "id": 1920137356, "lat": 47.1670708, "lon": 15.5833688, "tags": {"power": "substation"}}, {"type": "node", "id": 1920137359, "lat": 47.1615424, "lon": 15.5602339, "tags": {"power": "substation"}}, {"type": "node", "id": 1920137378, "lat": 47.1578195, "lon": 15.5659441, "tags": {"power": "substation"}}, {"type": "node", "id": 1957143607, "lat": 46.8888949, "lon": 15.3562138, "tags": {"power": "substation"}}, {"type": "node", "id": 1957157380, "lat": 46.8885219, "lon": 15.3563828, "tags": {"power": "substation"}}, {"type": "node", "id": 2008372807, "lat": 46.8211139, "lon": 15.2321173, "tags": {"power": "substation"}}, {"type": "node", "id": 2043478123, "lat": 46.7306434, "lon": 15.2970965, "tags": {"name": "Trst Brunn/Kolonie-Nord", "operator": "Energie Steiermark", "operator:wikidata": "Q1341214", "operator:wikipedia": "de:Energie Steiermark", "power": "substation"}}, {"type": "node", "id": 2068229096, "lat": 46.957278, "lon": 15.3481067, "tags": {"note": "E310090-UM3", "operator": "energie Steiermark", "power": "substation", "ref": "E310090-UM3", "substation": "yes"}}, {"type": "node", "id": 2171602530, "lat": 46.8637163, "lon": 15.1942037, "tags": {"frequency": "50", "name": "Greim Lenzbauer", "operator": "E-Steiermark", "power": "substation", "substation": "minor_distribution", "voltage": "20000;400"}}, {"type": "node", "id": 2334111486, "lat": 46.9518327, "lon": 15.3354821, "tags": {"power": "substation"}}, {"type": "node", "id": 2334111487, "lat": 46.9571037, "lon": 15.3328348, "tags": {"power": "substation"}}, {"type": "node", "id": 2413521341, "lat": 46.9620513, "lon": 15.1844157, "tags": {"name": "Oberwald/Judpeter", "operator": "E-Steiermark", "power": "substation"}}, {"type": "node", "id": 2413521434, "lat": 46.9613027, "lon": 15.1807263, "tags": {"name": "Oberwald/Ofnerpeter", "operator": "E-Steiermark", "power": "substation"}}, {"type": "node", "id": 2459075547, "lat": 47.4368622, "lon": 14.994359, "tags": {"power": "substation", "source": "survey"}}, {"type": "node", "id": 2461943976, "lat": 46.8063495, "lon": 15.1938644, "tags": {"frequency": "50", "gas_insulated": "yes", "name": "Warnblick Schwemmhoisl", "operator": "Energie Netze Steiermark", "power": "substation", "substation": "minor_distribution", "voltage": "20000;400"}}, {"type": "node", "id": 2461944002, "lat": 46.8036636, "lon": 15.1995593, "tags": {"frequency": "50", "name": "Warnblick Halmbauer", "operator": "Energie Netze Steiermark", "power": "substation", "substation": "minor_distribution", "voltage": "20000;400"}}, {"type": "node", "id": 2510453526, "lat": 47.0403203, "lon": 15.2194321, "tags": {"name": "Muggauberg/Rusterholzer", "operator": "E-Steiermark", "power": "substation"}}, {"type": "node", "id": 3009099982, "lat": 47.0880517, "lon": 15.4326404, "tags": {"designation": "Transormator Energie Graz", "power": "substation"}}, {"type": "node", "id": 3034525182, "lat": 46.8196987, "lon": 15.2313242, "tags": {"name": "Interspar", "operator": "E-Steiermark", "operator:wikidata": "Q1341214", "operator:wikipedia": "de:Energie Steiermark", "power": "substation"}}, {"type": "node", "id": 3089035336, "lat": 47.4843235, "lon": 15.0134721, "tags": {"frequency": "50", "location": "indoor", "power": "substation", "source": "survey", "substation": "minor_distribution"}}, {"type": "node", "id": 3217585725, "lat": 47.0299101, "lon": 15.5712603, "tags": {"power": "substation"}}, {"type": "node", "id": 3231967441, "lat": 46.8051669, "lon": 15.1755333, "tags": {"frequency": "50", "name": "Warnblick Herk", "operator": "Energie Netze Steiermark", "power": "substation", "substation": "minor_distribution", "voltage": "20000;400"}}, {"type": "node", "id": 3298430756, "lat": 47.1947773, "lon": 15.1349365, "tags": {"frequency": "50", "name": "Kleinalpe Koch", "operator": "E-Steiermark", "power": "substation", "substation": "minor_distribution", "voltage": "20000;400"}}, {"type": "node", "id": 3304207657, "lat": 46.7590491, "lon": 15.1494394, "tags": {"frequency": "50", "name": "Garanas Amtmann", "operator": "E-Steiermark", "operator:wikidata": "Q1341214", "operator:wikipedia": "de:Energie Steiermark", "power": "substation", "substation": "minor_distribution", "voltage": "20000;400"}}, {"type": "node", "id": 3304207658, "lat": 46.7735387, "lon": 15.1325114, "tags": {"frequency": "50", "location": "outdoor", "name": "Garanas Kochgregor", "operator": "E-Steiermark", "power": "substation", "substation": "minor_distribution", "voltage": "20000;400"}}, {"type": "node", "id": 3304207659, "lat": 46.7647684, "lon": 15.1339736, "tags": {"frequency": "50", "location": "outdoor", "name": "Garanas Maxlippi", "operator": "E-Steiermark", "power": "substation", "substation": "minor_distribution", "voltage": "20000;400"}}, {"type": "node", "id": 3304207660, "lat": 46.7682403, "lon": 15.1328005, "tags": {"frequency": "50", "location": "outdoor", "name": "Garanas Mentl", "operator": "E-Steiermark", "power": "substation", "substation": "minor_distribution", "voltage": "20000;400"}}, {"type": "node", "id": 3304213661, "lat": 46.7593797, "lon": 15.1618144, "tags": {"frequency": "50", "location": "outdoor", "name": "Garanas Pauritsch", "operator": "E-Steiermark", "power": "substation", "substation": "minor_distribution", "voltage": "20000;400"}}, {"type": "node", "id": 3304213662, "lat": 46.7662261, "lon": 15.1402268, "tags": {"frequency": "50", "location": "outdoor", "name": "Garanas Schreitmattl", "operator": "E-Steiermark", "power": "substation", "substation": "minor_distribution", "voltage": "20000;400"}}, {"type": "node", "id": 3304213663, "lat": 46.762544, "lon": 15.1472363, "tags": {"frequency": "50", "name": "Garanas Veitlhoma", "operator": "E-Steiermark", "power": "substation", "substation": "minor_distribution", "voltage": "20000;400"}}, {"type": "node", "id": 3304213664, "lat": 46.7582025, "lon": 15.1349804, "tags": {"frequency": "50", "location": "outdoor", "name": "Garanas Veitlmichl", "operator": "E-Steiermark", "operator:wikidata": "Q1341214", "operator:wikipedia": "de:Energie Steiermark", "power": "substation", "substation": "minor_distribution", "voltage": "20000;400"}}, {"type": "node", "id": 3304213665, "lat": 46.7587717, "lon": 15.191193, "tags": {"frequency": "50", "location": "outdoor", "name": "Mainsdorf Weiherbach", "operator": "E-Steiermark", "power": "substation", "substation": "minor_distribution", "voltage": "20000;400"}}, {"type": "node", "id": 3304213667, "lat": 46.7574541, "lon": 15.1779864, "tags": {"frequency": "50", "location": "outdoor", "name": "Schwanberg M\u00f6rth", "operator": "E-Steiermark", "operator:wikidata": "Q1341214", "operator:wikipedia": "de:Energie Steiermark", "power": "substation", "substation": "minor_distribution", "voltage": "20000;400"}}, {"type": "node", "id": 3308405072, "lat": 47.1913458, "lon": 15.167227, "tags": {"frequency": "50", "name": "Kleinalpe Sattelwirt", "operator": "E-Steiermark", "power": "substation", "source": "geoimage. at", "substation": "minor_distribution", "voltage": "20000;400"}}, {"type": "node", "id": 3319839842, "lat": 46.8636495, "lon": 15.1795407, "tags": {"frequency": "50", "location": "outdoor", "name": "Feldbaum Mathi", "operator": "E-Steiermark", "power": "substation", "substation": "minor_distribution", "voltage": "20000;400"}}, {"type": "node", "id": 3319841617, "lat": 46.8674501, "lon": 15.1858074, "tags": {"frequency": "50", "location": "outdoor", "name": "Sallegg Erntoni", "operator": "E-Steiermark", "power": "substation", "substation": "minor_distribution", "voltage": "20000;400"}}, {"type": "node", "id": 3319841618, "lat": 46.8718311, "lon": 15.1702215, "tags": {"frequency": "50", "location": "outdoor", "name": "Sallegg Grandlwirt", "operator": "E-Steiermark", "power": "substation", "substation": "minor_distribution", "voltage": "20000;400"}}, {"type": "node", "id": 3319841619, "lat": 46.8703882, "lon": 15.1535321, "tags": {"frequency": "50", "location": "outdoor", "name": "Sallegg Klugbauer", "operator": "E-Steiermark", "power": "substation", "substation": "minor_distribution", "voltage": "20000;400"}}, {"type": "node", "id": 3319841620, "lat": 46.8710324, "lon": 15.1755741, "tags": {"frequency": "50", "location": "outdoor", "name": "Sallegg/Jagerhansl", "operator": "E-Steiermark", "power": "substation", "substation": "minor_distribution", "voltage": "20000;400"}}, {"type": "node", "id": 3352846964, "lat": 47.0512497, "lon": 15.1285554, "tags": {"frequency": "50", "name": "Rosental Siedlung", "operator": "E-Steiermark", "operator:wikidata": "Q1341214", "operator:wikipedia": "de:Energie Steiermark", "power": "substation", "substation": "minor_distribution", "voltage": "20000;400"}}, {"type": "node", "id": 3517431068, "lat": 46.8791124, "lon": 15.2210937, "tags": {"frequency": "50", "location": "outdoor", "name": "Mitteregg/Gamseggberg", "operator": "E-Steiermark", "power": "substation", "substation": "minor_distribution", "voltage": "20000;400"}}, {"type": "node", "id": 3517431069, "lat": 46.8759995, "lon": 15.2199086, "tags": {"frequency": "50", "location": "outdoor", "name": "Mitteregg/Schifferl", "operator": "E-Steiermark", "power": "substation", "substation": "minor_distribution", "voltage": "20000;400"}}, {"type": "node", "id": 3611343632, "lat": 46.9474485, "lon": 15.2332217, "tags": {"frequency": "50", "name": "Gundersdorf", "operator": "E-Steiermark", "power": "substation", "substation": "minor_distribution", "voltage": "20000;400"}}, {"type": "node", "id": 3611343633, "lat": 46.9406765, "lon": 15.2388373, "tags": {"name": "Hochneuberg", "operator": "E-Steiermark", "power": "substation", "substation": "minor_distribution", "voltage": "20000;400"}}, {"type": "node", "id": 3611343634, "lat": 46.9336045, "lon": 15.2324307, "tags": {"frequency": "50", "name": "Lestein", "operator": "Energie Steiermark", "operator:wikidata": "Q1341214", "power": "substation", "substation": "minor_distribution", "voltage": "20000;400"}}, {"type": "node", "id": 3611343635, "lat": 46.9359482, "lon": 15.2388695, "tags": {"building": "yes", "frequency": "50", "name": "SST Grubberg", "operator": "E-Steiermark", "power": "substation", "substation": "minor_distribution", "voltage": "20000;400"}}, {"type": "node", "id": 3613218855, "lat": 46.940535, "lon": 15.2301861, "tags": {"frequency": "50", "name": "Grubberg Ort", "operator": "E-Steiermark", "power": "substation", "substation": "minor_distribution", "voltage": "20000;400"}}, {"type": "node", "id": 3613218856, "lat": 46.9375438, "lon": 15.2256685, "tags": {"frequency": "50", "name": "Oberlestein", "operator": "E-Steiermark", "power": "substation", "substation": "minor_distribution", "voltage": "20000;400"}}, {"type": "node", "id": 3634352219, "lat": 47.1045699, "lon": 15.2032586, "tags": {"name": "Stiwoll Wolfmichl", "power": "substation"}}, {"type": "node", "id": 3798391961, "lat": 46.9644082, "lon": 15.3530528, "tags": {"frequency": "50", "man_made": "street_cabinet", "power": "substation", "substation": "minor_distribution", "utility": "power", "voltage": "20000"}}, {"type": "node", "id": 3843225312, "lat": 47.3663584, "lon": 15.107759, "tags": {"man_made": "street_cabinet", "power": "substation", "street_cabinet": "power", "substation": "minor_distribution"}}, {"type": "node", "id": 3848867881, "lat": 46.8112719, "lon": 15.2058076, "tags": {"frequency": "50", "location": "indoor", "name": "Deutschlandsberg Bad", "operator": "E-Steiermark", "power": "substation", "substation": "minor_distribution", "voltage": "20000;400"}}, {"type": "node", "id": 3890908476, "lat": 46.9368763, "lon": 15.7721816, "tags": {"power": "substation", "substation": "yes"}}, {"type": "node", "id": 4001276511, "lat": 46.8132872, "lon": 15.2147265, "tags": {"frequency": "50", "gas_insulated": "yes", "name": "Deutschlandsberg Br\u00fccke", "operator": "E-Steiermark", "power": "substation", "substation": "minor_distribution", "voltage": "20000;400"}}, {"type": "node", "id": 4016464501, "lat": 47.0649045, "lon": 15.4116117, "tags": {"frequency": "50", "gas_insulated": "yes", "name": "Reininghaus Alte Poststrasse 182", "operator": "E-Steiermark", "operator:wikidata": "Q1341214", "operator:wikipedia": "de:Energie Steiermark", "power": "substation", "substation": "minor_distribution", "voltage": "20000;400"}}, {"type": "node", "id": 4016464502, "lat": 47.0635917, "lon": 15.4078131, "tags": {"frequency": "50", "name": "Reininghaus M\u00e4lzerei", "operator": "E-Steiermark", "power": "substation", "substation": "minor_distribution", "voltage": "20000;400"}}, {"type": "node", "id": 4068531761, "lat": 46.823157, "lon": 15.1512419, "tags": {"frequency": "50", "gas_insulated": "no", "name": "Kruckenberg Feriensiedlung", "operator": "Energie Netze Steiermark", "power": "substation", "substation": "minor_distribution", "voltage": "20000;400"}}, {"type": "node", "id": 4068531762, "lat": 46.8245516, "lon": 15.1367361, "tags": {"frequency": "50", "name": "Kruckenberg Strassenresch", "operator": "E-Steiermark", "power": "substation", "substation": "minor_distribution", "voltage": "20000;400"}}, {"type": "node", "id": 4068531764, "lat": 46.81336, "lon": 15.158834, "tags": {"frequency": "50", "name": "Kruckenberg Ully", "operator": "E-Steiermark", "power": "substation", "substation": "minor_distribution", "voltage": "20000;400"}}, {"type": "node", "id": 4068531765, "lat": 46.8017802, "lon": 15.2077067, "tags": {"frequency": "50", "name": "Leibenfeld Edenpater", "operator": "Energie Netze Steiermark", "power": "substation", "substation": "minor_distribution", "voltage": "20000;400"}}, {"type": "node", "id": 4068531766, "lat": 46.8063105, "lon": 15.2133466, "tags": {"frequency": "50", "location": "outdoor", "name": "Leibenfeld", "operator": "Energie Netze Steiermark", "power": "substation", "substation": "minor_distribution", "voltage": "20000;400"}}, {"type": "node", "id": 4068532186, "lat": 46.8094629, "lon": 15.1823104, "tags": {"frequency": "50", "name": "Trah\u00fctten Hazi", "operator": "E-Steiermark", "power": "substation", "substation": "minor_distribution", "voltage": "20000;400"}}, {"type": "node", "id": 4068532187, "lat": 46.8121855, "lon": 15.1652097, "tags": {"frequency": "50", "gas_insulated": "yes", "name": "Trah\u00fctten Mody", "operator": "Energie Netze Steiermark", "power": "substation", "substation": "minor_distribution", "voltage": "20000;400"}}, {"type": "node", "id": 4068532188, "lat": 46.8286112, "lon": 15.1247737, "tags": {"frequency": "50", "name": "Trah\u00fctten Parfusswirt", "operator": "E-Steiermark", "power": "substation", "substation": "minor_distribution", "voltage": "20000;400"}}, {"type": "node", "id": 4068532189, "lat": 46.8249044, "lon": 15.1554169, "tags": {"frequency": "50", "name": "Trah\u00fctten Schiermeister", "operator": "E-Steiermark", "power": "substation", "substation": "minor_distribution", "voltage": "20000;400"}}, {"type": "node", "id": 4068532190, "lat": 46.8031079, "lon": 15.1942834, "tags": {"frequency": "50", "name": "Warnblick Fobisch", "operator": "E-Steiermark", "power": "substation", "substation": "minor_distribution", "voltage": "20000;400"}}, {"type": "node", "id": 4079971771, "lat": 46.7687556, "lon": 15.1696579, "tags": {"frequency": "50", "name": "Gressenberg Aldrian", "operator": "E-Steiermark", "power": "substation", "substation": "minor_distribution", "voltage": "20000;400"}}, {"type": "node", "id": 4079971772, "lat": 46.7600298, "lon": 15.1787769, "tags": {"frequency": "50", "name": "Gressenberg Amtmann", "operator": "E-Steiermark", "power": "substation", "substation": "minor_distribution", "voltage": "20000;400"}}, {"type": "node", "id": 4079971773, "lat": 46.8083315, "lon": 15.0747529, "tags": {"frequency": "50", "name": "Gressenberg Fuchs", "operator": "E-Steiermark", "power": "substation", "substation": "minor_distribution", "voltage": "20000;400"}}, {"type": "node", "id": 4079971774, "lat": 46.7700462, "lon": 15.1664366, "tags": {"frequency": "50", "name": "Gressenberg F\u00fcrpass", "operator": "E-Steiermark", "power": "substation", "substation": "minor_distribution", "voltage": "20000;400"}}, {"type": "node", "id": 4079971775, "lat": 46.8232757, "lon": 15.0602111, "tags": {"frequency": "50", "name": "Gressenberg Glash\u00fctten", "operator": "E-Steiermark", "power": "substation", "substation": "minor_distribution", "voltage": "20000;400"}}, {"type": "node", "id": 4079971776, "lat": 46.8111092, "lon": 15.0886649, "tags": {"frequency": "50", "name": "Gressenberg Gr\u00f6ssbauer", "operator": "E-Steiermark", "power": "substation", "substation": "minor_distribution", "voltage": "20000;400"}}, {"type": "node", "id": 4079971777, "lat": 46.7895561, "lon": 15.1281108, "tags": {"frequency": "50", "name": "Gressenberg Koglgasperl", "operator": "E-Steiermark", "power": "substation", "substation": "minor_distribution", "voltage": "20000;400"}}, {"type": "node", "id": 4079971778, "lat": 46.8158433, "lon": 15.0576601, "tags": {"frequency": "50", "name": "Gressenberg Mojer", "operator": "E-Steiermark", "power": "substation", "substation": "minor_distribution", "voltage": "20000;400"}}, {"type": "node", "id": 4079971779, "lat": 46.8202445, "lon": 15.0885931, "tags": {"frequency": "50", "name": "Gressenberg Oberl\u00e4nder", "operator": "E-Steiermark", "power": "substation", "substation": "minor_distribution", "voltage": "20000;400"}}, {"type": "node", "id": 4079971780, "lat": 46.8210609, "lon": 15.0725017, "tags": {"frequency": "50", "name": "Gressenberg Schmuck", "operator": "E-Steiermark", "power": "substation", "substation": "minor_distribution", "voltage": "20000;400"}}, {"type": "node", "id": 4079971781, "lat": 46.7881319, "lon": 15.1416077, "tags": {"frequency": "50", "name": "Gressenberg Schule", "operator": "E-Steiermark", "power": "substation", "substation": "minor_distribution", "voltage": "20000;400"}}, {"type": "node", "id": 4079971782, "lat": 46.7835299, "lon": 15.1513823, "tags": {"frequency": "50", "name": "Gressenberg Strassenhohl", "operator": "E-Steiermark", "power": "substation", "substation": "minor_distribution", "voltage": "20000;400"}}, {"type": "node", "id": 4079971783, "lat": 46.7986903, "lon": 15.1134183, "tags": {"frequency": "50", "name": "Gressenberg Thorwartl", "operator": "E-Steiermark", "power": "substation", "substation": "minor_distribution", "voltage": "20000;400"}}, {"type": "node", "id": 4079971784, "lat": 46.7732611, "lon": 15.163509, "tags": {"frequency": "50", "name": "Gressenberg Wetl", "operator": "E-Steiermark", "power": "substation", "substation": "minor_distribution", "voltage": "20000;400"}}, {"type": "node", "id": 4079973135, "lat": 46.8296777, "lon": 15.09189, "tags": {"frequency": "50", "name": "Rostock Berger", "operator": "E-Steiermark", "power": "substation", "substation": "minor_distribution", "voltage": "20000;400"}}, {"type": "node", "id": 4079973136, "lat": 46.8297388, "lon": 15.0997478, "tags": {"frequency": "50", "name": "Rostock Grosskeuschen", "operator": "E-Steiermark", "power": "substation", "substation": "minor_distribution", "voltage": "20000;400"}}, {"type": "node", "id": 4079973137, "lat": 46.8252841, "lon": 15.1093952, "tags": {"frequency": "50", "name": "Rostock KWK Smolana", "power": "substation", "substation": "minor_distribution", "voltage": "20000;400"}}, {"type": "node", "id": 4079973138, "lat": 46.8306704, "lon": 15.117839, "tags": {"frequency": "50", "name": "Trah\u00fctten Schwagbauer", "operator": "E-Steiermark", "power": "substation", "substation": "minor_distribution", "voltage": "20000;400"}}, {"type": "node", "id": 4079973139, "lat": 46.8064231, "lon": 15.0986266, "tags": {"frequency": "50", "name": "Gressenberg Ofner", "operator": "E-Steiermark", "power": "substation", "substation": "minor_distribution", "voltage": "20000;400"}}, {"type": "node", "id": 4107858501, "lat": 46.8946669, "lon": 15.2674496, "tags": {"frequency": "50", "gas_insulated": "yes", "name": "Stainz Bauhof", "operator": "E-Steiermark", "operator:wikidata": "Q1341214", "operator:wikipedia": "de:Energie Steiermark", "power": "substation", "substation": "minor_distribution", "voltage": "20000;400"}}, {"type": "node", "id": 4329406693, "lat": 46.9086225, "lon": 15.221188, "tags": {"frequency": "50", "name": "Sierling Rainbach", "operator": "E-Steiermark", "power": "substation", "substation": "minor_distribution", "voltage": "20000;400"}}, {"type": "node", "id": 4329423351, "lat": 46.9111027, "lon": 15.2230458, "tags": {"frequency": "50", "name": "Teufenbach K\u00fchlhaus", "operator": "E-Steiermark", "power": "substation", "substation": "minor_distribution", "voltage": "20000;400"}}, {"type": "node", "id": 4425304314, "lat": 46.8420362, "lon": 15.1778524, "tags": {"frequency": "50", "name": "Mitterspiel Steinerlenz", "operator": "E-Steiermark", "power": "substation", "substation": "minor_distribution", "voltage": "20000;400;230"}}, {"type": "node", "id": 4565440393, "lat": 46.9620996, "lon": 15.881079, "tags": {"power": "substation"}}, {"type": "node", "id": 5775369007, "lat": 47.3719531, "lon": 15.0934741, "tags": {"man_made": "street_cabinet", "power": "substation", "street_cabinet": "power", "substation": "minor_distribution"}}, {"type": "node", "id": 5775369008, "lat": 47.3755815, "lon": 15.0951008, "tags": {"man_made": "street_cabinet", "power": "substation", "street_cabinet": "power", "substation": "minor_distribution"}}, {"type": "node", "id": 5824836650, "lat": 47.3876158, "lon": 15.0955159, "tags": {"man_made": "street_cabinet", "power": "substation", "ref": "Leoben/Eishalle", "street_cabinet": "power", "substation": "minor_distribution"}}, {"type": "node", "id": 5824836651, "lat": 47.3876008, "lon": 15.0943143, "tags": {"man_made": "street_cabinet", "power": "substation", "ref": "Leoben/Parkstra\u00dfe", "street_cabinet": "power", "substation": "minor_distribution"}}, {"type": "node", "id": 5826716916, "lat": 47.3643678, "lon": 15.0954998, "tags": {"man_made": "street_cabinet", "power": "substation", "street_cabinet": "power", "substation": "minor_distribution"}}, {"type": "node", "id": 5826718999, "lat": 47.3657499, "lon": 15.0983255, "tags": {"man_made": "street_cabinet", "power": "substation", "ref": "Leoben/G\u00f6sser Stra\u00dfe", "street_cabinet": "power", "substation": "minor_distribution"}}, {"type": "node", "id": 6055505727, "lat": 47.07277, "lon": 15.535628, "tags": {"name": "Rastb\u00fchel/ Bschaidenh\u00f6he II", "power": "substation"}}, {"type": "node", "id": 6110641588, "lat": 47.2182309, "lon": 15.779499, "tags": {"material": "concrete", "power": "substation", "transformer": "distribution"}}, {"type": "node", "id": 6385891651, "lat": 46.8876909, "lon": 15.0768456, "tags": {"power": "substation"}}, {"type": "node", "id": 6391636711, "lat": 47.0868062, "lon": 15.5615297, "tags": {"name": "H\u00f6nigtal/ Schultra\u00dfe", "operator": "Pichler Werke", "power": "substation", "ref": "4109", "substation": "minor_distribution", "voltage": "20000"}}, {"type": "node", "id": 6400566792, "lat": 47.0239723, "lon": 15.869881, "tags": {"name": "Krennach/ Auersbach", "power": "substation"}}, {"type": "node", "id": 6417461763, "lat": 47.3879408, "lon": 15.0516247, "tags": {"addr:city": "Sankt Peter-Freienstein", "addr:country": "AT", "addr:housenumber": "2d", "addr:postcode": "8792", "addr:street": "Hauptstra\u00dfe", "at_bev:addr_date": "2018-10-01", "power": "substation"}}, {"type": "node", "id": 6654647305, "lat": 47.0695286, "lon": 15.467486, "tags": {"contact:phone": "+43 800 73 53 28", "name": "Managettaweg Siedlung", "operator": "Energie Steiermark", "operator:wikidata": "Q1341214", "power": "substation", "ref": "E 323031", "substation": "minor_distribution", "voltage": "20000"}}, {"type": "node", "id": 6723790726, "lat": 47.2412371, "lon": 15.5103162, "tags": {"operator": "Pichlerwerke", "power": "substation"}}, {"type": "node", "id": 6757278094, "lat": 47.1003618, "lon": 15.2359031, "tags": {"fixme": "exact position", "name": "Stiwoll, Staberhansl", "power": "substation"}}, {"type": "node", "id": 6757293878, "lat": 47.3048176, "lon": 15.5762371, "tags": {"contact:phone": "+43 800 800 128", "fixme": "exact position", "operator": "Energie Netze Steiermark", "power": "substation"}}, {"type": "node", "id": 6759041050, "lat": 47.0615616, "lon": 15.2917892, "tags": {"name": "Rohrbach, Davidweg", "power": "substation"}}, {"type": "node", "id": 7108122395, "lat": 47.0738297, "lon": 15.5280741, "tags": {"name": "\u00c4ussere Ragnitz Kapellenweg", "power": "substation", "ref": "E 322014", "source": "survey", "substation": "minor_distribution"}}, {"type": "node", "id": 7126306039, "lat": 47.0870284, "lon": 15.5884194, "tags": {"location": "overground", "name": "Pr\u00e4bachweg Mara", "phases": "3", "power": "substation", "source": "survey", "substation": "minor_distribution"}}, {"type": "node", "id": 7126542667, "lat": 47.076417, "lon": 15.5781635, "tags": {"name": "Lassnitzh\u00f6he Botenhof", "power": "substation", "source": "survey", "substation": "minor_distribution"}}, {"type": "node", "id": 7126542670, "lat": 47.0611915, "lon": 15.5520252, "tags": {"name": "Autal M\u00fchlgangstra\u00dfe", "power": "substation", "source": "survey", "substation": "minor_distribution"}}, {"type": "node", "id": 7216956850, "lat": 47.0915042, "lon": 15.5170709, "tags": {"name": "Kainbach Riesstrasse", "power": "substation", "source": "survey", "substation": "minor_distribution"}}, {"type": "node", "id": 7463626792, "lat": 47.1984011, "lon": 15.5727438, "tags": {"name": "Gutenberg, Unterrosegg", "power": "substation", "ref": "E59036"}}, {"type": "node", "id": 7463626795, "lat": 47.1973027, "lon": 15.5938722, "tags": {"name": "Steinberg Gutenhang", "power": "substation", "ref": "E59013"}}, {"type": "node", "id": 7463631243, "lat": 47.2658623, "lon": 15.5498555, "tags": {"name": "Haufenreith Untersattel", "power": "substation", "ref": "E550105"}}, {"type": "node", "id": 7473281438, "lat": 47.0434338, "lon": 15.6577479, "tags": {"name": "Langegg-Obergoggitsch", "power": "substation"}}, {"type": "node", "id": 7473281440, "lat": 47.0367894, "lon": 15.6789075, "tags": {"name": "Langegg-Mittergoggitsch", "power": "substation"}}, {"type": "node", "id": 7480397094, "lat": 47.0373157, "lon": 15.3933589, "tags": {"power": "substation", "substation": "minor_distribution"}}, {"type": "node", "id": 7497437382, "lat": 47.0842221, "lon": 15.5137577, "tags": {"name": "Kainbach Schweinberg II", "power": "substation", "source": "survey", "substation": "minor_distribution"}}, {"type": "node", "id": 7527315944, "lat": 47.0796898, "lon": 15.5228888, "tags": {"name": "Kainbach Naturweg", "power": "substation", "source": "survey", "substation": "minor_distribution"}}, {"type": "node", "id": 7592766702, "lat": 46.9513112, "lon": 15.5319223, "tags": {"power": "substation", "substation": "minor_distribution"}}, {"type": "node", "id": 7659238873, "lat": 47.0466691, "lon": 15.4431368, "tags": {"power": "substation", "source": "Mapillary", "substation": "minor_distribution"}}, {"type": "node", "id": 7668966304, "lat": 46.9387236, "lon": 15.5110064, "tags": {"power": "substation", "substation": "minor_distribution"}}, {"type": "node", "id": 7703098706, "lat": 47.0733616, "lon": 15.5093016, "tags": {"name": "Kraxnersiedlung II", "power": "substation", "source": "survey", "substation": "minor_distribution"}}, {"type": "node", "id": 7825901989, "lat": 47.0790231, "lon": 15.5412334, "tags": {"name": "Rastbuehel \u00c4ussere Ragnitz 135", "operator": "Energie Steiermark Netze", "power": "substation", "ref": "E 322035", "source": "survey", "substation": "minor_distribution", "voltage": "20000"}}, {"type": "node", "id": 7924369997, "lat": 47.0361443, "lon": 15.4599187, "tags": {"name": "Johann Koller-Weg", "power": "substation", "ref": "E 311055", "source": "survey", "substation": "minor_distribution", "voltage": "20000"}}, {"type": "node", "id": 8118957127, "lat": 47.0793721, "lon": 15.5323925, "tags": {"name": "Kainbach Greimelweg", "power": "substation", "ref": "E 322026", "source": "survey", "substation": "minor_distribution", "voltage": "20000"}}, {"type": "node", "id": 8307592106, "lat": 47.0396135, "lon": 15.4525251, "tags": {"name": "Ziehrerstra\u00dfe 70", "power": "substation", "source": "aerial imagery;survey", "substation": "minor_distribution", "voltage": "20000"}}, {"type": "node", "id": 8309483581, "lat": 46.748325, "lon": 15.3794165, "tags": {"operator": "KTG", "power": "substation", "substation": "minor_distribution"}}, {"type": "node", "id": 8423782002, "lat": 47.0711059, "lon": 15.5782332, "tags": {"name": "La\u00dfnitzh\u00f6he Tesla", "power": "substation", "ref": "E 554088", "substation": "minor_distribution", "voltage": "20000"}}, {"type": "node", "id": 8530281353, "lat": 47.0346171, "lon": 15.469528, "tags": {"name": "Liebenau Herbert-Boeckl-Gasse 15", "operator": "Energie Steiermark", "operator:wikidata": "Q1341214", "power": "substation", "ref": "311053", "source": "survey", "substation": "minor_distribution", "voltage": "20000"}}, {"type": "node", "id": 8565748686, "lat": 47.0893974, "lon": 15.4837384, "tags": {"name": "Stifting Edelweisssiedlung II", "operator": "Energie Steiermark", "operator:wikidata": "Q1341214", "operator:wikipedia": "de:Energie Steiermark", "power": "substation", "ref": "E 321023", "source": "survey", "substation": "minor_distribution", "voltage": "20000"}}, {"type": "node", "id": 8657134872, "lat": 47.0219053, "lon": 15.404185, "tags": {"name": "Gradnerstra\u00dfe 180", "operator": "Energie Steiermark", "power": "substation", "ref": "E 315005", "substation": "minor_distribution", "voltage": "20000"}}, {"type": "node", "id": 8771944581, "lat": 47.1095741, "lon": 15.4636652, "tags": {"name": "Platte", "operator": "Energie Steiermark", "operator:wikidata": "Q1341214", "operator:wikipedia": "de:Energie Steiermark", "power": "substation", "ref": "E 334003", "source": "data.graz.gv.at aerial", "substation": "minor_distribution", "voltage": "20000"}}, {"type": "node", "id": 8923660176, "lat": 47.0856319, "lon": 15.4968092, "tags": {"name": "Ries Kriegerdenkmal II", "operator": "Energie Steiermark", "power": "substation", "ref": "E 322036", "source": "survey", "substation": "minor_distribution", "voltage": "20000"}}, {"type": "node", "id": 9011110078, "lat": 46.8843196, "lon": 15.8313065, "tags": {"operator": "STLB", "power": "substation", "substation": "traction"}}, {"type": "node", "id": 9124916418, "lat": 47.3912598, "lon": 15.0800188, "tags": {"man_made": "street_cabinet", "power": "substation", "street_cabinet": "power", "substation": "minor_distribution"}}, {"type": "node", "id": 9349017358, "lat": 47.1032694, "lon": 15.4881579, "tags": {"converter": "yes", "frequency": "50;0", "name": "Unterwerk Tannhof", "operator": "Energie Graz", "operator:wikidata": "Q1341216", "power": "substation", "source": "GeoImage.at High-Res", "substation": "traction", "voltage": "20000;600"}}, {"type": "node", "id": 9373443188, "lat": 47.0697957, "lon": 15.4059948, "tags": {"converter": "yes", "covered": "yes", "frequency": "50;0", "location": "underground", "name": "Unterwerk FH Joanneum", "power": "substation", "substation": "traction", "voltage": "20000;600"}}, {"type": "node", "id": 9373443189, "lat": 47.0708686, "lon": 15.4270468, "tags": {"converter": "yes", "covered": "yes", "frequency": "50;0", "location": "underground", "name": "Unterwerk Roseggerhaus", "power": "substation", "substation": "traction", "voltage": "20000;600"}}, {"type": "node", "id": 9373443190, "lat": 47.0674118, "lon": 15.4416929, "tags": {"converter": "yes", "covered": "yes", "frequency": "50;0", "layer": "-2", "location": "underground", "name": "Unterwerk Jakominiplatz", "power": "substation", "substation": "traction", "voltage": "20000;600"}}, {"type": "node", "id": 9373443191, "lat": 47.0683549, "lon": 15.4453849, "tags": {"converter": "yes", "covered": "yes", "frequency": "50;0", "location": "indoor", "name": "Unterwerk Kaiser-Josef-Platz", "power": "substation", "substation": "traction", "voltage": "20000;600"}}, {"type": "node", "id": 9373443192, "lat": 47.072237, "lon": 15.4504798, "tags": {"converter": "yes", "covered": "yes", "frequency": "50;0", "location": "indoor", "name": "Unterwerk Lichtenfelsgasse", "operator": "Energie Graz", "operator:wikidata": "Q1341216", "power": "substation", "substation": "traction", "voltage": "20000;600"}}, {"type": "node", "id": 9373443193, "lat": 47.0822363, "lon": 15.4681698, "tags": {"converter": "yes", "covered": "yes", "frequency": "50;0", "layer": "-1", "location": "underground", "name": "Unterwerk LKH Med Uni", "power": "substation", "substation": "traction", "voltage": "20000;600"}}, {"type": "node", "id": 9386217891, "lat": 47.0459382, "lon": 15.4563213, "tags": {"name": "Liebenauer Hauptstrasse 20", "operator": "Energie Steiermark", "operator:wikidata": "Q1341214", "operator:wikipedia": "de:Energie Steiermark", "power": "substation", "ref": "E 311061", "substation": "minor_distribution", "voltage": "20000"}}, {"type": "node", "id": 9392536900, "lat": 47.0447104, "lon": 15.4568772, "tags": {"name": "Liebenauer Hauptstrasse 28", "operator": "Energie Steiermark", "operator:wikidata": "Q1341214", "operator:wikipedia": "de:Energie Steiermark", "power": "substation", "ref": "E 311054", "substation": "minor_distribution", "voltage": "20000"}}, {"type": "node", "id": 9423437323, "lat": 47.104313, "lon": 15.5813368, "tags": {"operator": "Energie Steiermark", "operator:wikidata": "Q1341214", "operator:wikipedia": "de:Energie Steiermark", "power": "substation", "substation": "minor_distribution", "voltage": "20000"}}, {"type": "node", "id": 9458528634, "lat": 47.0346715, "lon": 15.4753553, "tags": {"operator": "Energie Steiermark", "operator:wikidata": "Q1341214", "operator:wikipedia": "de:Energie Steiermark", "power": "substation", "substation": "minor_distribution", "voltage": "20000"}}, {"type": "node", "id": 9520001931, "lat": 47.0629951, "lon": 15.4113854, "tags": {"name": "Reininghaus Gewerbepark S\u00fcd", "operator": "Energie Steiermark", "operator:wikidata": "Q1341214", "operator:wikipedia": "de:Energie Steiermark", "power": "substation", "ref": "E 314038", "substation": "minor_distribution", "voltage": "20000"}}, {"type": "node", "id": 9625085110, "lat": 47.097554, "lon": 15.4868314, "tags": {"fixme": "ref number missing", "name": "Roseggerweg II", "operator": "Energie Steiermark", "operator:wikidata": "Q1341214", "operator:wikipedia": "de:Energie Steiermark", "power": "substation", "substation": "minor_distribution", "voltage": "20000"}}, {"type": "node", "id": 9635679846, "lat": 47.0269986, "lon": 15.4311748, "tags": {"name": "Hafnerstra\u00dfe 20 II", "operator": "Energie Steiermark", "operator:wikidata": "Q1341214", "operator:wikipedia": "de:Energie Steiermark", "power": "substation", "ref": "E 313076", "substation": "minor_distribution", "voltage": "20000"}}, {"type": "node", "id": 9635679847, "lat": 47.0245931, "lon": 15.4234491, "tags": {"man_made": "street_cabinet", "name": "Schaltstelle Puntigam", "operator": "Energie Steiermark", "operator:wikidata": "Q1341214", "operator:wikipedia": "de:Energie Steiermark", "power": "substation", "substation": "minor_distribution", "voltage": "20000"}}, {"type": "node", "id": 9688237545, "lat": 47.0112584, "lon": 15.3988113, "tags": {"power": "substation"}}, {"type": "node", "id": 9706024299, "lat": 47.0727456, "lon": 15.4694138, "tags": {"name": "Ruckerlberggasse 56 II", "operator": "Energie Steiermark", "operator:wikidata": "Q1341214", "operator:wikipedia": "de:Energie Steiermark", "power": "substation", "source": "bing", "substation": "minor_distribution", "voltage": "20000"}}, {"type": "node", "id": 9706087227, "lat": 46.9757561, "lon": 15.3305224, "tags": {"operator": "Energie Steiermark", "operator:wikidata": "Q1341214", "power": "substation", "substation": "substation"}}, {"type": "node", "id": 9707064648, "lat": 46.9630869, "lon": 15.3526924, "tags": {"power": "substation", "substation": "substation"}}, {"type": "node", "id": 9716272416, "lat": 47.0325416, "lon": 15.4337324, "tags": {"name": "Wagramer Weg 22 PV Anlage", "power": "substation", "ref": "E 313079", "substation": "minor_distribution", "voltage": "20000"}}, {"type": "node", "id": 9793416111, "lat": 47.0673169, "lon": 15.7749444, "tags": {"man_made": "street_cabinet", "power": "substation", "substation": "minor_distribution"}}, {"type": "node", "id": 9793508193, "lat": 47.0297976, "lon": 15.790659, "tags": {"man_made": "street_cabinet", "power": "substation", "street_cabinet": "power", "substation": "minor_distribution"}}, {"type": "node", "id": 9808597293, "lat": 47.0154639, "lon": 15.4738769, "tags": {"name": "Thondorf Fernwaerme II", "operator": "Energie Steiermark", "operator:wikidata": "Q1341214", "power": "substation", "ref": "E 312028", "substation": "minor_distribution", "voltage": "20000"}}, {"type": "node", "id": 9855887523, "lat": 46.8144134, "lon": 15.3052641, "tags": {"capacity": "20 MW", "check_date": "2024-12-23", "frequency": "50;16.7", "location": "underground", "power": "substation", "start_date": "2025", "substation": "converter", "voltage": "110000;20000"}}, {"type": "node", "id": 9871054952, "lat": 47.1008532, "lon": 15.4483262, "tags": {"frequency": "50", "operator": "Energie Steiermark", "operator:wikidata": "Q1341214", "power": "substation", "substation": "minor_distribution", "voltage": "20000"}}, {"type": "node", "id": 10170305087, "lat": 47.0795141, "lon": 15.473803, "tags": {"level": "0", "location": "indoor", "name": "Ries Kino", "operator": "Energie Steiermark", "operator:wikidata": "Q1341214", "power": "substation", "ref": "E 322001", "substation": "minor_distribution", "voltage": "20000"}}, {"type": "node", "id": 10173475230, "lat": 47.035489, "lon": 15.44526, "tags": {"covered": "yes", "location": "indoor", "operator": "Energie Steiermark", "operator:wikidata": "Q1341214", "power": "substation", "substation": "minor_distribution", "voltage": "20000"}}, {"type": "node", "id": 10290401986, "lat": 47.0947448, "lon": 15.4569066, "tags": {"name": "Haignitzhofweg", "operator": "Energie Steiermark", "operator:wikidata": "Q1341214", "power": "substation", "ref": "E 335025", "substation": "minor_distribution", "voltage": "20000"}}, {"type": "node", "id": 10557832483, "lat": 47.3002519, "lon": 15.5917194, "tags": {"man_made": "street_cabinet", "power": "substation", "substation": "minor_distribution", "utility": "power"}}, {"type": "node", "id": 10693051753, "lat": 47.0818647, "lon": 15.4683375, "tags": {"covered": "yes", "name": "Tiefgarage", "power": "substation", "substation": "minor_distribution", "voltage": "20000"}}, {"type": "node", "id": 11050058923, "lat": 47.0809458, "lon": 15.4151313, "tags": {"man_made": "street_cabinet", "name": "Hauptbahnhof Lastenstrasse", "operator": "Energie Steiermark", "operator:wikidata": "Q1341214", "power": "substation", "ref": "E 332020", "substation": "minor_distribution", "voltage": "20000"}}, {"type": "node", "id": 11059228354, "lat": 47.0327186, "lon": 15.459725, "tags": {"covered": "yes", "name": "Tunnelwarte Suedguertel", "operator": "Energie Steiermark", "operator:wikidata": "Q1341214", "power": "substation", "substation": "minor_distribution", "voltage": "20000"}}, {"type": "node", "id": 11069792025, "lat": 47.1262197, "lon": 15.4783921, "tags": {"name": "Am Lineck II", "operator": "Energie Steiermark", "operator:wikidata": "Q1341214", "power": "substation", "ref": "E 333028", "substation": "minor_distribution", "voltage": "20000"}}, {"type": "node", "id": 11069792026, "lat": 47.1167126, "lon": 15.4806164, "tags": {"name": "Wenisbucher Stra\u00dfe II", "operator": "Energie Steiermark", "operator:wikidata": "Q1341214", "power": "substation", "ref": "E 333026", "substation": "minor_distribution", "voltage": "20000"}}, {"type": "node", "id": 11084273504, "lat": 47.1156601, "lon": 15.4447349, "tags": {"name": "Pfangberg S\u00fcd", "operator": "E-Werk Franz", "power": "substation", "ref": "Ust 866", "substation": "minor_distribution", "voltage": "20000"}}, {"type": "node", "id": 11101831319, "lat": 47.0839688, "lon": 15.4087757, "tags": {"name": "Hauptbahnhof Plabutscherstrasse 16", "operator": "Energie Steiermark", "operator:wikidata": "Q1341214", "power": "substation", "ref": "E 332027", "substation": "minor_distribution", "voltage": "20000"}}, {"type": "node", "id": 11164092762, "lat": 47.0336948, "lon": 15.4852455, "tags": {"name": "Messendorf Prinzhoferweg", "operator": "Energie Steiermark", "operator:wikidata": "Q1341214", "power": "substation", "substation": "minor_distribution", "voltage": "20000"}}, {"type": "node", "id": 11203773825, "lat": 47.038366, "lon": 15.4978938, "tags": {"name": "Messendorfberg", "operator": "Energie Steiermark", "operator:wikidata": "Q1341214", "power": "substation", "ref": "E 327016", "substation": "minor_distribution", "voltage": "20000"}}, {"type": "node", "id": 11369601309, "lat": 47.0834363, "lon": 15.4109135, "tags": {"name": "Plabutscherstrasse", "operator": "Energie Steiermark", "operator:wikidata": "Q1341214", "power": "substation", "ref": "E 332016", "substation": "minor_distribution", "voltage": "20000"}}, {"type": "node", "id": 11447884127, "lat": 47.0555229, "lon": 15.4417801, "tags": {"operator": "Energie Steiermark", "operator:wikidata": "Q1341214", "power": "substation", "substation": "minor_distribution", "voltage": "20000"}}, {"type": "node", "id": 11561548953, "lat": 47.0828663, "lon": 15.4166604, "tags": {"covered": "yes", "name": "Umspannanlage Wiener Stra\u00dfe 125", "operator": "Energie Graz", "operator:wikidata": "Q1341216", "power": "substation", "substation": "minor_distribution", "voltage": "20000;10000"}}, {"type": "node", "id": 11591869362, "lat": 47.0540157, "lon": 15.4681628, "tags": {"man_made": "street_cabinet", "name": "St.Peter / Nussbaumerstra\u00dfe 37", "operator": "Energie Steiermark", "operator:wikidata": "Q1341214", "power": "substation", "ref": "E 325045", "substation": "minor_distribution", "voltage": "20000"}}, {"type": "node", "id": 11832707901, "lat": 47.077476, "lon": 15.4119731, "tags": {"operator": "Energie Graz", "operator:wikidata": "Q1341216", "power": "substation", "substation": "minor_distribution", "voltage": "20000"}}, {"type": "node", "id": 11832707902, "lat": 47.0774431, "lon": 15.4119933, "tags": {"converter": "yes", "frequency": "50;0", "name": "Unterwerk Dreiersch\u00fctzengasse", "operator": "Energie Graz", "operator:wikidata": "Q1341216", "power": "substation", "substation": "minor_distribution", "voltage": "20000;600"}}, {"type": "node", "id": 11863140205, "lat": 47.0564652, "lon": 15.4085286, "tags": {"power": "substation", "substation": "minor_distribution", "voltage": "20000"}}, {"type": "node", "id": 12018640178, "lat": 47.1044799, "lon": 15.4590823, "tags": {"name": "Unterer Plattenweg 68", "operator": "Energie Steiermark", "operator:wikidata": "Q1341214", "power": "substation", "ref": "E 334026", "substation": "minor_distribution", "voltage": "20000"}}, {"type": "node", "id": 12054085074, "lat": 47.0697028, "lon": 15.4546902, "tags": {"converter": "yes", "frequency": "50;0", "name": "Unterwerk Herz-Jesu-Kirche", "operator": "Energie Graz", "operator:wikidata": "Q1341216", "power": "substation", "substation": "traction", "voltage": "20000;600"}}, {"type": "node", "id": 12065183771, "lat": 47.0369126, "lon": 15.4846207, "tags": {"man_made": "street_cabinet", "name": "Messendorf St. Peter G\u00fcrtel 9", "operator": "Energie Steiermark", "operator:wikidata": "Q1341214", "power": "substation", "ref": "E 327047", "substation": "minor_distribution", "voltage": "20000"}}, {"type": "node", "id": 12065183772, "lat": 47.0399625, "lon": 15.4882118, "tags": {"man_made": "street_cabinet", "name": "Koeglerweg", "operator": "Energie Steiermark", "operator:wikidata": "Q1341214", "power": "substation", "ref": "E 327031", "substation": "minor_distribution", "voltage": "20000"}}, {"type": "node", "id": 12066232533, "lat": 47.0334132, "lon": 15.3975805, "tags": {"man_made": "street_cabinet", "name": "Stra\u00dfgang Mela Spira Stra\u00dfe 20", "operator": "Energie Steiermark", "operator:wikidata": "Q1341214", "power": "substation", "ref": "E 314041", "substation": "minor_distribution", "voltage": "20000"}}, {"type": "node", "id": 12072420487, "lat": 47.1049462, "lon": 15.5125041, "tags": {"location": "indoor", "man_made": "street_cabinet", "name": "Schaftal II", "operator": "Energie Steiermark", "operator:wikidata": "Q1341214", "power": "substation", "ref": "E 321003", "source": "bing", "substation": "minor_distribution", "voltage": "20000"}}, {"type": "node", "id": 12130877977, "lat": 47.276524, "lon": 15.3269979, "tags": {"power": "substation"}}, {"type": "node", "id": 12133862128, "lat": 47.0297222, "lon": 15.4522595, "tags": {"man_made": "street_cabinet", "power": "substation", "substation": "minor_distribution", "voltage": "20000"}}, {"type": "node", "id": 12168691626, "lat": 47.0419752, "lon": 15.4831664, "tags": {"man_made": "street_cabinet", "name": "Messendorf Styriastrasse 18", "operator": "Energie Steiermark", "operator:wikidata": "Q1341214", "power": "substation", "ref": "E 327046", "substation": "minor_distribution", "voltage": "20000"}}, {"type": "node", "id": 12168691627, "lat": 47.0422358, "lon": 15.4842469, "tags": {"man_made": "street_cabinet", "name": "Messendorf Styriastrasse 15", "operator": "Energie Steiermark", "operator:wikidata": "Q1341214", "power": "substation", "ref": "E 327036", "substation": "minor_distribution", "voltage": "20000"}}, {"type": "node", "id": 12168691628, "lat": 47.0422755, "lon": 15.4843312, "tags": {"man_made": "street_cabinet", "name": "Trst. Messendorf Styriastrasse 18 Station 2", "operator": "Energie Steiermark", "operator:wikidata": "Q1341214", "power": "substation", "ref": "E 327039", "substation": "minor_distribution", "voltage": "20000"}}, {"type": "node", "id": 12181054637, "lat": 47.0344987, "lon": 15.4153378, "tags": {"name": "Weblingerg\u00fcrtel 25 Station 2", "operator": "Energie Steiermark", "operator:wikidata": "Q1341214", "power": "substation", "ref": "E 313077", "substation": "minor_distribution", "voltage": "20000"}}, {"type": "node", "id": 12197499281, "lat": 47.042583, "lon": 15.4845765, "tags": {"man_made": "street_cabinet", "name": "Messendorf Styriastrasse", "operator": "Energie Steiermark", "operator:wikidata": "Q1341214", "power": "substation", "ref": "E 327030", "substation": "minor_distribution", "voltage": "20000"}}, {"type": "node", "id": 12206848345, "lat": 47.0402272, "lon": 15.4792729, "tags": {"man_made": "street_cabinet", "name": "Styriastra\u00dfe 28", "operator": "Energie Steiermark", "operator:wikidata": "Q1341214", "power": "substation", "ref": "E 327041", "substation": "minor_distribution", "voltage": "20000"}}, {"type": "node", "id": 12249302028, "lat": 47.0929675, "lon": 15.4110613, "tags": {"man_made": "street_cabinet", "operator": "EW G\u00f6sting", "power": "substation", "substation": "minor_distribution", "utility": "power", "voltage": "20000"}}, {"type": "node", "id": 12250719821, "lat": 47.1018254, "lon": 15.5120052, "tags": {"power": "substation", "substation": "minor_distribution", "voltage": "20000"}}, {"type": "node", "id": 12288982631, "lat": 47.0588306, "lon": 15.4709213, "tags": {"man_made": "street_cabinet", "name": "St. Peter Hauptstra\u00dfe 27", "operator": "Energie Steiermark", "operator:wikidata": "Q1341214", "power": "substation", "ref": "E 325042", "source": "survey", "substation": "minor_distribution", "voltage": "20000"}}, {"type": "node", "id": 12291343095, "lat": 47.2517588, "lon": 15.8019057, "tags": {"name": "Zeil-Stubenberg II", "operator": "Feistritzwerke", "power": "substation", "ref": "237"}}, {"type": "node", "id": 12324341981, "lat": 47.0305328, "lon": 15.430778, "tags": {"covered": "yes", "name": "Puntigam Alte Poststrasse 470", "operator": "Energie Steiermark", "operator:wikidata": "Q1341214", "power": "substation", "ref": "E 313046", "substation": "minor_distribution", "voltage": "20000"}}, {"type": "node", "id": 12463395382, "lat": 47.0518616, "lon": 15.4703319, "tags": {"man_made": "street_cabinet", "name": "Petrifelderstrasse 25", "operator": "Energie Steiermark", "operator:wikidata": "Q1341214", "power": "substation", "ref": "E 325046", "substation": "minor_distribution", "voltage": "20000"}}, {"type": "node", "id": 12579541613, "lat": 47.0323309, "lon": 15.4056767, "tags": {"man_made": "street_cabinet", "name": "Anton-Paar-Stra\u00dfe II", "operator": "Energie Steiermark", "operator:wikidata": "Q1341214", "power": "substation", "substation": "distribution", "voltage": "20000"}}, {"type": "node", "id": 12579541614, "lat": 47.0321547, "lon": 15.4055952, "tags": {"man_made": "street_cabinet", "name": "Anton-Paar-Stra\u00dfe I", "operator": "Energie Steiermark", "operator:wikidata": "Q1341214", "power": "substation", "substation": "distribution", "voltage": "20000"}}, {"type": "node", "id": 12591724753, "lat": 47.0434921, "lon": 15.488407, "tags": {"man_made": "street_cabinet", "name": "Messendorf / St.Peter Hauptstra\u00dfe 239", "operator": "Energie Steiermark", "operator:wikidata": "Q1341214", "power": "substation", "ref": "E 327033", "substation": "minor_distribution", "voltage": "20000"}}, {"type": "node", "id": 12597088490, "lat": 47.0687966, "lon": 15.4147437, "tags": {"man_made": "street_cabinet", "name": "GKB K\u00f6flacher Gasse 35", "operator": "Energie Steiermark", "operator:wikidata": "Q1341214", "power": "substation", "ref": "E 332035", "substation": "minor_distribution", "voltage": "20000"}}, {"type": "node", "id": 12626667591, "lat": 47.0667422, "lon": 15.4114179, "tags": {"man_made": "street_cabinet", "operator": "Energie Steiermark", "operator:wikidata": "Q1341214", "power": "substation", "substation": "minor_distribution", "voltage": "20000"}}, {"type": "node", "id": 12631692132, "lat": 47.0777856, "lon": 15.4779953, "tags": {"man_made": "street_cabinet", "name": "Ragnitz Tenniscenter-Siedlung", "operator": "Energie Steiermark", "operator:wikidata": "Q1341214", "power": "substation", "ref": "E 322030", "substation": "minor_distribution", "voltage": "20000"}}, {"type": "node", "id": 12645832947, "lat": 47.0262948, "lon": 15.4340447, "tags": {"man_made": "street_cabinet", "name": "Triesterstra\u00dfe 388", "operator": "Energie Steiermark", "operator:wikidata": "Q1341214", "power": "substation", "substation": "minor_distribution", "voltage": "20000"}}, {"type": "node", "id": 12656251968, "lat": 47.1032852, "lon": 15.4213907, "tags": {"converter": "yes", "frequency": "50;0", "name": "Unterwerk Andritz", "operator": "Energie Graz", "operator:wikidata": "Q1341216", "power": "substation", "substation": "traction", "voltage": "20000;600"}}, {"type": "node", "id": 12682498283, "lat": 47.1083259, "lon": 15.4506562, "tags": {"man_made": "street_cabinet", "name": "Pfeifferhof", "operator": "E-Werk G\u00f6sting V. Franz", "power": "substation", "substation": "minor_distribution", "utility": "power", "voltage": "20000"}}, {"type": "node", "id": 12700712899, "lat": 47.0542547, "lon": 15.4179287, "tags": {"man_made": "street_cabinet", "power": "substation", "substation": "minor_distribution", "utility": "power", "voltage": "20000"}}, {"type": "node", "id": 12740367452, "lat": 47.0352807, "lon": 15.4458352, "tags": {"colour": "green", "man_made": "street_cabinet", "name": "Lagergasse 380", "operator": "Energie Steiermark", "operator:wikidata": "Q1341214", "power": "substation", "substation": "minor_distribution", "utility": "power", "voltage": "20000"}}, {"type": "node", "id": 12766978303, "lat": 47.0721477, "lon": 15.409615, "tags": {"man_made": "street_cabinet", "power": "substation", "substation": "minor_distribution", "utility": "power", "voltage": "20000"}}, {"type": "node", "id": 12901393018, "lat": 47.2874353, "lon": 14.8783154, "tags": {"power": "substation"}}, {"type": "node", "id": 12901393019, "lat": 47.2864077, "lon": 14.8801307, "tags": {"power": "substation"}}, {"type": "node", "id": 12967764558, "lat": 47.1057231, "lon": 15.5061621, "tags": {"man_made": "street_cabinet", "name": "Eckmichlstrasse", "operator": "Energie Steiermark", "operator:wikidata": "Q1341214", "power": "substation", "ref": "E 321003", "substation": "minor_distribution", "voltage": "20000"}}, {"type": "node", "id": 12986666690, "lat": 47.0185809, "lon": 15.4713318, "tags": {"man_made": "street_cabinet", "name": "Liebenauer Hauptstrasse 320", "operator": "Energie Steiermark", "operator:wikidata": "Q1341214", "power": "substation", "ref": "E 312027", "substation": "minor_distribution", "voltage": "20000"}}, {"type": "node", "id": 12986666691, "lat": 47.0187341, "lon": 15.4692072, "tags": {"man_made": "street_cabinet", "name": "Liebenauer Hauptstrasse 316", "operator": "Energie Steiermark", "operator:wikidata": "Q1341214", "power": "substation", "ref": "E 312029", "substation": "minor_distribution", "voltage": "20000"}}, {"type": "node", "id": 12986666692, "lat": 47.0177712, "lon": 15.469714, "tags": {"man_made": "street_cabinet", "name": "Liebenauer Hauptstrasse 318", "operator": "Energie Steiermark", "operator:wikidata": "Q1341214", "power": "substation", "ref": "E 312026", "substation": "minor_distribution", "voltage": "20000"}}, {"type": "node", "id": 12986753508, "lat": 47.0173623, "lon": 15.4689167, "tags": {"man_made": "street_cabinet", "name": "Liebenauer Hauptstrasse 320G", "operator": "Energie Steiermark", "operator:wikidata": "Q1341214", "power": "substation", "ref": "E 312032", "substation": "minor_distribution", "voltage": "20000"}}, {"type": "node", "id": 13025581283, "lat": 47.0422419, "lon": 15.4714397, "tags": {"man_made": "street_cabinet", "name": "Stern\u00e4ckerweg 48", "operator": "Energie Steiermark", "operator:wikidata": "Q1341214", "power": "substation", "ref": "E 327042", "substation": "minor_distribution", "utility": "power", "voltage": "20000"}}, {"type": "node", "id": 13174749465, "lat": 47.0155788, "lon": 15.4374045, "tags": {"power": "substation"}}, {"type": "node", "id": 13248636888, "lat": 47.0082898, "lon": 15.4794779, "tags": {"power": "substation", "substation": "minor_distribution", "utility": "power"}}, {"type": "way", "id": 41970883, "bounds": {"minlat": 47.018335, "minlon": 15.1585566, "maxlat": 47.0187822, "maxlon": 15.1593316}, "nodes": [520169822, 6256812920, 520169825, 1119700361, 520172283, 520172281, 520169822], "geometry": [{"lat": 47.0187822, "lon": 15.1587194}, {"lat": 47.0185501, "lon": 15.1585865}, {"lat": 47.0184978, "lon": 15.1585566}, {"lat": 47.018335, "lon": 15.1591689}, {"lat": 47.0184507, "lon": 15.1592351}, {"lat": 47.0186195, "lon": 15.1593316}, {"lat": 47.0187822, "lon": 15.1587194}], "tags": {"name": "Umspannwerk Arnstein", "operator": "Energienetze Steiermark", "power": "substation", "substation": "transmission", "voltage": "110000"}}, {"type": "way", "id": 69420394, "bounds": {"minlat": 47.0594097, "minlon": 15.4542784, "maxlat": 47.0594811, "maxlon": 15.4543831}, "nodes": [831494422, 854900265, 831494478, 831494444, 831494283, 831494422], "geometry": [{"lat": 47.0594811, "lon": 15.4543498}, {"lat": 47.0594485, "lon": 15.4543726}, {"lat": 47.059433, "lon": 15.4543831}, {"lat": 47.0594097, "lon": 15.4543122}, {"lat": 47.0594579, "lon": 15.4542784}, {"lat": 47.0594811, "lon": 15.4543498}], "tags": {"building": "yes", "power": "substation", "source": "survey"}}, {"type": "way", "id": 69813236, "bounds": {"minlat": 46.9948259, "minlon": 15.4779795, "maxlat": 46.9948528, "maxlon": 15.478019}, "nodes": [834760559, 834760611, 834760779, 834760572, 834760559], "geometry": [{"lat": 46.9948528, "lon": 15.478019}, {"lat": 46.9948259, "lon": 15.478019}, {"lat": 46.9948259, "lon": 15.4779795}, {"lat": 46.9948528, "lon": 15.4779795}, {"lat": 46.9948528, "lon": 15.478019}], "tags": {"building": "yes", "power": "substation", "source": "survey"}}, {"type": "way", "id": 75639416, "bounds": {"minlat": 47.0606543, "minlon": 15.4858827, "maxlat": 47.060717, "maxlon": 15.4859769}, "nodes": [892962961, 892962962, 892962963, 892962965, 892962961], "geometry": [{"lat": 47.060717, "lon": 15.4859192}, {"lat": 47.0606853, "lon": 15.4858827}, {"lat": 47.0606543, "lon": 15.4859426}, {"lat": 47.0606874, "lon": 15.4859769}, {"lat": 47.060717, "lon": 15.4859192}], "tags": {"building": "service", "name": "Peierlhang", "power": "substation", "ref": "E 325009", "source": "survey", "substation": "minor_distribution", "voltage": "20000"}}, {"type": "way", "id": 79122729, "bounds": {"minlat": 47.2063127, "minlon": 15.6303444, "maxlat": 47.2074282, "maxlon": 15.631999}, "nodes": [924489958, 11116334470, 924489948, 1153602711, 1153602666, 11116334463, 11116334458, 1153602673, 1153602678, 1153602608, 1153602643, 1153602639, 1153602698, 924489950, 924489957, 924489958], "geometry": [{"lat": 47.20702, "lon": 15.631999}, {"lat": 47.2074051, "lon": 15.6314856}, {"lat": 47.2074282, "lon": 15.6314549}, {"lat": 47.2073761, "lon": 15.6313702}, {"lat": 47.2074106, "lon": 15.6313242}, {"lat": 47.2073812, "lon": 15.6312764}, {"lat": 47.2072901, "lon": 15.6311283}, {"lat": 47.2071966, "lon": 15.6309764}, {"lat": 47.2071518, "lon": 15.6310362}, {"lat": 47.2070355, "lon": 15.6308472}, {"lat": 47.2070733, "lon": 15.6307969}, {"lat": 47.2070013, "lon": 15.6306799}, {"lat": 47.2069734, "lon": 15.6307172}, {"lat": 47.2067441, "lon": 15.6303444}, {"lat": 47.2063127, "lon": 15.6308394}, {"lat": 47.20702, "lon": 15.631999}], "tags": {"name": "Umspannwerk Weiz", "operator": "Energie Steiermark", "operator:wikidata": "Q1341214", "power": "substation", "substation": "transmission", "voltage": "110000"}}, {"type": "way", "id": 81611149, "bounds": {"minlat": 47.4227671, "minlon": 15.2730988, "maxlat": 47.4239591, "maxlon": 15.2750124}, "nodes": [951261158, 951261160, 4880260764, 951261162, 951261165, 951261169, 951261172, 951261175, 1124907054, 951261177, 1124907110, 951261158], "geometry": [{"lat": 47.4231185, "lon": 15.2730988}, {"lat": 47.4227671, "lon": 15.2732925}, {"lat": 47.4231312, "lon": 15.2747355}, {"lat": 47.4232011, "lon": 15.2750124}, {"lat": 47.4235063, "lon": 15.2748442}, {"lat": 47.4234037, "lon": 15.2744377}, {"lat": 47.4239591, "lon": 15.2741315}, {"lat": 47.4237943, "lon": 15.2734785}, {"lat": 47.4235965, "lon": 15.2735875}, {"lat": 47.4235379, "lon": 15.2733551}, {"lat": 47.4232265, "lon": 15.2735267}, {"lat": 47.4231185, "lon": 15.2730988}], "tags": {"frequency": "50", "location": "outdoor", "name": "Umspannwerk Bruck an der Mur", "operator": "Energie Steiermark", "operator:wikidata": "Q1341214", "power": "substation", "substation": "transmission", "voltage": "110000"}}, {"type": "way", "id": 81611545, "bounds": {"minlat": 47.4281845, "minlon": 15.2738255, "maxlat": 47.4290457, "maxlon": 15.2742992}, "nodes": [951284158, 1124862753, 951284152, 11662828939, 951284156, 951284159, 951284158], "geometry": [{"lat": 47.4290441, "lon": 15.2738255}, {"lat": 47.428497, "lon": 15.2738296}, {"lat": 47.4281845, "lon": 15.2740256}, {"lat": 47.4281848, "lon": 15.2741023}, {"lat": 47.4281854, "lon": 15.2742992}, {"lat": 47.4290457, "lon": 15.2742927}, {"lat": 47.4290441, "lon": 15.2738255}], "tags": {"frequency": "16.7", "landuse": "industrial", "location": "outdoor", "name": "Unterwerk Bruck/Mur", "operator": "\u00d6BB-Infrastruktur AG", "operator:short": "\u00d6BB Infra", "operator:wikidata": "Q56425426", "operator:wikipedia": "de:\u00d6BB Infra", "power": "substation", "ref": "Bm", "substation": "traction", "voltage": "110000;15000"}}, {"type": "way", "id": 82642278, "bounds": {"minlat": 47.3594277, "minlon": 15.0967103, "maxlat": 47.3595413, "maxlon": 15.0968285}, "nodes": [961834083, 1061825974, 961834129, 961833857, 961833965, 961834083], "geometry": [{"lat": 47.3594285, "lon": 15.0967103}, {"lat": 47.359428, "lon": 15.0967817}, {"lat": 47.3594277, "lon": 15.0968268}, {"lat": 47.3595405, "lon": 15.0968285}, {"lat": 47.3595413, "lon": 15.096712}, {"lat": 47.3594285, "lon": 15.0967103}], "tags": {"power": "substation", "source": "geoimage.at"}}, {"type": "way", "id": 82738472, "bounds": {"minlat": 47.3592292, "minlon": 15.0975475, "maxlat": 47.3592838, "maxlon": 15.0976316}, "nodes": [963242188, 963242400, 963242255, 963242168, 963242188], "geometry": [{"lat": 47.3592292, "lon": 15.0975775}, {"lat": 47.3592565, "lon": 15.0976316}, {"lat": 47.3592838, "lon": 15.0976016}, {"lat": 47.3592565, "lon": 15.0975475}, {"lat": 47.3592292, "lon": 15.0975775}], "tags": {"power": "substation", "source": "survey"}}, {"type": "way", "id": 83043525, "bounds": {"minlat": 47.0615133, "minlon": 15.45417, "maxlat": 47.0616078, "maxlon": 15.4542877}, "nodes": [966133103, 966133047, 966132989, 966133121, 966133103], "geometry": [{"lat": 47.0616078, "lon": 15.4542276}, {"lat": 47.0615379, "lon": 15.4542877}, {"lat": 47.0615133, "lon": 15.4542321}, {"lat": 47.061587, "lon": 15.45417}, {"lat": 47.0616078, "lon": 15.4542276}], "tags": {"building": "yes", "building:levels": "1", "height": "3", "power": "substation", "roof:height": "1", "roof:shape": "hipped", "source": "geoimage.at"}}, {"type": "way", "id": 83276821, "bounds": {"minlat": 47.0767718, "minlon": 15.4338259, "maxlat": 47.0772198, "maxlon": 15.4344344}, "nodes": [968912862, 1050267725, 7623280609, 7623280622, 1050267391, 1050266966, 1050267135, 968912886, 1050267542, 1050267098, 1050267275, 1050267806, 968913015, 8787342416, 8787358217, 7623280599, 1171896246, 7623280633, 7623280604, 7623280600, 7623280598, 7623280601, 7623280602, 7623280603, 968913129, 7623280597, 7623280596, 968912946, 7623280621, 2123645911, 7623271879, 12862660527, 1050267470, 1050267601, 968913115, 7623280614, 7623280613, 7623280615, 968912862], "geometry": [{"lat": 47.0767923, "lon": 15.4340098}, {"lat": 47.0768115, "lon": 15.4340911}, {"lat": 47.0768016, "lon": 15.4340959}, {"lat": 47.0767909, "lon": 15.4341016}, {"lat": 47.0767718, "lon": 15.4341118}, {"lat": 47.0768272, "lon": 15.4342128}, {"lat": 47.0768479, "lon": 15.4342014}, {"lat": 47.0768686, "lon": 15.4342878}, {"lat": 47.0769041, "lon": 15.4342725}, {"lat": 47.0769088, "lon": 15.4342861}, {"lat": 47.0769509, "lon": 15.4342656}, {"lat": 47.0769694, "lon": 15.43434}, {"lat": 47.0769954, "lon": 15.4343527}, {"lat": 47.0770103, "lon": 15.4343439}, {"lat": 47.077023, "lon": 15.4343365}, {"lat": 47.0770471, "lon": 15.4343223}, {"lat": 47.0770263, "lon": 15.4344302}, {"lat": 47.0770467, "lon": 15.4344331}, {"lat": 47.0770583, "lon": 15.4344344}, {"lat": 47.0770628, "lon": 15.4343463}, {"lat": 47.0770616, "lon": 15.4343138}, {"lat": 47.077054, "lon": 15.4342607}, {"lat": 47.0770637, "lon": 15.4342549}, {"lat": 47.0770706, "lon": 15.4342985}, {"lat": 47.0771677, "lon": 15.4342513}, {"lat": 47.0771662, "lon": 15.4341856}, {"lat": 47.077153, "lon": 15.4341929}, {"lat": 47.0771411, "lon": 15.4341476}, {"lat": 47.0772034, "lon": 15.4341184}, {"lat": 47.0772193, "lon": 15.434111}, {"lat": 47.0772198, "lon": 15.4340349}, {"lat": 47.0772154, "lon": 15.4339915}, {"lat": 47.0772055, "lon": 15.4338941}, {"lat": 47.0771779, "lon": 15.4339095}, {"lat": 47.0771569, "lon": 15.4338259}, {"lat": 47.0769476, "lon": 15.4339303}, {"lat": 47.076914, "lon": 15.4339316}, {"lat": 47.0768849, "lon": 15.433962}, {"lat": 47.0767923, "lon": 15.4340098}], "tags": {"addr:city": "Graz", "addr:country": "AT", "addr:housenumber": "72", "addr:postcode": "8010", "addr:street": "Kaiser-Franz-Josef-Kai", "building": "service", "layer": "-1", "location": "indoor", "name": "Umspannwerk Keplerbr\u00fccke", "operator": "Stromnetz Graz", "power": "substation", "roof:colour": "grey", "source": "data.graz.gv.at", "start_date": "1933", "substation": "distribution", "voltage": "110000"}}, {"type": "way", "id": 83626823, "bounds": {"minlat": 47.0806206, "minlon": 15.4603761, "maxlat": 47.080751, "maxlon": 15.4604772}, "nodes": [973797449, 1642974378, 973797437, 973797451, 973797441, 1642974381, 973797449], "geometry": [{"lat": 47.080661, "lon": 15.4604371}, {"lat": 47.0806212, "lon": 15.460438}, {"lat": 47.0806206, "lon": 15.4603788}, {"lat": 47.08075, "lon": 15.4603761}, {"lat": 47.080751, "lon": 15.4604753}, {"lat": 47.0806614, "lon": 15.4604772}, {"lat": 47.080661, "lon": 15.4604371}], "tags": {"building": "service", "power": "substation"}}, {"type": "way", "id": 83740188, "bounds": {"minlat": 46.7994386, "minlon": 15.5579402, "maxlat": 46.8005263, "maxlon": 15.5610093}, "nodes": [975313975, 975313670, 975313848, 1651346382, 1314912618, 1651346384, 1937097961, 1651346381, 1651346380, 975313571, 1651346383, 3502987421, 3502987371, 1651353459, 3502987355, 1651346385, 975313975], "geometry": [{"lat": 46.7999634, "lon": 15.5583449}, {"lat": 46.8005263, "lon": 15.5599372}, {"lat": 46.8003574, "lon": 15.5610093}, {"lat": 46.7995326, "lon": 15.5586763}, {"lat": 46.7995576, "lon": 15.5586569}, {"lat": 46.7996832, "lon": 15.5585542}, {"lat": 46.7995817, "lon": 15.5582673}, {"lat": 46.7995503, "lon": 15.5581788}, {"lat": 46.7995029, "lon": 15.5582147}, {"lat": 46.7994386, "lon": 15.5580333}, {"lat": 46.7995618, "lon": 15.5579402}, {"lat": 46.7995824, "lon": 15.5579985}, {"lat": 46.7996305, "lon": 15.5581344}, {"lat": 46.7996445, "lon": 15.5581736}, {"lat": 46.7996682, "lon": 15.5582406}, {"lat": 46.799759, "lon": 15.558497}, {"lat": 46.7999634, "lon": 15.5583449}], "tags": {"addr:housenumber": "90", "addr:street": "Reichsstra\u00dfe", "name": "Umspannwerk Leibnitz", "operator": "Energie Steiermark", "operator:wikidata": "Q1341214", "power": "substation", "substation": "transmission", "voltage": "110000"}}, {"type": "way", "id": 83740194, "bounds": {"minlat": 46.9018903, "minlon": 15.420357, "maxlat": 46.9053716, "maxlon": 15.4257845}, "nodes": [7707862755, 7707862752, 1193963369, 1193963374, 2582376091, 2552932336, 975313299, 1193963367, 1193963407, 975314226, 975313353, 2571923752, 7707862755], "geometry": [{"lat": 46.9035559, "lon": 15.420357}, {"lat": 46.9046848, "lon": 15.4212829}, {"lat": 46.9046886, "lon": 15.4213439}, {"lat": 46.904659, "lon": 15.4214299}, {"lat": 46.9046988, "lon": 15.4214602}, {"lat": 46.904949, "lon": 15.421653}, {"lat": 46.9053716, "lon": 15.4220085}, {"lat": 46.9040429, "lon": 15.4254117}, {"lat": 46.9035713, "lon": 15.4250262}, {"lat": 46.903295, "lon": 15.4257845}, {"lat": 46.9018903, "lon": 15.4246233}, {"lat": 46.9019074, "lon": 15.4245794}, {"lat": 46.9035559, "lon": 15.420357}], "tags": {"barrier": "fence", "frequency": "50", "landuse": "industrial", "location": "outdoor", "name": "Umspannwerk Kainachtal/Zwaring", "operator": "Verbund Austrian Power Grid AG;STEWEAG-STEG", "power": "substation", "substation": "transmission", "voltage": "380000;110000"}}, {"type": "way", "id": 83742775, "bounds": {"minlat": 46.9077486, "minlon": 15.4819144, "maxlat": 46.910262, "maxlon": 15.4859364}, "nodes": [975358171, 1787483144, 11126102022, 1198035540, 975358461, 12177464675, 7414714964, 7414714965, 975357713, 975358610, 1194014130, 1194014032, 1194014081, 1787483127, 975358171], "geometry": [{"lat": 46.9094926, "lon": 15.4823389}, {"lat": 46.9096243, "lon": 15.4825405}, {"lat": 46.9097133, "lon": 15.4827485}, {"lat": 46.9099109, "lon": 15.4832101}, {"lat": 46.910262, "lon": 15.484167}, {"lat": 46.9091691, "lon": 15.4850603}, {"lat": 46.9088711, "lon": 15.4853038}, {"lat": 46.9088123, "lon": 15.4853519}, {"lat": 46.9080971, "lon": 15.4859364}, {"lat": 46.9077486, "lon": 15.4850086}, {"lat": 46.9093469, "lon": 15.4837383}, {"lat": 46.9086988, "lon": 15.4819144}, {"lat": 46.9090825, "lon": 15.4819576}, {"lat": 46.9092564, "lon": 15.4820696}, {"lat": 46.9094926, "lon": 15.4823389}], "tags": {"name": "Umspannwerk Neudorf/Werndorf", "operator": "Energie Steiermark", "operator:wikidata": "Q1341214", "power": "substation", "substation": "transmission", "voltage": "110000"}}, {"type": "way", "id": 83742801, "bounds": {"minlat": 47.0897603, "minlon": 15.724461, "maxlat": 47.0920475, "maxlon": 15.7271138}, "nodes": [975357642, 975358073, 975357209, 975358334, 975357468, 9596752843, 1096355828, 975357642], "geometry": [{"lat": 47.0911647, "lon": 15.724461}, {"lat": 47.0920475, "lon": 15.7252913}, {"lat": 47.0920029, "lon": 15.7258154}, {"lat": 47.0913537, "lon": 15.7271138}, {"lat": 47.0900126, "lon": 15.7257744}, {"lat": 47.0901852, "lon": 15.7254201}, {"lat": 47.0897603, "lon": 15.7250088}, {"lat": 47.0911647, "lon": 15.724461}], "tags": {"frequency": "50", "landuse": "industrial", "location": "outdoor", "name": "Umspannwerk Oststeiermark/W\u00fcnschendorf", "operator": "Verbund Austrian Power Grid AG;STEWEAG-STEG", "power": "substation", "substation": "transmission", "voltage": "380000;110000"}}, {"type": "way", "id": 84293384, "bounds": {"minlat": 47.3791313, "minlon": 15.0874431, "maxlat": 47.379293, "maxlon": 15.0876117}, "nodes": [980268627, 980268644, 980268646, 1416660339, 980268625, 1416660340, 980268627], "geometry": [{"lat": 47.379293, "lon": 15.0874471}, {"lat": 47.3791332, "lon": 15.0874431}, {"lat": 47.3791313, "lon": 15.0876091}, {"lat": 47.3792352, "lon": 15.0876117}, {"lat": 47.3792361, "lon": 15.0875398}, {"lat": 47.379292, "lon": 15.0875412}, {"lat": 47.379293, "lon": 15.0874471}], "tags": {"building": "yes", "name": "KUW Waasen", "power": "substation"}}, {"type": "way", "id": 85220585, "bounds": {"minlat": 47.0691535, "minlon": 15.4355511, "maxlat": 47.0693678, "maxlon": 15.4356482}, "nodes": [988264062, 1187195940, 988263890, 988263459, 1187195549, 988263079, 988264062], "geometry": [{"lat": 47.0693677, "lon": 15.4355595}, {"lat": 47.0693678, "lon": 15.4355762}, {"lat": 47.069366, "lon": 15.4356482}, {"lat": 47.0691535, "lon": 15.4356398}, {"lat": 47.0691543, "lon": 15.435593}, {"lat": 47.0691551, "lon": 15.4355511}, {"lat": 47.0693677, "lon": 15.4355595}], "tags": {"addr:city": "Graz", "addr:country": "AT", "addr:housenumber": "1", "addr:postcode": "8010", "addr:street": "Andreas-Hofer-Platz", "building": "yes", "building:levels": "3", "converter": "yes", "frequency": "50;0", "name": "Unterwerk Andreas-Hofer-Platz", "power": "substation", "source": "survey", "substation": "traction", "voltage": "20000;600"}}, {"type": "way", "id": 85424133, "bounds": {"minlat": 47.0762629, "minlon": 15.4605911, "maxlat": 47.0765525, "maxlon": 15.460859}, "nodes": [990297352, 990297818, 990297549, 990297292, 990297352], "geometry": [{"lat": 47.0765525, "lon": 15.460706}, {"lat": 47.0762947, "lon": 15.460859}, {"lat": 47.0762629, "lon": 15.4607442}, {"lat": 47.0765207, "lon": 15.4605911}, {"lat": 47.0765525, "lon": 15.460706}], "tags": {"addr:city": "Graz", "addr:country": "AT", "addr:housenumber": "115", "addr:postcode": "8010", "addr:street": "Leonhardstra\u00dfe", "building": "service", "converter": "yes", "frequency": "50;0", "name": "Unterwerk Reiterkaserne", "operator": "Energie Graz", "operator:wikidata": "Q1341216", "power": "substation", "source": "GeoImage.at", "substation": "traction", "voltage": "20000;600"}}, {"type": "way", "id": 85511135, "bounds": {"minlat": 47.0819156, "minlon": 15.4682246, "maxlat": 47.0819987, "maxlon": 15.4683817}, "nodes": [991630726, 991630182, 991630352, 991630099, 991630726], "geometry": [{"lat": 47.0819987, "lon": 15.4682537}, {"lat": 47.0819555, "lon": 15.4683817}, {"lat": 47.0819156, "lon": 15.4683527}, {"lat": 47.0819589, "lon": 15.4682246}, {"lat": 47.0819987, "lon": 15.4682537}], "tags": {"building": "service", "power": "substation", "source": "GeoImage.at", "substation": "minor_distribution", "voltage": "20000"}}, {"type": "way", "id": 87261866, "bounds": {"minlat": 47.0699653, "minlon": 15.4489669, "maxlat": 47.0700345, "maxlon": 15.4490745}, "nodes": [1014657668, 1014657790, 1014657888, 1014657960, 1014657668], "geometry": [{"lat": 47.0700345, "lon": 15.4490005}, {"lat": 47.0700066, "lon": 15.4490745}, {"lat": 47.0699653, "lon": 15.4490409}, {"lat": 47.0699932, "lon": 15.4489669}, {"lat": 47.0700345, "lon": 15.4490005}], "tags": {"building": "yes", "power": "substation"}}, {"type": "way", "id": 87702041, "bounds": {"minlat": 46.8177286, "minlon": 15.2257946, "maxlat": 46.8187198, "maxlon": 15.2274206}, "nodes": [1019879996, 1019879997, 1019879998, 1019879999, 1019880000, 1019880001, 1019880002, 7721088988, 1019880003, 9804940332, 1019880004, 1019880008, 1019879996], "geometry": [{"lat": 46.8185804, "lon": 15.2257946}, {"lat": 46.8187198, "lon": 15.2264934}, {"lat": 46.8186637, "lon": 15.2265139}, {"lat": 46.8186862, "lon": 15.2266079}, {"lat": 46.8183886, "lon": 15.2267592}, {"lat": 46.8178593, "lon": 15.2274206}, {"lat": 46.817754, "lon": 15.2271026}, {"lat": 46.8177286, "lon": 15.2267711}, {"lat": 46.8177363, "lon": 15.2264401}, {"lat": 46.8179376, "lon": 15.226325}, {"lat": 46.8183554, "lon": 15.2261946}, {"lat": 46.8183001, "lon": 15.2259369}, {"lat": 46.8185804, "lon": 15.2257946}], "tags": {"frequency": "50", "location": "outdoor", "name": "UW Deutschlandsberg", "operator": "Energie Steiermark", "operator:wikidata": "Q1341214", "operator:wikipedia": "de:Energie Steiermark", "power": "substation", "substation": "distribution", "voltage": "110000"}}, {"type": "way", "id": 87773473, "bounds": {"minlat": 47.065762, "minlon": 15.4388516, "maxlat": 47.0658576, "maxlon": 15.4389666}, "nodes": [1020512127, 1020511885, 1020512214, 1020511631, 1020512127], "geometry": [{"lat": 47.065762, "lon": 15.4389064}, {"lat": 47.0657825, "lon": 15.4389666}, {"lat": 47.0658576, "lon": 15.4389118}, {"lat": 47.0658371, "lon": 15.4388516}, {"lat": 47.065762, "lon": 15.4389064}], "tags": {"building": "yes", "power": "substation"}}, {"type": "way", "id": 88453482, "bounds": {"minlat": 47.0895321, "minlon": 15.4599613, "maxlat": 47.0895813, "maxlon": 15.4600909}, "nodes": [1027316017, 1027316143, 1027316259, 1027316076, 1027316017], "geometry": [{"lat": 47.0895602, "lon": 15.4599613}, {"lat": 47.0895813, "lon": 15.4600802}, {"lat": 47.0895532, "lon": 15.4600909}, {"lat": 47.0895321, "lon": 15.4599721}, {"lat": 47.0895602, "lon": 15.4599613}], "tags": {"building": "service", "converter": "yes", "frequency": "50;0", "name": "Unterwerk Mariagr\u00fcn", "operator": "Energie Graz", "power": "substation", "source": "Bing", "substation": "traction", "voltage": "20000;600"}}, {"type": "way", "id": 88453510, "bounds": {"minlat": 47.0905587, "minlon": 15.4625116, "maxlat": 47.090627, "maxlon": 15.4626111}, "nodes": [1027316193, 1027316240, 1027316127, 1027315980, 1027316193], "geometry": [{"lat": 47.090627, "lon": 15.4625544}, {"lat": 47.0905992, "lon": 15.4626111}, {"lat": 47.0905587, "lon": 15.4625683}, {"lat": 47.0905866, "lon": 15.4625116}, {"lat": 47.090627, "lon": 15.4625544}], "tags": {"building": "service", "name": "Dominikanergr\u00fcnde II", "operator": "Energie Steiermark", "operator:wikidata": "Q1341214", "operator:wikipedia": "de:Energie Steiermark", "power": "substation", "ref": "E 335010", "source": "Bing", "substation": "minor_distribution"}}, {"type": "way", "id": 88497363, "bounds": {"minlat": 47.0296945, "minlon": 15.4293, "maxlat": 47.0298879, "maxlon": 15.4295315}, "nodes": [1027914432, 1027914414, 1027914450, 1027914596, 1027914402, 1027914529, 1027914432], "geometry": [{"lat": 47.0298879, "lon": 15.4294394}, {"lat": 47.0297418, "lon": 15.4295315}, {"lat": 47.0296945, "lon": 15.42937}, {"lat": 47.0298054, "lon": 15.4293}, {"lat": 47.0298333, "lon": 15.4293951}, {"lat": 47.0298684, "lon": 15.4293729}, {"lat": 47.0298879, "lon": 15.4294394}], "tags": {"addr:city": "Graz", "addr:country": "AT", "addr:housenumber": "144", "addr:postcode": "8055", "addr:street": "Schwarzer Weg", "building": "yes", "name": "ESTW Puntigam", "operator": "\u00d6BB-Infrastruktur AG", "operator:short": "\u00d6BB Infra", "operator:wikidata": "Q56425426", "power": "substation", "railway": "signal_box", "railway:ref": "Pu", "railway:signal_box": "electronic", "source": "Bing"}}, {"type": "way", "id": 88680218, "bounds": {"minlat": 47.3955693, "minlon": 15.0186557, "maxlat": 47.3985289, "maxlon": 15.0232914}, "nodes": [1029570325, 1029570327, 1029570328, 1029570329, 1430547427, 1430547423, 4083632216, 1029570331, 1430547425, 1029570334, 9966650774, 1029570342, 9966650773, 1029570343, 4083632217, 1029570344, 1431082144, 1029570345, 1431082168, 1431082176, 1431082192, 1431082194, 9966650767, 9966650768, 1029570346, 1430547437, 1029570348, 1431082165, 4237510395, 9966650765, 9966650766, 1029570349, 1029570325], "geometry": [{"lat": 47.3979203, "lon": 15.0196109}, {"lat": 47.3974009, "lon": 15.0188149}, {"lat": 47.3970979, "lon": 15.0191915}, {"lat": 47.3967951, "lon": 15.0186557}, {"lat": 47.3962654, "lon": 15.0194149}, {"lat": 47.396052, "lon": 15.020041}, {"lat": 47.3957696, "lon": 15.0204385}, {"lat": 47.3955693, "lon": 15.0207012}, {"lat": 47.3961688, "lon": 15.0220664}, {"lat": 47.3962634, "lon": 15.0221744}, {"lat": 47.3963784, "lon": 15.0221622}, {"lat": 47.396489, "lon": 15.0220872}, {"lat": 47.3965798, "lon": 15.0222187}, {"lat": 47.3967311, "lon": 15.022438}, {"lat": 47.3969112, "lon": 15.0221597}, {"lat": 47.3972153, "lon": 15.0225391}, {"lat": 47.3975594, "lon": 15.022818}, {"lat": 47.3978127, "lon": 15.0230299}, {"lat": 47.3981195, "lon": 15.0232914}, {"lat": 47.3983038, "lon": 15.0230084}, {"lat": 47.3984972, "lon": 15.0230058}, {"lat": 47.3985289, "lon": 15.0228529}, {"lat": 47.3984354, "lon": 15.02259}, {"lat": 47.3983719, "lon": 15.0222789}, {"lat": 47.3982806, "lon": 15.0217037}, {"lat": 47.3981199, "lon": 15.0213275}, {"lat": 47.3983438, "lon": 15.0210866}, {"lat": 47.3980542, "lon": 15.0199695}, {"lat": 47.3980987, "lon": 15.019708}, {"lat": 47.3980705, "lon": 15.0196946}, {"lat": 47.3980887, "lon": 15.0195792}, {"lat": 47.3980698, "lon": 15.0195712}, {"lat": 47.3979203, "lon": 15.0196109}], "tags": {"name": "Umspannwerk Hessenberg", "operator": "Verbund Austrian Power Grid AG", "power": "substation", "substation": "transmission", "voltage": "220000;110000"}}, {"type": "way", "id": 89555133, "bounds": {"minlat": 46.7511598, "minlon": 15.2799456, "maxlat": 46.751803, "maxlon": 15.2817551}, "nodes": [1038147567, 1038147547, 1038147564, 1038147555, 2055197399, 1038147541, 1718029455, 1718029460, 2055197402, 2055197401, 1038147567], "geometry": [{"lat": 46.751803, "lon": 15.2805389}, {"lat": 46.7517841, "lon": 15.2812598}, {"lat": 46.7517514, "lon": 15.2817551}, {"lat": 46.7511598, "lon": 15.2814646}, {"lat": 46.7512258, "lon": 15.2809772}, {"lat": 46.7513517, "lon": 15.2804896}, {"lat": 46.7514897, "lon": 15.2799456}, {"lat": 46.7517374, "lon": 15.2801248}, {"lat": 46.7517201, "lon": 15.2804521}, {"lat": 46.751716, "lon": 15.2805296}, {"lat": 46.751803, "lon": 15.2805389}], "tags": {"barrier": "fence", "frequency": "50", "location": "outdoor", "name": "Umspannwerk Bergla", "operator": "Energie Steiermark", "operator:wikidata": "Q1341214", "operator:wikipedia": "de:Energie Steiermark", "power": "substation", "substation": "distribution", "voltage": "110000"}}, {"type": "way", "id": 90259895, "bounds": {"minlat": 47.0603557, "minlon": 15.4431016, "maxlat": 47.0608166, "maxlon": 15.4436768}, "nodes": [1046512441, 11484040784, 1046511308, 1046510054, 1046510753, 957307274, 1046511766, 1046512441], "geometry": [{"lat": 47.0608166, "lon": 15.4434379}, {"lat": 47.0607447, "lon": 15.4432124}, {"lat": 47.060721, "lon": 15.4431016}, {"lat": 47.0603557, "lon": 15.4433594}, {"lat": 47.0604593, "lon": 15.4436768}, {"lat": 47.0606291, "lon": 15.4435656}, {"lat": 47.0607039, "lon": 15.4435175}, {"lat": 47.0608166, "lon": 15.4434379}], "tags": {"addr:city": "Graz", "addr:country": "AT", "addr:housenumber": "105", "addr:postcode": "8010", "addr:street": "Steyrergasse", "building": "service", "building:levels": "2", "converter": "yes", "frequency": "50;0", "name": "Unterwerk Steyrergasse", "operator": "Energie Graz", "operator:wikidata": "Q1341216", "power": "substation", "roof:levels": "1", "roof:shape": "gabled", "source": "bing", "substation": "traction", "voltage": "20000;600"}}, {"type": "way", "id": 90707742, "bounds": {"minlat": 47.3875537, "minlon": 15.0512274, "maxlat": 47.3881564, "maxlon": 15.0525864}, "nodes": [1052708288, 1052708238, 1430547396, 1052708376, 1052708047, 1052708197, 1052708073, 1052708216, 1052708360, 1052708034, 1052707975, 1052708288], "geometry": [{"lat": 47.3880939, "lon": 15.0512274}, {"lat": 47.3881564, "lon": 15.0512757}, {"lat": 47.3880208, "lon": 15.0516586}, {"lat": 47.3876922, "lon": 15.0525864}, {"lat": 47.3875537, "lon": 15.0524794}, {"lat": 47.3878482, "lon": 15.0516478}, {"lat": 47.3877916, "lon": 15.051604}, {"lat": 47.3878432, "lon": 15.0514586}, {"lat": 47.3879028, "lon": 15.0515047}, {"lat": 47.3879596, "lon": 15.0513444}, {"lat": 47.3880325, "lon": 15.0514007}, {"lat": 47.3880939, "lon": 15.0512274}], "tags": {"building": "yes", "name": "Umspannwerk Donawitz-Nord", "power": "substation", "substation": "transmission", "voltage": "110000"}}, {"type": "way", "id": 92220396, "bounds": {"minlat": 47.3579142, "minlon": 15.0007295, "maxlat": 47.3597318, "maxlon": 15.0028896}, "nodes": [1070606018, 1070606483, 5474062162, 2697664050, 1070606307, 1070606130, 1070606568, 1070606354, 1070606018], "geometry": [{"lat": 47.359454, "lon": 15.0007295}, {"lat": 47.3597318, "lon": 15.0015907}, {"lat": 47.358928, "lon": 15.0021647}, {"lat": 47.3586372, "lon": 15.0023691}, {"lat": 47.3587074, "lon": 15.0025869}, {"lat": 47.3582417, "lon": 15.0028896}, {"lat": 47.3579142, "lon": 15.0018086}, {"lat": 47.3586499, "lon": 15.001293}, {"lat": 47.359454, "lon": 15.0007295}], "tags": {"addr:housenumber": "3", "addr:street": "Zum Terminal", "landuse": "industrial", "name": "Umspannwerk Sankt Michael", "operator": "STEWEAG-STEG", "power": "substation", "substation": "distribution", "voltage": "110000"}}, {"type": "way", "id": 92220415, "bounds": {"minlat": 47.3562165, "minlon": 15.0022015, "maxlat": 47.3577093, "maxlon": 15.0040942}, "nodes": [1070606071, 5474062161, 1070605978, 1070606366, 1070606195, 1070606037, 1070606409, 1070606253, 1070606076, 5474062159, 5474062160, 1070606459, 1070606071], "geometry": [{"lat": 47.3573431, "lon": 15.0022015}, {"lat": 47.3576447, "lon": 15.0031323}, {"lat": 47.3577093, "lon": 15.0033321}, {"lat": 47.3566105, "lon": 15.0040936}, {"lat": 47.3565473, "lon": 15.0039016}, {"lat": 47.3562986, "lon": 15.0040942}, {"lat": 47.3562165, "lon": 15.0038422}, {"lat": 47.3565252, "lon": 15.0036232}, {"lat": 47.3564455, "lon": 15.0033784}, {"lat": 47.3563592, "lon": 15.0031138}, {"lat": 47.356355, "lon": 15.0030959}, {"lat": 47.3563198, "lon": 15.0029895}, {"lat": 47.3573431, "lon": 15.0022015}], "tags": {"addr:city": "Traboch", "addr:country": "AT", "addr:housenumber": "5", "addr:street": "Zum Terminal", "frequency": "16.7", "landuse": "industrial", "location": "outdoor", "name": "Unterwerk St. Michael", "operator": "\u00d6BB-Infrastruktur AG", "operator:short": "\u00d6BB Infra", "operator:wikidata": "Q56425426", "power": "substation", "ref": "M", "substation": "traction", "voltage": "110000;15000"}}, {"type": "way", "id": 92273674, "bounds": {"minlat": 47.357495, "minlon": 15.0019488, "maxlat": 47.3580923, "maxlon": 15.0032485}, "nodes": [1071096431, 1430924964, 1071096432, 1071096435, 1071096436, 1071096438, 1071096441, 1071096451, 1430924962, 1071096453, 1071096458, 1071096460, 1071096462, 1071096465, 1071096467, 1071096480, 1071096481, 1071096483, 1071096431], "geometry": [{"lat": 47.3576851, "lon": 15.0019488}, {"lat": 47.3579811, "lon": 15.0028889}, {"lat": 47.3580176, "lon": 15.0030047}, {"lat": 47.3580584, "lon": 15.0029703}, {"lat": 47.3580923, "lon": 15.0030751}, {"lat": 47.3578683, "lon": 15.0032485}, {"lat": 47.3578379, "lon": 15.0031626}, {"lat": 47.3578713, "lon": 15.0031394}, {"lat": 47.357827, "lon": 15.0030006}, {"lat": 47.3576731, "lon": 15.0025186}, {"lat": 47.3576466, "lon": 15.0025343}, {"lat": 47.3576828, "lon": 15.0026476}, {"lat": 47.3575976, "lon": 15.002718}, {"lat": 47.357495, "lon": 15.0023986}, {"lat": 47.3575825, "lon": 15.0023351}, {"lat": 47.3576163, "lon": 15.0024398}, {"lat": 47.3576421, "lon": 15.0024204}, {"lat": 47.3575253, "lon": 15.002057}, {"lat": 47.3576851, "lon": 15.0019488}], "tags": {"addr:city": "Traboch", "addr:country": "AT", "addr:housenumber": "5", "addr:postcode": "8770", "addr:street": "Zum Terminal", "building": "service", "capacity": "75 MW", "converter": "motor_generator", "frequency": "50;16.7", "location": "indoor", "name": "Umformerwerk Sankt Michael", "operator": "\u00d6BB-Infrastruktur AG", "operator:short": "\u00d6BB Infra", "operator:wikidata": "Q56425426", "power": "substation", "ref": "M", "substation": "converter", "voltage": "110000"}}, {"type": "way", "id": 92537750, "bounds": {"minlat": 47.3820565, "minlon": 15.0961047, "maxlat": 47.3823409, "maxlon": 15.0963718}, "nodes": [1074170492, 1074170482, 1074170430, 1074170486, 1074170492], "geometry": [{"lat": 47.3823409, "lon": 15.0962099}, {"lat": 47.3820861, "lon": 15.0963718}, {"lat": 47.3820565, "lon": 15.0962694}, {"lat": 47.3823167, "lon": 15.0961047}, {"lat": 47.3823409, "lon": 15.0962099}], "tags": {"building": "yes", "name": "UW Leoben Stadt", "power": "substation", "source": "geoimage.at; survey"}}, {"type": "way", "id": 93331921, "bounds": {"minlat": 47.4416193, "minlon": 15.2955195, "maxlat": 47.4420354, "maxlon": 15.2962134}, "nodes": [1082126166, 1082126167, 1082126164, 1082126162, 1658939716, 1658939720, 1082126159, 1082126166], "geometry": [{"lat": 47.4420354, "lon": 15.2960251}, {"lat": 47.4417328, "lon": 15.2955195}, {"lat": 47.4416403, "lon": 15.2956456}, {"lat": 47.4416312, "lon": 15.2958441}, {"lat": 47.4416193, "lon": 15.2960834}, {"lat": 47.4416996, "lon": 15.2962042}, {"lat": 47.4418963, "lon": 15.2962134}, {"lat": 47.4420354, "lon": 15.2960251}], "tags": {"frequency": "50", "location": "outdoor", "name": "Umspannwerk Kapfenberg", "operator": "Energie Steiermark", "operator:wikidata": "Q1341214", "power": "substation", "substation": "distribution", "voltage": "110000"}}, {"type": "way", "id": 95783711, "bounds": {"minlat": 47.0487859, "minlon": 15.4401049, "maxlat": 47.0502807, "maxlon": 15.4418396}, "nodes": [1110173991, 1110173989, 1110174001, 7431124160, 1110173984, 1650805168, 7431124182, 1650805164, 7431131790, 1650805171, 1650805175, 1110173981, 1110174002, 1110173999, 1650805183, 1148158659, 1148159822, 1148159682, 1110173991], "geometry": [{"lat": 47.0502588, "lon": 15.4405101}, {"lat": 47.0502807, "lon": 15.4407946}, {"lat": 47.0489851, "lon": 15.4418396}, {"lat": 47.0488465, "lon": 15.4414688}, {"lat": 47.0487859, "lon": 15.4413001}, {"lat": 47.0492668, "lon": 15.440914}, {"lat": 47.0492163, "lon": 15.4407785}, {"lat": 47.0491593, "lon": 15.4406256}, {"lat": 47.0491845, "lon": 15.4406054}, {"lat": 47.0493719, "lon": 15.440455}, {"lat": 47.0493945, "lon": 15.4405156}, {"lat": 47.0494089, "lon": 15.440504}, {"lat": 47.0498472, "lon": 15.4401522}, {"lat": 47.0498949, "lon": 15.4402802}, {"lat": 47.0499309, "lon": 15.4402493}, {"lat": 47.0499743, "lon": 15.4402121}, {"lat": 47.0501079, "lon": 15.4401049}, {"lat": 47.0501507, "lon": 15.4402196}, {"lat": 47.0502588, "lon": 15.4405101}], "tags": {"frequency": "50", "landuse": "industrial", "location": "outdoor", "name": "Umspannwerk Graz S\u00fcd", "operator": "Energie Steiermark", "operator:wikidata": "Q1341214", "power": "substation", "substation": "distribution", "voltage": "110000;20000"}}, {"type": "way", "id": 95790224, "bounds": {"minlat": 47.0153581, "minlon": 15.4902647, "maxlat": 47.0175518, "maxlon": 15.4935925}, "nodes": [1110245762, 1110245707, 1110245716, 1110245706, 1110245703, 5064693883, 1110245711, 1110245673, 1110245756, 1110245750, 1110245751, 1110245689, 1110245674, 6791368706, 6791368707, 1110245672, 6791368702, 1110245762], "geometry": [{"lat": 47.0153581, "lon": 15.4909693}, {"lat": 47.0163769, "lon": 15.4902647}, {"lat": 47.0169044, "lon": 15.4918868}, {"lat": 47.0170883, "lon": 15.49177}, {"lat": 47.0175518, "lon": 15.4929998}, {"lat": 47.0175062, "lon": 15.4930295}, {"lat": 47.0166411, "lon": 15.4935925}, {"lat": 47.0165826, "lon": 15.4935443}, {"lat": 47.0165222, "lon": 15.493335}, {"lat": 47.0165625, "lon": 15.4931822}, {"lat": 47.016546, "lon": 15.4931124}, {"lat": 47.0164399, "lon": 15.493048}, {"lat": 47.0163613, "lon": 15.4927959}, {"lat": 47.0162621, "lon": 15.4928616}, {"lat": 47.0161847, "lon": 15.4926099}, {"lat": 47.0159299, "lon": 15.4927785}, {"lat": 47.0156848, "lon": 15.4919812}, {"lat": 47.0153581, "lon": 15.4909693}], "tags": {"frequency": "50", "landuse": "industrial", "location": "outdoor", "name": "Umspannwerk Grambach", "operator": "Energie Steiermark", "operator:wikidata": "Q1341214", "power": "substation", "substation": "transmission", "voltage": "110000;20000"}}, {"type": "way", "id": 96073643, "bounds": {"minlat": 47.0744128, "minlon": 15.5170742, "maxlat": 47.0744754, "maxlon": 15.51714}, "nodes": [1113196106, 1113132990, 1113130780, 1113138377, 1113196106], "geometry": [{"lat": 47.0744754, "lon": 15.5171289}, {"lat": 47.0744176, "lon": 15.51714}, {"lat": 47.0744128, "lon": 15.5170852}, {"lat": 47.0744706, "lon": 15.5170742}, {"lat": 47.0744754, "lon": 15.5171289}], "tags": {"building": "service", "covered": "yes", "name": "Steinergruende", "operator": "Energie Steiermark Netze", "power": "substation", "ref": "E 326032", "source": "Bing;local knowledge", "substation": "minor_distribution", "voltage": "20000"}}, {"type": "way", "id": 96073859, "bounds": {"minlat": 47.0737017, "minlon": 15.5130513, "maxlat": 47.0737917, "maxlon": 15.51317}, "nodes": [1113132233, 1113131343, 1113137435, 1113133041, 1113132233], "geometry": [{"lat": 47.0737668, "lon": 15.5130513}, {"lat": 47.0737017, "lon": 15.513115}, {"lat": 47.0737267, "lon": 15.51317}, {"lat": 47.0737917, "lon": 15.5131063}, {"lat": 47.0737668, "lon": 15.5130513}], "tags": {"building": "service", "name": "August Krispelgasse", "power": "substation", "source": "Bing", "substation": "minor_distribution"}}, {"type": "way", "id": 96168202, "bounds": {"minlat": 47.1440496, "minlon": 15.3296595, "maxlat": 47.1447273, "maxlon": 15.3307627}, "nodes": [1114566030, 1114566097, 1114566148, 1114566349, 1114566048, 10763530441, 1114566238, 1114566313, 1114566030], "geometry": [{"lat": 47.1446289, "lon": 15.3297117}, {"lat": 47.1447273, "lon": 15.3305089}, {"lat": 47.144282, "lon": 15.3307627}, {"lat": 47.1442093, "lon": 15.3303167}, {"lat": 47.1440496, "lon": 15.3300154}, {"lat": 47.14416, "lon": 15.3299135}, {"lat": 47.1444352, "lon": 15.3296595}, {"lat": 47.1445127, "lon": 15.329688}, {"lat": 47.1446289, "lon": 15.3297117}], "tags": {"name": "Schaltstation Friesach", "name:abbreviation": "FRI", "operator": "Energienetze Steiermark", "power": "substation", "substation": "transmission", "voltage": "110000"}}, {"type": "way", "id": 96168203, "bounds": {"minlat": 47.1083434, "minlon": 15.4020267, "maxlat": 47.108423, "maxlon": 15.4021317}, "nodes": [1114566174, 1114566054, 1114566217, 1114566139, 1114566295, 1114566174], "geometry": [{"lat": 47.108423, "lon": 15.402069}, {"lat": 47.1083644, "lon": 15.4020267}, {"lat": 47.1083434, "lon": 15.4020894}, {"lat": 47.1083726, "lon": 15.4021104}, {"lat": 47.108402, "lon": 15.4021317}, {"lat": 47.108423, "lon": 15.402069}], "tags": {"building": "transformer_tower", "power": "substation", "substation": "minor_distribution"}}, {"type": "way", "id": 96176841, "bounds": {"minlat": 47.2051062, "minlon": 15.3221689, "maxlat": 47.2060605, "maxlon": 15.3234125}, "nodes": [1114698721, 1114698642, 1114698960, 4820531638, 1114698818, 1114698721], "geometry": [{"lat": 47.2060605, "lon": 15.323009}, {"lat": 47.2058503, "lon": 15.3234125}, {"lat": 47.2051062, "lon": 15.3225724}, {"lat": 47.2051558, "lon": 15.3224667}, {"lat": 47.2053165, "lon": 15.3221689}, {"lat": 47.2060605, "lon": 15.323009}], "tags": {"name": "Umspannwerk Deutschfeistritz", "operator": "Energienetze Steiermark", "power": "substation", "substation": "transmission", "voltage": "110000"}}, {"type": "way", "id": 96176843, "bounds": {"minlat": 47.0550136, "minlon": 15.1340988, "maxlat": 47.0563519, "maxlon": 15.1354278}, "nodes": [1114698674, 1114698959, 1114698817, 1114698920, 1114698674], "geometry": [{"lat": 47.0563519, "lon": 15.1346506}, {"lat": 47.0551692, "lon": 15.1340988}, {"lat": 47.0550136, "lon": 15.1348175}, {"lat": 47.0563217, "lon": 15.1354278}, {"lat": 47.0563519, "lon": 15.1346506}], "tags": {"landuse": "industrial", "name": "Umspannwerk B\u00e4rnbach", "operator": "Energie Steiermark", "operator:wikidata": "Q1341214", "power": "substation", "substation": "transmission", "voltage": "110000"}}, {"type": "way", "id": 96210904, "bounds": {"minlat": 47.1120326, "minlon": 15.7045904, "maxlat": 47.1133342, "maxlon": 15.7060983}, "nodes": [1115210209, 1115210237, 1115210211, 1115210182, 2917160325, 2917160336, 2917160338, 1115210194, 1115210253, 1115210152, 1115210228, 2917164616, 2917136742, 2917164633, 1115210188, 2917136750, 2917141762, 1115210241, 1115210184, 2917130303, 1115210209], "geometry": [{"lat": 47.113, "lon": 15.7046984}, {"lat": 47.1126836, "lon": 15.7049177}, {"lat": 47.112642, "lon": 15.7047896}, {"lat": 47.1124669, "lon": 15.7049124}, {"lat": 47.1122628, "lon": 15.7050614}, {"lat": 47.1122449, "lon": 15.7050736}, {"lat": 47.1122285, "lon": 15.7050865}, {"lat": 47.1121444, "lon": 15.7051451}, {"lat": 47.1120673, "lon": 15.7051973}, {"lat": 47.1121034, "lon": 15.7053124}, {"lat": 47.1120326, "lon": 15.7053634}, {"lat": 47.1120489, "lon": 15.7054249}, {"lat": 47.1120597, "lon": 15.7054657}, {"lat": 47.1120694, "lon": 15.7055022}, {"lat": 47.1121072, "lon": 15.7056453}, {"lat": 47.1122341, "lon": 15.7060983}, {"lat": 47.1124627, "lon": 15.7059375}, {"lat": 47.1132037, "lon": 15.7054164}, {"lat": 47.1133342, "lon": 15.7051591}, {"lat": 47.1131507, "lon": 15.7045904}, {"lat": 47.113, "lon": 15.7046984}], "tags": {"landuse": "industrial", "name": "Umspannwerk Gleisdorf", "operator": "Energie Steiermark", "operator:wikidata": "Q1341214", "power": "substation", "substation": "transmission", "voltage": "110000"}}, {"type": "way", "id": 97094291, "bounds": {"minlat": 47.4957175, "minlon": 15.4127959, "maxlat": 47.4966626, "maxlon": 15.4140053}, "nodes": [1124862715, 4069102229, 1124862813, 1124862904, 1124862918, 4069102233, 4069102231, 4069114855, 4069102234, 1124862715], "geometry": [{"lat": 47.4966626, "lon": 15.4135948}, {"lat": 47.4963381, "lon": 15.4138055}, {"lat": 47.4960243, "lon": 15.4140053}, {"lat": 47.4957175, "lon": 15.413205}, {"lat": 47.4963942, "lon": 15.4127959}, {"lat": 47.4965218, "lon": 15.4130993}, {"lat": 47.4964803, "lon": 15.4132121}, {"lat": 47.4965079, "lon": 15.4132304}, {"lat": 47.4965309, "lon": 15.4132457}, {"lat": 47.4966626, "lon": 15.4135948}], "tags": {"name": "Umspannwerk Hadersdorf", "operator": "Energienetze Steiermark", "power": "substation", "voltage": "110000"}}, {"type": "way", "id": 97144374, "bounds": {"minlat": 47.0774761, "minlon": 15.4127041, "maxlat": 47.0786363, "maxlon": 15.413836}, "nodes": [1125318624, 3986854249, 1125318605, 1125318581, 9725459410, 1125318676, 1125318644, 9725459409, 1125318714, 1125318691, 1125318584, 1125318624], "geometry": [{"lat": 47.0786363, "lon": 15.4131778}, {"lat": 47.078587, "lon": 15.4130341}, {"lat": 47.0784737, "lon": 15.4127041}, {"lat": 47.0774761, "lon": 15.4134236}, {"lat": 47.0775184, "lon": 15.4135502}, {"lat": 47.0775361, "lon": 15.4136033}, {"lat": 47.077513, "lon": 15.4136199}, {"lat": 47.0775429, "lon": 15.413712}, {"lat": 47.0775457, "lon": 15.4137177}, {"lat": 47.0776379, "lon": 15.4136514}, {"lat": 47.0776995, "lon": 15.413836}, {"lat": 47.0786363, "lon": 15.4131778}], "tags": {"addr:city": "Graz", "addr:country": "AT", "addr:housenumber": "66", "addr:postcode": "8020", "addr:street": "Waagner-Biro-Stra\u00dfe", "frequency": "16.7", "landuse": "industrial", "location": "outdoor", "name": "Bahnstrom Unterwerk Graz", "operator": "\u00d6BB-Infrastruktur AG", "operator:short": "\u00d6BB Infra", "operator:wikidata": "Q56425426", "operator:wikipedia": "de:\u00d6BB Infra", "power": "substation", "ref": "Gi", "substation": "traction", "voltage": "110000;15000"}}, {"type": "way", "id": 98037572, "bounds": {"minlat": 47.0832138, "minlon": 15.4595581, "maxlat": 47.0834215, "maxlon": 15.4598511}, "nodes": [1134429365, 1134429578, 1134429521, 1134429528, 1134429397, 1134429570, 1134429516, 1134429573, 1134429365], "geometry": [{"lat": 47.0832138, "lon": 15.4597721}, {"lat": 47.0832935, "lon": 15.4598511}, {"lat": 47.0833341, "lon": 15.4597626}, {"lat": 47.0833727, "lon": 15.4598008}, {"lat": 47.0834215, "lon": 15.4596944}, {"lat": 47.0833829, "lon": 15.4596562}, {"lat": 47.0833917, "lon": 15.459637}, {"lat": 47.0833121, "lon": 15.4595581}, {"lat": 47.0832138, "lon": 15.4597721}], "tags": {"addr:city": "Graz", "addr:country": "AT", "addr:housenumber": "65", "addr:postcode": "8010", "addr:street": "Hilmteichstra\u00dfe", "building": "service", "building:levels": "1", "converter": "yes", "frequency": "50;0", "name": "Unterwerk Hilmteich", "operator": "Energie Graz", "operator:wikidata": "Q1341216", "power": "substation", "roof:shape": "hipped", "source": "survey", "substation": "traction", "voltage": "20000;600"}}, {"type": "way", "id": 98374325, "bounds": {"minlat": 47.3893134, "minlon": 15.0925062, "maxlat": 47.3894079, "maxlon": 15.0927169}, "nodes": [1138118724, 1138117780, 1138116776, 1138117247, 1138118724], "geometry": [{"lat": 47.3893773, "lon": 15.0925062}, {"lat": 47.3894079, "lon": 15.0926942}, {"lat": 47.3893441, "lon": 15.0927169},