{"version": 0.6, "generator": "Overpass API 0.7.62.8 e802775f", "osm3s": {"timestamp_osm_base": "2025-11-17T18:03:29Z", "copyright": "The data included in this document is from www.openstreetmap.org. The data is made available under ODbL."}, "elements": [{"type": "node", "id": 336032877, "lat": 48.485438, "lon": 7.9592079, "tags": {"operator": "E-Werk Mittelbaden", "power": "substation", "voltage": "20000"}}, {"type": "node", "id": 340094981, "lat": 48.4801415, "lon": 7.9739484, "tags": {"fixme": "Es ist irgendwas, aber was? o0", "operator": "E-Werk Mittelbaden", "operator:wikidata": "Q15110012", "power": "substation", "voltage": "20000"}}, {"type": "node", "id": 340307573, "lat": 48.4986623, "lon": 7.9218527, "tags": {"name": "Pfauenweg", "power": "substation", "voltage": "20000"}}, {"type": "node", "id": 343093094, "lat": 48.4557619, "lon": 7.9235132, "tags": {"name": "Anemonenweg", "operator": "E-Werk Mittelbaden", "power": "substation"}}, {"type": "node", "id": 343093169, "lat": 48.4731257, "lon": 7.959245, "tags": {"power": "substation"}}, {"type": "node", "id": 343326198, "lat": 47.805866, "lon": 7.6229933, "tags": {"operator": "Energiedienst", "power": "substation"}}, {"type": "node", "id": 356918342, "lat": 48.4786365, "lon": 7.954519, "tags": {"operator": "E-Werk Mittelbaden", "operator:wikidata": "Q15110012", "power": "substation", "ref": "Prinz-Eugen-Stra\u00dfe", "voltage": "20000"}}, {"type": "node", "id": 374136323, "lat": 47.9902765, "lon": 7.9415089, "tags": {"power": "substation"}}, {"type": "node", "id": 433106830, "lat": 47.9320023, "lon": 7.845634, "tags": {"power": "substation"}}, {"type": "node", "id": 433106837, "lat": 47.9286002, "lon": 7.8481532, "tags": {"power": "substation"}}, {"type": "node", "id": 467777726, "lat": 47.91825, "lon": 7.8598963, "tags": {"power": "substation"}}, {"type": "node", "id": 471989571, "lat": 48.0018588, "lon": 8.1155752, "tags": {"power": "substation"}}, {"type": "node", "id": 528613626, "lat": 47.8333315, "lon": 7.7963351, "tags": {"power": "substation"}}, {"type": "node", "id": 528623933, "lat": 47.8194253, "lon": 7.7871689, "tags": {"power": "substation"}}, {"type": "node", "id": 528747607, "lat": 47.8639383, "lon": 7.7596978, "tags": {"name": "Unterm\u00fcnstertal Station Etzenbach", "power": "substation", "substation": "minor_distribution"}}, {"type": "node", "id": 541003597, "lat": 47.8256313, "lon": 7.8543054, "tags": {"power": "substation"}}, {"type": "node", "id": 611621808, "lat": 47.9942797, "lon": 7.8379239, "tags": {"power": "substation", "ref": "W2"}}, {"type": "node", "id": 611621812, "lat": 47.9942991, "lon": 7.8379247, "tags": {"power": "substation", "ref": "25x"}}, {"type": "node", "id": 627778430, "lat": 48.0314958, "lon": 7.8573451, "tags": {"power": "substation", "substation": "minor_distribution"}}, {"type": "node", "id": 627778470, "lat": 48.0315688, "lon": 7.8575314, "tags": {"power": "substation", "substation": "minor_distribution"}}, {"type": "node", "id": 627778472, "lat": 48.0316255, "lon": 7.8576345, "tags": {"power": "substation", "substation": "minor_distribution"}}, {"type": "node", "id": 627778473, "lat": 48.0316651, "lon": 7.8577138, "tags": {"power": "substation", "substation": "minor_distribution"}}, {"type": "node", "id": 633631579, "lat": 47.9817328, "lon": 7.6311149, "tags": {"power": "substation"}}, {"type": "node", "id": 652745278, "lat": 47.9782677, "lon": 7.6229249, "tags": {"power": "substation"}}, {"type": "node", "id": 660331690, "lat": 48.3346892, "lon": 7.8504844, "tags": {"operator": "\u00dcberlandwerk Mittelbaden", "operator:wikidata": "Q124480690", "power": "substation", "substation": "minor_distribution", "voltage": "20000;400"}}, {"type": "node", "id": 703125602, "lat": 47.9906289, "lon": 7.8645065, "tags": {"addr:city": "Freiburg im Breisgau", "addr:housenumber": "8x", "addr:postcode": "79102", "addr:street": "Otto-Wels-Stra\u00dfe", "power": "substation"}}, {"type": "node", "id": 704808826, "lat": 48.4734427, "lon": 7.9504415, "tags": {"name": "Zellerstra\u00dfe", "operator": "E-Werk Mittelbaden", "operator:wikidata": "Q15110012", "power": "substation", "voltage": "20000"}}, {"type": "node", "id": 706259170, "lat": 48.4627487, "lon": 7.9470846, "tags": {"operator": "E-Werk Mittelbaden", "power": "substation", "voltage": "20000"}}, {"type": "node", "id": 715429120, "lat": 48.471885, "lon": 7.9442125, "tags": {"operator": "E-Werk Mittelbaden", "operator:wikidata": "Q15110012", "power": "substation", "voltage": "20000"}}, {"type": "node", "id": 724159072, "lat": 47.9864708, "lon": 7.842057, "tags": {"addr:city": "Freiburg im Breisgau", "addr:postcode": "79100", "addr:street": "Schwimmbadstra\u00dfe", "building": "yes", "power": "substation", "ref": "27x", "substation": "minor_distribution"}}, {"type": "node", "id": 731515260, "lat": 48.4855212, "lon": 7.9163672, "tags": {"operator": "E-Werk Mittelbaden AG", "power": "substation", "voltage": "20000"}}, {"type": "node", "id": 732546785, "lat": 48.4857817, "lon": 7.9126353, "tags": {"name": "St.-Denis-Stra\u00dfe", "operator": "E-Werk Mittelbaden AG", "power": "substation", "voltage": "20000"}}, {"type": "node", "id": 732546836, "lat": 48.4884512, "lon": 7.9186897, "tags": {"addr:city": "Offenburg", "addr:country": "DE", "addr:housenumber": "44a", "addr:postcode": "77656", "addr:street": "R\u00f6merstra\u00dfe", "name": "R\u00f6merstra\u00dfe", "operator": "E-Werk Mittelbaden AG", "power": "substation", "voltage": "20000"}}, {"type": "node", "id": 732546959, "lat": 48.4809741, "lon": 7.9223406, "tags": {"name": "In der Sp\u00f6ck", "operator": "E-Werk Mittelbaden AG", "power": "substation", "voltage": "20000"}}, {"type": "node", "id": 823507495, "lat": 48.4885423, "lon": 7.6594974, "tags": {"man_made": "street_cabinet", "operator": "SER", "power": "substation", "street_cabinet": "power", "substation": "minor_distribution", "voltage": "20000;400"}}, {"type": "node", "id": 823581227, "lat": 48.4932277, "lon": 7.6701975, "tags": {"man_made": "street_cabinet", "operator": "SER", "power": "substation", "street_cabinet": "power", "substation": "minor_distribution", "voltage": "20000;400"}}, {"type": "node", "id": 982537407, "lat": 47.9890559, "lon": 7.8807449, "tags": {"power": "substation", "ref": "173x"}}, {"type": "node", "id": 1171367051, "lat": 47.9937597, "lon": 7.8360496, "tags": {"addr:street": "Klarastra\u00dfe", "frequency": "50", "location": "indoor", "operator": "bnNETZE", "operator:wikidata": "Q57712950", "power": "substation", "ref": "98x", "substation": "minor_distribution", "voltage": "20000;400"}}, {"type": "node", "id": 1219030472, "lat": 48.4662412, "lon": 7.7715515, "tags": {"power": "substation"}}, {"type": "node", "id": 1305576843, "lat": 48.4983796, "lon": 7.927365, "tags": {"power": "substation"}}, {"type": "node", "id": 1388668850, "lat": 47.8474772, "lon": 7.7825431, "tags": {"location": "pole", "name": "Umspannstation M\u00fcnstertal S\u00fcssenbrunn", "power": "substation", "substation": "minor_distribution", "voltage": "20000;400"}}, {"type": "node", "id": 1607592190, "lat": 47.8839795, "lon": 7.6775739, "tags": {"power": "substation"}}, {"type": "node", "id": 1607592191, "lat": 47.8833626, "lon": 7.6792101, "tags": {"power": "substation"}}, {"type": "node", "id": 1821983846, "lat": 48.385929, "lon": 7.4715285, "tags": {"power": "substation"}}, {"type": "node", "id": 1932947296, "lat": 48.4683044, "lon": 7.8972856, "tags": {"name": "Umspannstation Stadtwald Baldszuhn", "power": "substation", "substation": "minor_distribution"}}, {"type": "node", "id": 2048505526, "lat": 47.9776749, "lon": 7.8266153, "tags": {"addr:city": "Freiburg im Breisgau", "addr:housenumber": "29x", "addr:postcode": "79115", "addr:street": "Wiesentalstra\u00dfe", "power": "substation", "substation": "minor_distribution"}}, {"type": "node", "id": 2053166643, "lat": 47.9774978, "lon": 7.8295773, "tags": {"addr:city": "Freiburg im Breisgau", "addr:housenumber": "159x", "addr:postcode": "79100", "addr:street": "Merzhauser Stra\u00dfe", "power": "substation"}}, {"type": "node", "id": 2182297762, "lat": 47.9260682, "lon": 7.6690354, "tags": {"power": "substation"}}, {"type": "node", "id": 2365539557, "lat": 47.9432874, "lon": 7.6855869, "tags": {"name": "Els\u00e4sser Stra\u00dfe", "power": "substation"}}, {"type": "node", "id": 2379402169, "lat": 47.9028118, "lon": 7.6673296, "tags": {"note": "nur 30m hoch", "power": "substation"}}, {"type": "node", "id": 2385466339, "lat": 47.9865464, "lon": 7.8106689, "tags": {"power": "substation"}}, {"type": "node", "id": 2441872589, "lat": 47.9865481, "lon": 7.801005, "tags": {"addr:city": "Freiburg im Breisgau", "addr:housenumber": "2x", "addr:postcode": "79111", "addr:street": "Friedrich-Neff-Stra\u00dfe", "power": "substation"}}, {"type": "node", "id": 2458290343, "lat": 47.9255672, "lon": 7.6768729, "tags": {"name": "Im K\u00e4ppelefeld", "power": "substation"}}, {"type": "node", "id": 2459130376, "lat": 47.9108531, "lon": 7.7048918, "tags": {"name": "Akazienweg", "power": "substation"}}, {"type": "node", "id": 2459656021, "lat": 47.9360174, "lon": 7.6893865, "tags": {"name": "In der Breite", "power": "substation"}}, {"type": "node", "id": 2505525177, "lat": 47.9918721, "lon": 7.814165, "tags": {"addr:city": "Freiburg im Breisgau", "addr:housenumber": "9x", "addr:postcode": "79115", "addr:street": "Blochackerweg", "description": "Trafo 6W 73", "layer": "-1", "note": "im Fundament der Br\u00fccke", "power": "substation"}}, {"type": "node", "id": 2507746644, "lat": 47.9926515, "lon": 7.8167638, "tags": {"addr:city": "Freiburg im Breisgau", "addr:housenumber": "29x", "addr:postcode": "79115", "addr:street": "Markgrafenstra\u00dfe", "power": "substation", "substation": "minor_distribution"}}, {"type": "node", "id": 2584739985, "lat": 48.2169431, "lon": 7.8239653, "tags": {"name": "Broggingen Am Scheibenberg", "operator": "Netze BW GmbH", "operator:wikidata": "Q16854888", "power": "substation"}}, {"type": "node", "id": 2589319692, "lat": 48.2072554, "lon": 7.801553, "tags": {"name": "Wagenstadt Am Riedacker", "operator": "EnBW", "power": "substation"}}, {"type": "node", "id": 2623706374, "lat": 48.223059, "lon": 7.7772571, "tags": {"name": "Herbolzheim Rathausgasse", "operator": "EnBW Regional AG", "power": "substation"}}, {"type": "node", "id": 2623791083, "lat": 48.2224742, "lon": 7.7761814, "tags": {"name": "Herbolzheim A.-Schindler-Str.", "operator": "Badenwerk-AG", "power": "substation"}}, {"type": "node", "id": 2685452534, "lat": 47.8846982, "lon": 7.6838544, "tags": {"power": "substation"}}, {"type": "node", "id": 2723644227, "lat": 48.205063, "lon": 7.8037887, "tags": {"name": "Wagenstadt / Landsiedlung Schaudt", "operator": "Netze BW GmbH", "operator:wikidata": "Q16854888", "power": "substation"}}, {"type": "node", "id": 2756259012, "lat": 47.9963699, "lon": 7.8295608, "tags": {"power": "substation", "substation": "minor_distribution"}}, {"type": "node", "id": 2790165842, "lat": 48.2252585, "lon": 7.7748929, "tags": {"name": "Herbolzheim Rheinstr. 15", "operator": "EnBW Regional AG", "power": "substation"}}, {"type": "node", "id": 2897438199, "lat": 48.1052838, "lon": 7.8517436, "tags": {"addr:housenumber": "1", "addr:street": "Basler Stra\u00dfe", "operator": "Stadtwerke Emmendingen", "power": "substation"}}, {"type": "node", "id": 2897438200, "lat": 48.1127664, "lon": 7.8445418, "tags": {"name": "Umspannstation Regelmatte", "operator": "Stadtwerke Emmendingen", "power": "substation"}}, {"type": "node", "id": 2949273355, "lat": 48.0974463, "lon": 7.8571178, "tags": {"operator": "Stadtwerke Emmendingen", "power": "substation", "substation": "distribution"}}, {"type": "node", "id": 2956393651, "lat": 47.9745694, "lon": 7.8147181, "tags": {"addr:city": "Freiburg im Breisgau", "addr:housenumber": "9x", "addr:postcode": "79111", "addr:street": "Speckbacherweg", "power": "substation", "source": "maps4bw, LGL, www.lgl-bw.de"}}, {"type": "node", "id": 2994227236, "lat": 48.2176592, "lon": 7.7774121, "tags": {"name": "Herbolzheim Friedrichstr.", "operator": "Netze BW GmbH", "operator:wikidata": "Q16854888", "power": "substation"}}, {"type": "node", "id": 2994227237, "lat": 48.2185567, "lon": 7.7785874, "tags": {"name": "Ortsnetzstation Herbolzheim/Josefstra\u00dfe", "power": "substation"}}, {"type": "node", "id": 3005571908, "lat": 48.2212803, "lon": 7.7739087, "tags": {"name": "Friedrichstr. 28", "operator": "Netze BW GmbH", "operator:wikidata": "Q16854888", "power": "substation", "ref": "HERBO-E-UST-078"}}, {"type": "node", "id": 3016873765, "lat": 48.1898741, "lon": 7.770996, "tags": {"name": "Kenzingen Kaiserweg", "operator": "Badenwerk AG", "power": "substation"}}, {"type": "node", "id": 3020290122, "lat": 48.2262611, "lon": 7.7716713, "tags": {"name": "Herbolzheim Fliederweg", "operator": "Badenwerk AG", "power": "substation"}}, {"type": "node", "id": 3044807750, "lat": 47.9588279, "lon": 7.8315539, "tags": {"addr:housenumber": "1x", "addr:street": "Schlo\u00dfbergstra\u00dfe", "frequency": "50", "operator": "bnNETZE", "operator:wikidata": "Q57712950", "power": "substation", "substation": "minor_distribution", "voltage": "20000;400"}}, {"type": "node", "id": 3052165026, "lat": 48.4136825, "lon": 8.0058814, "tags": {"name": "Isenmann", "power": "substation", "substation": "minor_distribution"}}, {"type": "node", "id": 3163312085, "lat": 48.2278895, "lon": 7.7745792, "tags": {"power": "substation"}}, {"type": "node", "id": 3168977333, "lat": 48.4639971, "lon": 7.9285396, "tags": {"operator": "E-Werk Mittelbaden", "operator:wikidata": "Q15110012", "power": "substation", "ref": "Koplingstra\u00dfe", "voltage": "20000"}}, {"type": "node", "id": 3168985082, "lat": 48.4685227, "lon": 7.9325997, "tags": {"operator": "E-Werk Mittelbaden", "operator:wikidata": "Q15110012", "power": "substation", "ref": "Marlener Str., 77656 Offenburg", "voltage": "20000"}}, {"type": "node", "id": 3172599105, "lat": 47.8599965, "lon": 7.7639456, "tags": {"location": "indoor", "power": "substation", "substation": "minor_distribution"}}, {"type": "node", "id": 3172599110, "lat": 47.85992, "lon": 7.7977629, "tags": {"man_made": "street_cabinet", "name": "Schaltstation Prestenberg", "power": "substation", "street_cabinet": "power", "substation": "minor_distribution"}}, {"type": "node", "id": 3172599111, "lat": 47.8621237, "lon": 7.7651692, "tags": {"man_made": "street_cabinet", "name": "Station Unterm\u00fcnstertal Dietzelbachstra\u00dfe", "power": "substation", "street_cabinet": "power", "substation": "minor_distribution"}}, {"type": "node", "id": 3172599112, "lat": 47.8563801, "lon": 7.7750184, "tags": {"man_made": "street_cabinet", "name": "Umspannstation Unterm\u00fcnstertal Belchenstra\u00dfe", "power": "substation", "street_cabinet": "power", "substation": "minor_distribution"}}, {"type": "node", "id": 3172599113, "lat": 47.8553907, "lon": 7.7791076, "tags": {"man_made": "street_cabinet", "name": "Unterm\u00fcnstertal Station Bahnhof", "power": "substation", "street_cabinet": "power", "substation": "minor_distribution"}}, {"type": "node", "id": 3177328862, "lat": 48.2240535, "lon": 7.7532824, "tags": {"name": "Herbolzheim Breisgauallee 18a, Schw\u00f6rer PV", "power": "substation", "ref": "HERBO-E-UST-083"}}, {"type": "node", "id": 3177328864, "lat": 48.2229048, "lon": 7.7551224, "tags": {"name": "Herbolzheim Stiegeler PV, Breisgaullee 13", "power": "substation"}}, {"type": "node", "id": 3177328865, "lat": 48.2246531, "lon": 7.7512253, "tags": {"name": "Herbolzheim Unitrans", "power": "substation"}}, {"type": "node", "id": 3177328866, "lat": 48.2178881, "lon": 7.7580593, "tags": {"name": "Herbolzheim Wuppermann", "power": "substation"}}, {"type": "node", "id": 3183487657, "lat": 48.0912909, "lon": 7.5872733, "tags": {"location": "indoor", "power": "substation"}}, {"type": "node", "id": 3233167463, "lat": 48.1971231, "lon": 7.7714572, "tags": {"name": "Ortsnetzstation Kenzingen / Hansjakobstra\u00dfe", "power": "substation", "substation": "minor_distribution"}}, {"type": "node", "id": 3233167489, "lat": 48.1947312, "lon": 7.7693087, "tags": {"power": "substation", "substation": "minor_distribution"}}, {"type": "node", "id": 3234395435, "lat": 48.1912452, "lon": 7.7676149, "tags": {"name": "Kenzingen Gottlieb", "power": "substation"}}, {"type": "node", "id": 3249735765, "lat": 48.2355908, "lon": 7.7595292, "tags": {"name": "Herbolzheim Landsiedlung 4", "operator": "EnBW Regional AG", "power": "substation", "substation": "minor_distribution"}}, {"type": "node", "id": 3254050482, "lat": 48.2475557, "lon": 7.7680935, "tags": {"name": "Ringsheim Elzstr.", "operator": "Netze BW GmbH", "operator:wikidata": "Q16854888", "power": "substation", "ref": "RNGSH_E_UST_019", "substation": "minor_distribution"}}, {"type": "node", "id": 3286373827, "lat": 48.1982599, "lon": 7.7606953, "tags": {"name": "Kenzingen Carl-Benz-Str.", "operator": "EnBW Regional AG", "power": "substation", "substation": "minor_distribution"}}, {"type": "node", "id": 3286373830, "lat": 48.199322, "lon": 7.7627492, "tags": {"name": "Kenzingen Storz", "power": "substation", "substation": "minor_distribution"}}, {"type": "node", "id": 3351545732, "lat": 48.2355208, "lon": 7.8194477, "tags": {"name": "Ettenheimweiler Dorfstr. 1", "operator": "Netze BW GmbH", "operator:wikidata": "Q16854888", "power": "substation", "substation": "minor_distribution"}}, {"type": "node", "id": 3356270906, "lat": 48.4735321, "lon": 7.9313204, "tags": {"operator": "E-Werk Mittelbaden", "operator:wikidata": "Q15110012", "power": "substation", "ref": "H.Hertz Str. /M.Plank Str.", "voltage": "20000"}}, {"type": "node", "id": 3381684448, "lat": 48.2382275, "lon": 7.8183194, "tags": {"name": "Ettenheimweiler Margartenstr.", "operator": "Netze BW GmbH", "operator:wikidata": "Q16854888", "power": "substation", "substation": "minor_distribution"}}, {"type": "node", "id": 3389892717, "lat": 48.2420892, "lon": 7.8279712, "tags": {"name": "Umspannstation Am Schwimmbad 9", "operator": "EnBW Regional AG", "power": "substation", "ref": "ETENH-E-UST-049", "substation": "minor_distribution"}}, {"type": "node", "id": 3391582742, "lat": 48.2497229, "lon": 7.8481342, "tags": {"name": "Station M\u00fcnchweier Weinstr.", "operator": "Netze BW GmbH", "operator:wikidata": "Q16854888", "power": "substation", "substation": "minor_distribution"}}, {"type": "node", "id": 3398607729, "lat": 48.2385917, "lon": 7.7717862, "tags": {"name": "Schaltstelle Herbolzheim Am Ringsheimer Weg", "operator": "EnBW", "power": "substation", "substation": "minor_distribution"}}, {"type": "node", "id": 3405703942, "lat": 48.2452285, "lon": 7.7779852, "tags": {"name": "Station Ringsheim Friedhof", "operator": "Netze BW GmbH", "operator:wikidata": "Q16854888", "power": "substation", "substation": "minor_distribution"}}, {"type": "node", "id": 3405733765, "lat": 48.2481471, "lon": 7.7737397, "tags": {"name": "Umspannstation Ringsheim Alte Hauptstr. 26", "operator": "Netze BW GmbH", "operator:wikidata": "Q16854888", "power": "substation", "substation": "minor_distribution"}}, {"type": "node", "id": 3417167436, "lat": 48.2395826, "lon": 7.8388486, "tags": {"name": "Umspannstation M\u00fcnchweier Siedlerh\u00f6fe 1", "power": "substation"}}, {"type": "node", "id": 3443040130, "lat": 48.2479036, "lon": 7.7843474, "tags": {"name": "Umspannstation Ringsheim Heubergstr.", "operator": "Netze BW", "operator:wikidata": "Q16854888", "power": "substation", "substation": "minor_distribution"}}, {"type": "node", "id": 3452265187, "lat": 48.2494414, "lon": 7.8200793, "tags": {"name": "Umspannstation Ettenheim Im Zinken 10", "operator": "Netze BW GmbH", "operator:wikidata": "Q16854888", "power": "substation", "substation": "minor_distribution"}}, {"type": "node", "id": 3473954897, "lat": 48.2475894, "lon": 7.7790188, "tags": {"operator": "Netze BW", "operator:wikidata": "Q16854888", "power": "substation", "ref": "Gro\u00dfe Wolfgangstra\u00dfe", "substation": "minor_distribution"}}, {"type": "node", "id": 3523224460, "lat": 48.255288, "lon": 7.7943951, "tags": {"power": "substation", "substation": "minor_distribution"}}, {"type": "node", "id": 3576462262, "lat": 48.2540471, "lon": 7.8101892, "tags": {"location": "indoor", "power": "substation", "substation": "minor_distribution"}}, {"type": "node", "id": 3621348201, "lat": 48.067444, "lon": 7.6701242, "tags": {"frequency": "50", "location": "indoor", "power": "substation", "ref": "Umspannstation Ihringen Lilienhof IHRNG-E-SST-001", "substation": "minor_distribution", "voltage": "20000;400"}}, {"type": "node", "id": 3658807183, "lat": 48.1838211, "lon": 7.8478704, "tags": {"name": "Kenzingen HRB Kirnbachtal", "power": "substation"}}, {"type": "node", "id": 3682711207, "lat": 48.4815557, "lon": 7.9399633, "tags": {"operator": "E-Werk Mittelbaden", "operator:wikidata": "Q15110012", "power": "substation", "ref": "Station Strassburger Str.", "voltage": "20000"}}, {"type": "node", "id": 3706470060, "lat": 48.2517305, "lon": 7.825255, "tags": {"location": "indoor", "name": "Ettenheim Im Erlenw\u00e4ldele", "operator": "Netze BW GmbH", "operator:wikidata": "Q16854888", "power": "substation", "substation": "minor_distribution"}}, {"type": "node", "id": 3706470061, "lat": 48.2496594, "lon": 7.82649, "tags": {"location": "indoor", "name": "Ettenheim Sportplatz", "operator": "Netze BW GmbH", "operator:wikidata": "Q16854888", "power": "substation", "substation": "minor_distribution", "transformer": "distribution"}}, {"type": "node", "id": 3706591751, "lat": 48.2527433, "lon": 7.8228227, "tags": {"name": "Umspannstation Ettenheim/Kolpingstra\u00dfe", "power": "substation", "substation": "minor_distribution"}}, {"type": "node", "id": 3706710309, "lat": 48.2543936, "lon": 7.8187064, "tags": {"name": "Ettenheim Viktor-Kollefrath-Str.", "operator": "EnBW", "power": "substation", "substation": "minor_distribution"}}, {"type": "node", "id": 3706807122, "lat": 48.2535893, "lon": 7.8204139, "tags": {"name": "Ettenheim Seraphin-Kirn-Str.", "operator": "EnBW", "power": "substation", "substation": "minor_distribution"}}, {"type": "node", "id": 3706807123, "lat": 48.2541535, "lon": 7.8213683, "tags": {"name": "Ettenheim Stehlinstr.", "operator": "Netze BW GmbH", "operator:wikidata": "Q16854888", "power": "substation", "ref": "ETENH-E UST-036", "substation": "minor_distribution"}}, {"type": "node", "id": 3715377042, "lat": 48.4659988, "lon": 7.8799165, "tags": {"operator": "Gemeindewerke Schutterwald", "power": "substation", "ref": "Station Schutterstra\u00dfe", "voltage": "20000"}}, {"type": "node", "id": 3715377046, "lat": 48.4662771, "lon": 7.8780561, "tags": {"operator": "Gemeindewerke Schutterwald", "power": "substation", "voltage": "20000"}}, {"type": "node", "id": 3715377055, "lat": 48.4675912, "lon": 7.8777097, "tags": {"power": "substation", "voltage": "20000"}}, {"type": "node", "id": 3715377065, "lat": 48.4683826, "lon": 7.8817025, "tags": {"power": "substation", "ref": "Station Netto Markt", "voltage": "20000"}}, {"type": "node", "id": 3733495501, "lat": 48.2544054, "lon": 7.8135728, "tags": {"name": "Umspannstation Spitalgasse 1", "operator": "EnBW Reginal AG", "power": "substation", "ref": "ETENH-E-UST-053", "substation": "minor_distribution"}}, {"type": "node", "id": 3740397541, "lat": 48.2450966, "lon": 7.866872, "tags": {"name": "Umspannstation Hauptstr. 113", "operator": "EnBW Regional AG", "power": "substation", "ref": "MUEWE-E-UST-14", "substation": "minor_distribution"}}, {"type": "node", "id": 3752981248, "lat": 48.2566009, "lon": 7.80335, "tags": {"name": "Ettenheim Benfelder Str.", "operator": "Netze BW GmbH", "operator:wikidata": "Q16854888", "power": "substation", "substation": "minor_distribution"}}, {"type": "node", "id": 3752993741, "lat": 48.2594417, "lon": 7.8040303, "tags": {"name": "Stra\u00dfburger Str. 27", "operator": "Netze BW GmbH", "operator:wikidata": "Q16854888", "power": "substation", "ref": "ETENH-E-UST-54", "substation": "minor_distribution"}}, {"type": "node", "id": 3768884832, "lat": 48.1873497, "lon": 7.7833804, "tags": {"name": "Kenzingen Ritter", "power": "substation", "substation": "minor_distribution"}}, {"type": "node", "id": 3797046715, "lat": 48.2209262, "lon": 7.7788032, "tags": {"name": "Duttensteinstr. 9", "operator": "Netze BW GmbH", "operator:wikidata": "Q16854888", "power": "substation", "ref": "HERBO-E-UST-087", "substation": "minor_distribution"}}, {"type": "node", "id": 3848906295, "lat": 48.1774038, "lon": 7.8158921, "tags": {"name": "Bombach Kirchstr.", "operator": "Badenwerk", "power": "substation"}}, {"type": "node", "id": 3886291072, "lat": 48.2570447, "lon": 7.7907529, "tags": {"name": "Ettenheim Am Zollhaus 6", "operator": "Netze BW GmbH", "operator:wikidata": "Q16854888", "power": "substation", "substation": "minor_distribution"}}, {"type": "node", "id": 3892167281, "lat": 48.2654527, "lon": 7.7871696, "tags": {"name": "Ettenheim Hebewerk Rittmatten", "operator": "EnBW Regional AG", "power": "substation", "substation": "minor_distribution"}}, {"type": "node", "id": 3899442388, "lat": 48.1893492, "lon": 7.7508403, "tags": {"name": "Riegel Klausenh\u00f6fe 5", "operator": "EnBW Regional AG", "power": "substation", "substation": "minor_distribution"}}, {"type": "node", "id": 3984825370, "lat": 48.4714261, "lon": 7.9227943, "tags": {"operator": "E-Werk Mittelbaden", "operator:wikidata": "Q15110012", "power": "substation", "voltage": "20000"}}, {"type": "node", "id": 4006164107, "lat": 48.2186967, "lon": 7.8260946, "tags": {"name": "Brogginen Dorfmattenstr.", "operator": "EnBW", "power": "substation", "substation": "minor_distribution"}}, {"type": "node", "id": 4012714122, "lat": 48.2610042, "lon": 7.8095414, "tags": {"name": "Ettenheim Eschbach u. Reiniger", "power": "substation", "substation": "minor_distribution"}}, {"type": "node", "id": 4012714123, "lat": 48.2640468, "lon": 7.804622, "tags": {"name": "Ettenheim Knoblochzerstr. 1", "operator": "Netze BW GmbH", "operator:wikidata": "Q16854888", "power": "substation", "substation": "minor_distribution"}}, {"type": "node", "id": 4012714124, "lat": 48.2607831, "lon": 7.8097158, "tags": {"name": "Ettenheim Kreuzerweg", "operator": "Netze BW GmbH", "operator:wikidata": "Q16854888", "power": "substation", "substation": "minor_distribution"}}, {"type": "node", "id": 4012714125, "lat": 48.2609621, "lon": 7.8056931, "tags": {"name": "Ettenheim Tullastr. 1", "operator": "Netze BW GmbH", "operator:wikidata": "Q16854888", "power": "substation", "substation": "minor_distribution"}}, {"type": "node", "id": 4013499692, "lat": 48.2648688, "lon": 7.8064163, "tags": {"name": "Altdorf Gutenbergstra\u00dfe", "operator": "Netze BW GmbH", "operator:wikidata": "Q16854888", "power": "substation", "substation": "minor_distribution"}}, {"type": "node", "id": 4013499737, "lat": 48.2624397, "lon": 7.8068271, "tags": {"operator": "Netze BW GmbH", "operator:wikidata": "Q16854888", "power": "substation", "substation": "minor_distribution"}}, {"type": "node", "id": 4086854512, "lat": 48.2637352, "lon": 7.8096939, "tags": {"name": "Altdorf H.d. Z\u00e4unen", "operator": "Netze BW GmbH", "operator:wikidata": "Q16854888", "power": "substation", "substation": "minor_distribution"}}, {"type": "node", "id": 4095661787, "lat": 48.261615, "lon": 7.8125567, "tags": {"name": "Ettenheim / Br\u00fcnnelingsgraben", "power": "substation", "substation": "minor_distribution"}}, {"type": "node", "id": 4095661788, "lat": 48.257996, "lon": 7.8142617, "tags": {"operator": "Netze BW GmbH", "operator:wikidata": "Q16854888", "power": "substation", "ref": "Ettenheim Johann-Baptist-von-Wei\u00df-Stra\u00dfe 11", "substation": "minor_distribution"}}, {"type": "node", "id": 4149795255, "lat": 48.4823501, "lon": 7.9485073, "tags": {"frequency": "50", "operator": "DB Energie", "operator:wikidata": "Q1152043", "power": "substation", "ref": "20 kV Trafostation 3 Offenburg QRO---STO3", "voltage": "20000;low"}}, {"type": "node", "id": 4171990622, "lat": 48.2476464, "lon": 7.8593053, "tags": {"name": "M\u00fcnchweier Kirchberg", "operator": "Netze BW GmbH", "operator:wikidata": "Q16854888", "power": "substation", "substation": "minor_distribution"}}, {"type": "node", "id": 4172018707, "lat": 48.2497178, "lon": 7.8533331, "tags": {"name": "M\u00fcnchweier Bergstr. 49", "operator": "Netze BW GmbH", "operator:wikidata": "Q16854888", "power": "substation", "ref": "MUEWE-E-UST-013", "substation": "minor_distribution"}}, {"type": "node", "id": 4317225280, "lat": 48.2574563, "lon": 7.8172839, "tags": {"power": "substation", "substation": "minor_distribution"}}, {"type": "node", "id": 4319605253, "lat": 48.2561314, "lon": 7.8244392, "tags": {"power": "substation", "substation": "minor_distribution"}}, {"type": "node", "id": 4319605258, "lat": 48.2565932, "lon": 7.821243, "tags": {"operator": "EnBW", "power": "substation", "substation": "minor_distribution"}}, {"type": "node", "id": 4353823320, "lat": 48.4570854, "lon": 7.8867791, "tags": {"operator": "Gemeindewerke Schutterwald", "power": "substation", "ref": "Trafostation Berlinerstra\u00dfe"}}, {"type": "node", "id": 4356150318, "lat": 48.2619157, "lon": 7.8546359, "tags": {"power": "substation", "substation": "minor_distribution"}}, {"type": "node", "id": 4368247191, "lat": 48.2652972, "lon": 7.861501, "tags": {"operator": "Badenwerk AG", "power": "substation", "substation": "minor_distribution"}}, {"type": "node", "id": 4382607605, "lat": 47.9781661, "lon": 7.8028632, "tags": {"power": "substation"}}, {"type": "node", "id": 4384317879, "lat": 48.2624768, "lon": 7.8181902, "tags": {"power": "substation"}}, {"type": "node", "id": 4384317975, "lat": 48.2654631, "lon": 7.8161957, "tags": {"operator": "Netze BW GmbH", "operator:wikidata": "Q16854888", "power": "substation"}}, {"type": "node", "id": 4436882699, "lat": 48.1722317, "lon": 7.7769811, "tags": {"name": "Hecklingen Zum Steingr\u00fcble", "operator": "Badenwerk AG", "power": "substation", "substation": "minor_distribution"}}, {"type": "node", "id": 4437375218, "lat": 48.3453379, "lon": 8.0616662, "tags": {"power": "substation", "ref": "Sonne 22"}}, {"type": "node", "id": 4495395541, "lat": 48.4807932, "lon": 7.9567837, "tags": {"power": "substation", "ref": "Edeka Markt"}}, {"type": "node", "id": 4756811855, "lat": 48.4742448, "lon": 7.947351, "tags": {"operator": "E-Werk Mittelbaden", "operator:wikidata": "Q15110012", "power": "substation", "ref": "Carl-Blos-Str. /Aldi Offenburg 215", "voltage": "20000"}}, {"type": "node", "id": 4835244386, "lat": 48.2749152, "lon": 8.0188489, "tags": {"power": "substation"}}, {"type": "node", "id": 5162662802, "lat": 48.1869363, "lon": 7.8946167, "tags": {"power": "substation", "substation": "minor_distribution", "voltage": "20000;400"}}, {"type": "node", "id": 5169472135, "lat": 47.9624817, "lon": 8.0143058, "tags": {"power": "substation"}}, {"type": "node", "id": 5171320016, "lat": 48.3471148, "lon": 7.8753421, "tags": {"addr:city": "Lahr/Schwarzwald", "addr:country": "DE", "addr:housenumber": "13a", "addr:postcode": "77933", "addr:street": "Friesenheimer Weg", "man_made": "street_cabinet", "name": "Friesenheimerweg", "operator": "\u00dcberlandwerk Mittelbaden", "operator:wikidata": "Q124480690", "power": "substation", "ref": "193", "substation": "minor_distribution", "utility": "power", "voltage": "20000;400"}}, {"type": "node", "id": 5209131830, "lat": 48.3403723, "lon": 7.8705601, "tags": {"location": "indoor", "name": "Sparkasse", "operator": "\u00dcberlandwerk Mittelbaden", "operator:wikidata": "Q124480690", "power": "substation", "substation": "minor_distribution", "voltage": "20000;400"}}, {"type": "node", "id": 5319054963, "lat": 48.3425165, "lon": 7.8764454, "tags": {"location": "indoor", "name": "Turmstrasse", "operator": "\u00dcberlandwerk Mittelbaden", "operator:wikidata": "Q124480690", "power": "substation", "substation": "minor_distribution", "voltage": "20000;400"}}, {"type": "node", "id": 5319054969, "lat": 48.3448338, "lon": 7.885201, "tags": {"location": "indoor", "name": "\u00c4rztehaus", "operator": "\u00dcberlandwerk Mittelbaden", "operator:wikidata": "Q124480690", "power": "substation", "ref": "F190", "substation": "minor_distribution", "voltage": "20000;400"}}, {"type": "node", "id": 5319054970, "lat": 48.344709, "lon": 7.8852278, "tags": {"location": "indoor", "name": "Krankenhaus neu", "operator": "\u00dcberlandwerk Mittelbaden", "operator:wikidata": "Q124480690", "power": "substation", "substation": "minor_distribution", "voltage": "20000;400"}}, {"type": "node", "id": 5319054971, "lat": 48.3439605, "lon": 7.8877721, "tags": {"man_made": "street_cabinet", "operator": "\u00dcberlandwerk Mittelbaden", "operator:wikidata": "Q124480690", "power": "substation", "substation": "minor_distribution", "utility": "power", "voltage": "20000;400"}}, {"type": "node", "id": 5366905676, "lat": 48.2217278, "lon": 8.1408002, "tags": {"name": "Umspannanlage M\u00fchlenbach", "operator": "EW Mittelbaden", "power": "substation", "substation": "yes"}}, {"type": "node", "id": 5641367907, "lat": 47.9870574, "lon": 7.2203549, "tags": {"name": "Centre Osenbach", "power": "substation"}}, {"type": "node", "id": 5908128530, "lat": 47.9811586, "lon": 7.2918253, "tags": {"name": "Petit Pfaffeheim", "operator": "Enedis", "power": "substation", "substation": "minor_distribution"}}, {"type": "node", "id": 5924332654, "lat": 48.1467431, "lon": 7.7055775, "tags": {"man_made": "street_cabinet", "operator": "Netze BW GmbH", "operator:wikidata": "Q16854888", "power": "substation", "substation": "minor_distribution", "utility": "power", "voltage": "400"}}, {"type": "node", "id": 5947972533, "lat": 47.9923558, "lon": 7.1309611, "tags": {"building": "kiosk", "operator": "Enedis", "power": "substation", "substation": "minor_distribution", "voltage:primary": "20000", "voltage:secondary": "400"}}, {"type": "node", "id": 5962962060, "lat": 48.1486007, "lon": 7.7035886, "tags": {"man_made": "street_cabinet", "operator": "Badenwerk AG", "power": "substation", "substation": "minor_distribution", "utility": "power", "voltage": "400"}}, {"type": "node", "id": 5962962061, "lat": 48.1493944, "lon": 7.7016822, "tags": {"man_made": "street_cabinet", "operator": "EbBW", "power": "substation", "substation": "minor_distribution", "utility": "power", "voltage": "400"}}, {"type": "node", "id": 5964344308, "lat": 48.1479833, "lon": 7.7096115, "tags": {"man_made": "street_cabinet", "operator": "Netze BW GmbH", "operator:wikidata": "Q16854888", "power": "substation", "substation": "minor_distribution", "utility": "power", "voltage": "400"}}, {"type": "node", "id": 5964344539, "lat": 48.1503544, "lon": 7.7109097, "tags": {"man_made": "street_cabinet", "operator": "Netze BW GmbH", "operator:wikidata": "Q16854888", "power": "substation", "substation": "minor_distribution", "utility": "power", "voltage": "400"}}, {"type": "node", "id": 5964344568, "lat": 48.150673, "lon": 7.705839, "tags": {"man_made": "street_cabinet", "operator": "Netze BW GmbH", "operator:wikidata": "Q16854888", "power": "substation", "substation": "minor_distribution", "utility": "power", "voltage": "400"}}, {"type": "node", "id": 6018951018, "lat": 48.1424352, "lon": 7.7037234, "tags": {"man_made": "street_cabinet", "operator": "EnBW Reginal AG", "power": "substation", "substation": "minor_distribution", "utility": "power", "voltage": "400"}}, {"type": "node", "id": 6044308019, "lat": 47.8715899, "lon": 7.3886504, "tags": {"operator": "Enedis", "power": "substation", "substation": "distribution"}}, {"type": "node", "id": 6044308020, "lat": 47.8686929, "lon": 7.371078, "tags": {"operator": "Enedis", "operator:wikidata": "Q3587594", "power": "substation", "substation": "minor_distribution"}}, {"type": "node", "id": 6069203129, "lat": 48.1371721, "lon": 7.7058779, "tags": {"man_made": "street_cabinet", "operator": "Badenwerk", "power": "substation", "substation": "minor_distribution", "utility": "power", "voltage": "400"}}, {"type": "node", "id": 6070611748, "lat": 48.1368642, "lon": 7.7039292, "tags": {"man_made": "street_cabinet", "power": "substation", "substation": "minor_distribution", "utility": "power", "voltage": "400"}}, {"type": "node", "id": 6087449313, "lat": 48.1431583, "lon": 7.7078017, "tags": {"man_made": "street_cabinet", "operator": "Netze BW GmbH", "operator:wikidata": "Q16854888", "power": "substation", "substation": "minor_distribution", "utility": "power", "voltage": "400"}}, {"type": "node", "id": 6089942068, "lat": 48.1357558, "lon": 7.7020483, "tags": {"man_made": "street_cabinet", "operator": "Badenwerk", "power": "substation", "substation": "minor_distribution", "utility": "power", "voltage": "400"}}, {"type": "node", "id": 6125212452, "lat": 48.1384998, "lon": 7.7036456, "tags": {"man_made": "street_cabinet", "operator": "Netze BW", "operator:wikidata": "Q16854888", "power": "substation", "substation": "minor_distribution", "utility": "power", "voltage": "400"}}, {"type": "node", "id": 6155997342, "lat": 48.138358, "lon": 7.7029657, "tags": {"man_made": "street_cabinet", "operator": "Badenwerk AG", "power": "substation", "substation": "minor_distribution", "utility": "power", "voltage": "400"}}, {"type": "node", "id": 6245165065, "lat": 48.1382523, "lon": 7.6994929, "tags": {"man_made": "street_cabinet", "power": "substation", "substation": "minor_distribution", "utility": "power", "voltage": "400"}}, {"type": "node", "id": 6327467254, "lat": 48.1414553, "lon": 7.6978433, "tags": {"man_made": "street_cabinet", "operator": "EnBW Reginal AG", "power": "substation", "substation": "minor_distribution", "utility": "power", "voltage": "400"}}, {"type": "node", "id": 6440900010, "lat": 47.7540018, "lon": 7.3832338, "tags": {"name": "Entremont", "power": "substation", "substation": "minor_distribution"}}, {"type": "node", "id": 6513895736, "lat": 48.1471449, "lon": 7.6955473, "tags": {"fixme": "Aufschrift: \"Sonderabnehmerstation\". Evtl m\u00fcssen die Tags angepasst werden.", "man_made": "street_cabinet", "power": "substation", "street_cabinet": "power", "substation": "minor_distribution", "voltage": "400"}}, {"type": "node", "id": 6513895741, "lat": 48.1462192, "lon": 7.6978286, "tags": {"man_made": "street_cabinet", "power": "substation", "substation": "minor_distribution", "utility": "power", "voltage": "400"}}, {"type": "node", "id": 6611526055, "lat": 47.7498383, "lon": 7.3386861, "tags": {"description": "Sous-station souterraine.", "power": "substation", "substation": "traction"}}, {"type": "node", "id": 6743679984, "lat": 48.1500189, "lon": 7.694681, "tags": {"man_made": "street_cabinet", "power": "substation", "substation": "minor_distribution", "utility": "power", "voltage": "400"}}, {"type": "node", "id": 6743752516, "lat": 48.149525, "lon": 7.696065, "tags": {"man_made": "street_cabinet", "power": "substation", "substation": "minor_distribution", "utility": "power", "voltage": "400"}}, {"type": "node", "id": 6743752524, "lat": 48.149457, "lon": 7.6963507, "tags": {"man_made": "street_cabinet", "operator": "EnBW", "power": "substation", "substation": "minor_distribution", "utility": "power", "voltage": "400"}}, {"type": "node", "id": 6743752539, "lat": 48.1494158, "lon": 7.6994728, "tags": {"man_made": "street_cabinet", "power": "substation", "substation": "minor_distribution", "utility": "power", "voltage": "400"}}, {"type": "node", "id": 6743769523, "lat": 48.1511597, "lon": 7.6977199, "tags": {"man_made": "street_cabinet", "power": "substation", "substation": "minor_distribution", "utility": "power", "voltage": "400"}}, {"type": "node", "id": 6743769526, "lat": 48.1520003, "lon": 7.6987533, "tags": {"man_made": "street_cabinet", "power": "substation", "substation": "minor_distribution", "utility": "power", "voltage": "400"}}, {"type": "node", "id": 6743802609, "lat": 48.153613, "lon": 7.6965505, "tags": {"man_made": "street_cabinet", "power": "substation", "substation": "minor_distribution", "utility": "power", "voltage": "400"}}, {"type": "node", "id": 6743802621, "lat": 48.1532498, "lon": 7.6994795, "tags": {"man_made": "street_cabinet", "operator": "EnBW", "power": "substation", "substation": "minor_distribution", "utility": "power", "voltage": "400"}}, {"type": "node", "id": 6743802622, "lat": 48.1531854, "lon": 7.6999891, "tags": {"man_made": "street_cabinet", "power": "substation", "substation": "minor_distribution", "utility": "power", "voltage": "400"}}, {"type": "node", "id": 6743802631, "lat": 48.1532042, "lon": 7.7010794, "tags": {"man_made": "street_cabinet", "operator": "EnBW", "power": "substation", "substation": "minor_distribution", "utility": "power", "voltage": "400"}}, {"type": "node", "id": 6855587373, "lat": 48.1500377, "lon": 7.6918861, "tags": {"man_made": "street_cabinet", "power": "substation", "substation": "minor_distribution", "utility": "power", "voltage": "400"}}, {"type": "node", "id": 6855617817, "lat": 48.1502229, "lon": 7.6905182, "tags": {"man_made": "street_cabinet", "power": "substation", "substation": "minor_distribution", "utility": "power", "voltage": "400"}}, {"type": "node", "id": 6855617836, "lat": 48.1487975, "lon": 7.6915093, "tags": {"man_made": "street_cabinet", "power": "substation", "substation": "minor_distribution", "utility": "power", "voltage": "400"}}, {"type": "node", "id": 6858764231, "lat": 48.133273, "lon": 7.7106335, "tags": {"man_made": "street_cabinet", "power": "substation", "substation": "minor_distribution", "utility": "power", "voltage": "400"}}, {"type": "node", "id": 6903638650, "lat": 48.1512438, "lon": 7.7190918, "tags": {"man_made": "street_cabinet", "operator": "EnBW", "power": "substation", "substation": "minor_distribution", "utility": "power", "voltage": "400"}}, {"type": "node", "id": 7214586248, "lat": 48.1281991, "lon": 7.8279787, "tags": {"power": "substation", "ref": "Karl-Friedrich-Str. 97 Rewe", "substation": "minor_distribution"}}, {"type": "node", "id": 7404755067, "lat": 47.745454, "lon": 7.2177236, "tags": {"operator": "Enedis", "operator:wikidata": "Q3587594", "power": "substation", "source": "Enedis - 06/2018", "substation": "minor_distribution", "voltage": "20000;400"}}, {"type": "node", "id": 7798647305, "lat": 48.4257293, "lon": 7.7000313, "tags": {"location": "overground", "operator": "UME", "phases": "3", "power": "substation", "ref": "NAVIGATION", "substation": "distribution"}}, {"type": "node", "id": 7798647340, "lat": 48.4262302, "lon": 7.7025206, "tags": {"location": "overground", "operator": "UME", "phases": "3", "power": "substation", "substation": "distribution"}}, {"type": "node", "id": 7798647341, "lat": 48.4245694, "lon": 7.7015648, "tags": {"location": "overground", "operator": "UME", "phases": "3", "power": "substation", "substation": "distribution"}}, {"type": "node", "id": 7807817064, "lat": 48.0033748, "lon": 7.8552918, "tags": {"frequency": "50", "location": "underground", "operator": "bnNETZE", "operator:wikidata": "Q57712950", "power": "substation", "ref": "Freiburg TS W\u00f6lflinstra\u00dfe 1x", "substation": "minor_distribution", "voltage": "20000;400"}}, {"type": "node", "id": 7884821472, "lat": 47.9077043, "lon": 7.6615727, "tags": {"frequency": "50", "operator": "bnNETZE", "operator:wikidata": "Q57712950", "power": "substation", "ref": "Tunsel, Burgstra\u00dfe 200x", "substation": "minor_distribution", "voltage": "20000;400"}}, {"type": "node", "id": 7884821473, "lat": 47.9261345, "lon": 7.6981654, "tags": {"frequency": "50", "operator": "bnNETZE GmbH", "power": "substation", "ref": "Hildegard-von-Bingen-Stra\u00dfe 100x", "substation": "minor_distribution", "voltage": "20000;400"}}, {"type": "node", "id": 7893868690, "lat": 48.017635, "lon": 7.8328351, "tags": {"frequency": "50", "operator": "bnNETZE", "operator:wikidata": "Q57712950", "power": "substation", "ref": "Achim-Stocker-Stra\u00dfe 100x", "substation": "minor_distribution", "voltage": "20000;400"}}, {"type": "node", "id": 7893868691, "lat": 48.0134975, "lon": 7.8363545, "tags": {"frequency": "50", "operator": "bnNETZE", "operator:wikidata": "Q57712950", "power": "substation", "ref": "Madisonallee 100x", "substation": "minor_distribution", "voltage": "20000;400"}}, {"type": "node", "id": 7900321687, "lat": 47.9203188, "lon": 7.7885868, "tags": {"frequency": "50", "operator": "ED Netze GmbH", "power": "substation", "ref": "Station Stuben Bollschweil", "substation": "minor_distribution", "voltage": "20000;400"}}, {"type": "node", "id": 8073008359, "lat": 48.0214516, "lon": 7.8265209, "tags": {"building": "service", "building:levels": "1", "frequency": "50", "operator": "bnNETZE", "operator:wikidata": "Q57712950", "power": "substation", "ref": "Freiburg Im Wolfswinkel 37x", "substation": "minor_distribution", "voltage": "20000;400"}}, {"type": "node", "id": 8150119764, "lat": 48.1229166, "lon": 8.0965262, "tags": {"name": "Station Simonswald Wasserkraftwerk Volk", "power": "substation"}}, {"type": "node", "id": 8412394992, "lat": 48.0123181, "lon": 7.8497419, "tags": {"frequency": "50", "operator": "bnNETZE", "operator:wikidata": "Q57712950", "power": "substation", "ref": "TS G\u00fcterhallenstra\u00dfe 4x", "substation": "minor_distribution", "voltage": "20000;400"}}, {"type": "node", "id": 8412394996, "lat": 48.0326932, "lon": 7.7601317, "tags": {"frequency": "50", "operator": "bnNETZE", "operator:wikidata": "Q57712950", "power": "substation", "ref": "Umkirch Dachswanger Weg 8x", "substation": "minor_distribution", "voltage": "20000;400"}}, {"type": "node", "id": 8412394999, "lat": 47.9913987, "lon": 7.855507, "tags": {"frequency": "50", "operator": "bnNETZE", "operator:wikidata": "Q57712950", "power": "substation", "ref": "Granatg\u00e4ssle 6", "substation": "minor_distribution", "voltage": "20000;400"}}, {"type": "node", "id": 8412395004, "lat": 48.0009806, "lon": 7.8477065, "tags": {"frequency": "50", "operator": "bnNETZE", "operator:wikidata": "Q57712950", "power": "substation", "ref": "TS Hebelstr. 29x", "substation": "minor_distribution", "voltage": "20000;400"}}, {"type": "node", "id": 8412395006, "lat": 48.0145427, "lon": 7.8482369, "tags": {"frequency": "50", "operator": "bnNETZE", "operator:wikidata": "Q57712950", "power": "substation", "ref": "Ellen-Gottlieb-Str. 15x", "substation": "minor_distribution", "voltage": "20000;400"}}, {"type": "node", "id": 8412395007, "lat": 48.0117174, "lon": 7.8455686, "tags": {"man_made": "street_cabinet", "model": "KVz 82 UP/PU", "operator": "Vodafone Deutschland", "operator:wikidata": "Q1560372", "power": "substation", "ref": "51.125", "telecom:medium": "coaxial", "utility": "telecom"}}, {"type": "node", "id": 8437191274, "lat": 47.9873157, "lon": 7.8163081, "tags": {"frequency": "50", "operator": "bnNETZE", "operator:wikidata": "Q57712950", "power": "substation", "ref": "Freiburg Belchenstr. 10x 303 S 155", "substation": "minor_distribution", "voltage": "20000;400"}}, {"type": "node", "id": 8437191278, "lat": 47.989632, "lon": 7.823497, "tags": {"frequency": "50", "operator": "bnNETZE", "operator:wikidata": "Q57712950", "power": "substation", "substation": "minor_distribution", "voltage": "20000;400"}}, {"type": "node", "id": 8437191286, "lat": 47.9852611, "lon": 7.8091933, "tags": {"frequency": "50", "operator": "bnNETZE", "operator:wikidata": "Q57712950", "power": "substation", "substation": "minor_distribution", "voltage": "20000;400"}}, {"type": "node", "id": 8437191289, "lat": 47.984547, "lon": 7.8106825, "tags": {"frequency": "50", "operator": "bnNETZE", "operator:wikidata": "Q57712950", "power": "substation", "ref": "Freiburg Am Kirchacker 4x Caritas", "voltage": "20000;400"}}, {"type": "node", "id": 8442127316, "lat": 48.0647822, "lon": 7.8999509, "tags": {"frequency": "50", "operator": "Energieversorgung Denzlingen GmbH & Co. Netz KG", "power": "substation", "ref": "DENZL-E-UST-096 Umspannstation Denzlingen Elzstr.", "substation": "minor_distribution", "voltage": "20000;400"}}, {"type": "node", "id": 8448027570, "lat": 48.0380892, "lon": 7.8650702, "tags": {"frequency": "50", "power": "substation", "substation": "minor_distribution", "voltage": "20000;400"}}, {"type": "node", "id": 8448027574, "lat": 48.0524978, "lon": 7.9267973, "tags": {"frequency": "50", "operator": "Netze BW GmbH", "operator:wikidata": "Q16854888", "power": "substation", "ref": "FOEHR-E-UST-007 Umspannstation F\u00f6hrental Landstra\u00dfe 14a", "substation": "minor_distribution", "voltage": "20000;400"}}, {"type": "node", "id": 8448027578, "lat": 48.0488028, "lon": 7.9465576, "tags": {"frequency": "50", "power": "substation", "ref": "UGLOT-E-UST-016 Umspannstation Unterglottertal Talstr. 57b, REWE", "substation": "minor_distribution", "voltage": "20000;400"}}, {"type": "node", "id": 8448027579, "lat": 48.0646307, "lon": 8.0163303, "tags": {"frequency": "50", "operator": "bnNETZE", "operator:wikidata": "Q57712950", "operator:wikipedia": "de:Bn Netze", "power": "substation", "ref": "Untersimonswald Kandel 1x", "substation": "minor_distribution", "voltage": "20000;400"}}, {"type": "node", "id": 8448027580, "lat": 48.0307582, "lon": 7.8629404, "tags": {"frequency": "50", "operator": "bnNETZE", "operator:wikidata": "Q57712950", "power": "substation", "ref": "Freiburg Gundelfinger Str. 27x Containerwohnheim", "substation": "minor_distribution", "voltage": "20000;400"}}, {"type": "node", "id": 8508436142, "lat": 47.9972915, "lon": 7.8379179, "tags": {"addr:city": "Freiburg im Breisgau", "addr:country": "DE", "addr:housenumber": "2v", "addr:postcode": "79106", "addr:street": "Amalie-Gramm-Weg", "layer": "-1", "level": "-0.5", "location": "indoor", "power": "substation", "substation": "minor_distribution"}}, {"type": "node", "id": 8514648263, "lat": 48.1054818, "lon": 7.7598308, "tags": {"frequency": "50", "operator": "EnBW Regional AG", "power": "substation", "ref": "Umspannstation Nimburg Breisacher Str. 40", "substation": "minor_distribution", "voltage": "20000;400"}}, {"type": "node", "id": 8568861232, "lat": 47.7417291, "lon": 7.3048139, "tags": {"location": "indoor", "operator": "Enedis", "operator:wikidata": "Q3587594", "power": "substation", "substation": "minor_distribution", "voltage": "20000;400"}}, {"type": "node", "id": 8625107514, "lat": 48.0432647, "lon": 8.0707815, "tags": {"frequency": "50", "location": "indoor", "operator": "EnBW Regional AG", "power": "substation", "ref": "Umspannstation St. Peter Gschwinghof", "substation": "minor_distribution", "voltage": "20000;400"}}, {"type": "node", "id": 8625136517, "lat": 48.016036, "lon": 7.8347519, "tags": {"addr:city": "Freiburg im Breisgau", "addr:housenumber": "100x", "addr:street": "Suwonallee", "frequency": "50", "location": "indoor", "operator": "bnNETZE", "operator:wikidata": "Q57712950", "power": "substation", "substation": "minor_distribution", "voltage": "20000;400"}}, {"type": "node", "id": 8662758629, "lat": 48.0282557, "lon": 7.8101916, "tags": {"frequency": "50", "location": "indoor", "operator": "bnNETZE", "operator:wikidata": "Q57712950", "power": "substation", "ref": "Freiburg Wirthstr. 2x", "substation": "minor_distribution", "voltage": "20000;400"}}, {"type": "node", "id": 8662758639, "lat": 48.0206167, "lon": 7.7959476, "tags": {"frequency": "50", "location": "indoor", "operator": "bnNETZE", "operator:wikidata": "Q57712950", "power": "substation", "substation": "minor_distribution", "voltage": "20000;400"}}, {"type": "node", "id": 8662758647, "lat": 48.0482141, "lon": 7.7803816, "tags": {"frequency": "50", "location": "indoor", "operator": "Netze BW GmbH", "operator:wikidata": "Q16854888", "power": "substation", "ref": "Umspannstation Hugstetten Im Bemmenstein 2 HUGST-E-UST-022", "substation": "minor_distribution", "voltage": "20000;400"}}, {"type": "node", "id": 8680723843, "lat": 48.0129006, "lon": 7.851255, "tags": {"frequency": "50", "location": "indoor", "operator": "bnNETZE", "operator:wikidata": "Q57712950", "power": "substation", "substation": "minor_distribution", "voltage": "20000;400"}}, {"type": "node", "id": 8758389260, "lat": 47.7309251, "lon": 7.3305254, "tags": {"location": "indoor", "name": "Patrouille", "operator": "Enedis", "operator:wikidata": "Q3587594", "power": "substation", "source": "Enedis - 2021-01", "substation": "minor_distribution", "voltage:primary": "20000", "voltage:secondary": "400"}}, {"type": "node", "id": 8771242487, "lat": 48.0302819, "lon": 7.9055007, "tags": {"frequency": "50", "location": "indoor", "power": "substation", "substation": "minor_distribution", "voltage": "20000;400"}}, {"type": "node", "id": 8923594121, "lat": 47.7428779, "lon": 7.270206, "tags": {"man_made": "street_cabinet", "name": "Lauber", "operator": "Enedis", "operator:wikidata": "Q3587594", "power": "substation", "substation": "distribution", "utility": "power", "voltage": "20000"}}, {"type": "node", "id": 9022132762, "lat": 48.0178064, "lon": 7.8505829, "tags": {"addr:housenumber": "300x", "addr:street": "Berta-Ottenstein-Stra\u00dfe", "frequency": "50", "location": "indoor", "operator": "bnNETZE", "operator:wikidata": "Q57712950", "power": "substation", "ref": "Freiburg TS Berta-Ottenstein-Str. 300x", "substation": "minor_distribution", "voltage": "20000;400"}}, {"type": "node", "id": 9120360096, "lat": 48.030421, "lon": 7.8631643, "tags": {"frequency": "50", "location": "indoor", "operator": "bnNETZE", "operator:wikidata": "Q57712950", "power": "substation", "ref": "Freiburg Gundelfinger Str. 27x", "substation": "minor_distribution", "voltage": "20000;400"}}, {"type": "node", "id": 9235840512, "lat": 47.9192796, "lon": 7.7064639, "tags": {"operator": "Badenova", "power": "substation", "ref": "Bad Krozingen Friedenstrasse 27 x Rewe"}}, {"type": "node", "id": 9894303033, "lat": 48.013393, "lon": 7.8513056, "tags": {"frequency": "50", "location": "indoor", "operator": "bnNETZE", "operator:wikidata": "Q57712950", "power": "substation", "ref": "Freiburg Elisabeth-Geissler-Ruckmich-Str. 6x", "substation": "minor_distribution", "voltage": "20000;400"}}, {"type": "node", "id": 9967869248, "lat": 48.2838822, "lon": 8.0284362, "tags": {"power": "substation"}}, {"type": "node", "id": 10046387612, "lat": 48.0138768, "lon": 7.8443449, "tags": {"frequency": "50", "location": "indoor", "operator": "bnNETZE", "operator:wikidata": "Q57712950", "power": "substation", "ref": "Freiburg Paul-Ehrlich-Str. 5x", "substation": "minor_distribution", "voltage": "20000;400"}}, {"type": "node", "id": 10055708018, "lat": 48.3343272, "lon": 7.2848112, "tags": {"man_made": "street_cabinet", "operator": "Enedis", "power": "substation", "source": "Exploitants contributeurs de l'Agence ORE - 2022-02 - Enedis", "street_cabinet": "power", "voltage": "20000"}}, {"type": "node", "id": 10138147345, "lat": 48.4375025, "lon": 8.0348508, "tags": {"power": "substation"}}, {"type": "node", "id": 10146395492, "lat": 47.950186, "lon": 7.9113535, "tags": {"frequency": "50", "location": "indoor", "operator": "bnNETZE GmbH", "power": "substation", "ref": "Kappel Butzenhofstra\u00dfe 41x", "substation": "minor_distribution", "voltage": "20000;400"}}, {"type": "node", "id": 10862273388, "lat": 48.0504046, "lon": 7.1377047, "tags": {"name": "Haslach", "operator": "Enedis", "operator:wikidata": "Q3587594", "power": "substation", "substation": "minor_distribution"}}, {"type": "node", "id": 10868989475, "lat": 48.0443401, "lon": 7.1406258, "tags": {"name": "Narrenstein", "operator": "Enedis", "operator:wikidata": "Q3587594", "power": "substation", "substation": "minor_distribution"}}, {"type": "node", "id": 10878368266, "lat": 48.0421567, "lon": 7.1511573, "tags": {"operator": "Enedis", "operator:wikidata": "Q3587594", "power": "substation", "source": "Exploitants contributeurs de l'Agence ORE - 2022-07 - Enedis", "substation": "minor_distribution", "voltage": "20000"}}, {"type": "node", "id": 10878368274, "lat": 48.0397672, "lon": 7.1503832, "tags": {"operator": "Enedis", "operator:wikidata": "Q3587594", "power": "substation", "source": "Exploitants contributeurs de l'Agence ORE - 2022-07 - Enedis", "substation": "minor_distribution", "voltage": "20000"}}, {"type": "node", "id": 10879626788, "lat": 48.0347528, "lon": 7.1299288, "tags": {"operator": "Enedis", "operator:wikidata": "Q3587594", "power": "substation", "source": "Exploitants contributeurs de l'Agence ORE - 2022-07 - Enedis", "substation": "minor_distribution", "voltage": "20000"}}, {"type": "node", "id": 11218274888, "lat": 48.3610393, "lon": 7.5889472, "tags": {"operator": "Strasbourg \u00c9lectricit\u00e9 R\u00e9seaux", "power": "substation", "ref": "216002", "source": "Exploitants contributeurs de l'Agence ORE - 2022-07 - Strasbourg \u00c9lectricit\u00e9 R\u00e9seaux", "substation": "minor_distribution", "voltage": "20000"}}, {"type": "node", "id": 11218274890, "lat": 48.3614827, "lon": 7.577741, "tags": {"operator": "Strasbourg \u00c9lectricit\u00e9 R\u00e9seaux", "power": "substation", "ref": "216003", "source": "Exploitants contributeurs de l'Agence ORE - 2022-07 - Strasbourg \u00c9lectricit\u00e9 R\u00e9seaux", "substation": "minor_distribution", "voltage": "20000"}}, {"type": "node", "id": 11218274891, "lat": 48.3619228, "lon": 7.5818839, "tags": {"operator": "Strasbourg \u00c9lectricit\u00e9 R\u00e9seaux", "power": "substation", "ref": "216012", "source": "Exploitants contributeurs de l'Agence ORE - 2022-07 - Strasbourg \u00c9lectricit\u00e9 R\u00e9seaux", "substation": "minor_distribution", "voltage": "20000"}}, {"type": "node", "id": 11218275716, "lat": 48.3536519, "lon": 7.5790881, "tags": {"operator": "Strasbourg \u00c9lectricit\u00e9 R\u00e9seaux", "power": "substation", "ref": "216020", "source": "Exploitants contributeurs de l'Agence ORE - 2022-07 - Strasbourg \u00c9lectricit\u00e9 R\u00e9seaux", "substation": "minor_distribution", "voltage": "20000"}}, {"type": "node", "id": 11218275717, "lat": 48.3535415, "lon": 7.584974, "tags": {"operator": "Strasbourg \u00c9lectricit\u00e9 R\u00e9seaux", "power": "substation", "ref": "216011", "source": "Exploitants contributeurs de l'Agence ORE - 2022-07 - Strasbourg \u00c9lectricit\u00e9 R\u00e9seaux", "substation": "minor_distribution", "voltage": "20000"}}, {"type": "node", "id": 11218275718, "lat": 48.3572988, "lon": 7.5784201, "tags": {"operator": "Strasbourg \u00c9lectricit\u00e9 R\u00e9seaux", "power": "substation", "ref": "216015", "source": "Exploitants contributeurs de l'Agence ORE - 2022-07 - Strasbourg \u00c9lectricit\u00e9 R\u00e9seaux", "substation": "minor_distribution", "voltage": "20000"}}, {"type": "node", "id": 11218275719, "lat": 48.3571745, "lon": 7.5814427, "tags": {"operator": "Strasbourg \u00c9lectricit\u00e9 R\u00e9seaux", "power": "substation", "ref": "216001", "source": "Exploitants contributeurs de l'Agence ORE - 2022-07 - Strasbourg \u00c9lectricit\u00e9 R\u00e9seaux", "substation": "minor_distribution", "voltage": "20000"}}, {"type": "node", "id": 11218335868, "lat": 48.3598444, "lon": 7.5710769, "tags": {"operator": "Strasbourg \u00c9lectricit\u00e9 R\u00e9seaux", "power": "substation", "ref": "216009", "source": "Exploitants contributeurs de l'Agence ORE - 2022-07 - Strasbourg \u00c9lectricit\u00e9 R\u00e9seaux", "substation": "minor_distribution", "voltage": "20000"}}, {"type": "node", "id": 11218335869, "lat": 48.3592057, "lon": 7.5789841, "tags": {"operator": "Strasbourg \u00c9lectricit\u00e9 R\u00e9seaux", "power": "substation", "ref": "216004", "source": "Exploitants contributeurs de l'Agence ORE - 2022-07 - Strasbourg \u00c9lectricit\u00e9 R\u00e9seaux", "substation": "minor_distribution", "voltage": "20000"}}, {"type": "node", "id": 11218335870, "lat": 48.3621467, "lon": 7.5728933, "tags": {"operator": "Strasbourg \u00c9lectricit\u00e9 R\u00e9seaux", "power": "substation", "ref": "216025", "source": "Exploitants contributeurs de l'Agence ORE - 2022-07 - Strasbourg \u00c9lectricit\u00e9 R\u00e9seaux", "substation": "minor_distribution", "voltage": "20000"}}, {"type": "node", "id": 11220944064, "lat": 48.3652613, "lon": 7.5839869, "tags": {"operator": "Strasbourg \u00c9lectricit\u00e9 R\u00e9seaux", "power": "substation", "ref": "216006", "source": "Exploitants contributeurs de l'Agence ORE - 2022-07 - Strasbourg \u00c9lectricit\u00e9 R\u00e9seaux", "substation": "minor_distribution", "voltage": "20000"}}, {"type": "node", "id": 11220996908, "lat": 48.3664314, "lon": 7.5870638, "tags": {"operator": "Strasbourg \u00c9lectricit\u00e9 R\u00e9seaux", "power": "substation", "ref": "216016", "source": "Exploitants contributeurs de l'Agence ORE - 2022-07 - Strasbourg \u00c9lectricit\u00e9 R\u00e9seaux", "substation": "minor_distribution", "voltage": "20000"}}, {"type": "node", "id": 11220999230, "lat": 48.3682754, "lon": 7.5809927, "tags": {"operator": "Strasbourg \u00c9lectricit\u00e9 R\u00e9seaux", "power": "substation", "ref": "216022", "source": "Exploitants contributeurs de l'Agence ORE - 2022-07 - Strasbourg \u00c9lectricit\u00e9 R\u00e9seaux", "substation": "minor_distribution", "voltage": "20000"}}, {"type": "node", "id": 11220999308, "lat": 48.3681998, "lon": 7.5786294, "tags": {"operator": "Strasbourg \u00c9lectricit\u00e9 R\u00e9seaux", "power": "substation", "ref": "216023", "source": "Exploitants contributeurs de l'Agence ORE - 2022-07 - Strasbourg \u00c9lectricit\u00e9 R\u00e9seaux", "substation": "minor_distribution", "voltage": "20000"}}, {"type": "node", "id": 11221010823, "lat": 48.3694021, "lon": 7.5812454, "tags": {"operator": "Strasbourg \u00c9lectricit\u00e9 R\u00e9seaux", "power": "substation", "ref": "216014", "source": "Exploitants contributeurs de l'Agence ORE - 2022-07 - Strasbourg \u00c9lectricit\u00e9 R\u00e9seaux", "substation": "minor_distribution", "voltage": "20000"}}, {"type": "node", "id": 11221024378, "lat": 48.3675698, "lon": 7.5807957, "tags": {"operator": "Strasbourg \u00c9lectricit\u00e9 R\u00e9seaux", "power": "substation", "ref": "216007", "source": "Exploitants contributeurs de l'Agence ORE - 2022-07 - Strasbourg \u00c9lectricit\u00e9 R\u00e9seaux", "substation": "minor_distribution", "voltage": "20000"}}, {"type": "node", "id": 11221027150, "lat": 48.3635195, "lon": 7.5895146, "tags": {"operator": "Strasbourg \u00c9lectricit\u00e9 R\u00e9seaux", "power": "substation", "ref": "216013", "source": "Exploitants contributeurs de l'Agence ORE - 2022-07 - Strasbourg \u00c9lectricit\u00e9 R\u00e9seaux", "substation": "minor_distribution", "voltage": "20000"}}, {"type": "node", "id": 11221093894, "lat": 48.3741252, "lon": 7.5881702, "tags": {"operator": "Strasbourg \u00c9lectricit\u00e9 R\u00e9seaux", "power": "substation", "ref": "028037", "source": "Exploitants contributeurs de l'Agence ORE - 2022-07 - Strasbourg \u00c9lectricit\u00e9 R\u00e9seaux", "substation": "minor_distribution", "voltage": "20000"}}, {"type": "node", "id": 11221093895, "lat": 48.3695608, "lon": 7.5888907, "tags": {"operator": "Strasbourg \u00c9lectricit\u00e9 R\u00e9seaux", "power": "substation", "ref": "028028", "source": "Exploitants contributeurs de l'Agence ORE - 2022-07 - Strasbourg \u00c9lectricit\u00e9 R\u00e9seaux", "substation": "minor_distribution", "voltage": "20000"}}, {"type": "node", "id": 11221093896, "lat": 48.3749046, "lon": 7.593757, "tags": {"operator": "Strasbourg \u00c9lectricit\u00e9 R\u00e9seaux", "operator:wikidata": "Q107352347", "power": "substation", "ref": "028044", "source": "Exploitants contributeurs de l'Agence ORE - 2022-07 - Strasbourg \u00c9lectricit\u00e9 R\u00e9seaux", "substation": "minor_distribution", "voltage": "20000"}}, {"type": "node", "id": 11221093897, "lat": 48.374476, "lon": 7.5822424, "tags": {"operator": "Strasbourg \u00c9lectricit\u00e9 R\u00e9seaux", "power": "substation", "ref": "028013", "source": "Exploitants contributeurs de l'Agence ORE - 2022-07 - Strasbourg \u00c9lectricit\u00e9 R\u00e9seaux", "substation": "minor_distribution", "voltage": "20000"}}, {"type": "node", "id": 11221093898, "lat": 48.3772456, "lon": 7.5952016, "tags": {"operator": "Strasbourg \u00c9lectricit\u00e9 R\u00e9seaux", "power": "substation", "ref": "028038", "source": "Exploitants contributeurs de l'Agence ORE - 2022-07 - Strasbourg \u00c9lectricit\u00e9 R\u00e9seaux", "substation": "minor_distribution", "voltage": "20000"}}, {"type": "node", "id": 11221093899, "lat": 48.3680895, "lon": 7.5955695, "tags": {"operator": "Strasbourg \u00c9lectricit\u00e9 R\u00e9seaux", "power": "substation", "ref": "028035", "source": "Exploitants contributeurs de l'Agence ORE - 2022-07 - Strasbourg \u00c9lectricit\u00e9 R\u00e9seaux", "substation": "minor_distribution", "voltage": "20000"}}, {"type": "node", "id": 11221093900, "lat": 48.3712419, "lon": 7.5828762, "tags": {"operator": "Strasbourg \u00c9lectricit\u00e9 R\u00e9seaux", "power": "substation", "ref": "028051", "source": "Exploitants contributeurs de l'Agence ORE - 2022-07 - Strasbourg \u00c9lectricit\u00e9 R\u00e9seaux", "substation": "minor_distribution", "voltage": "20000"}}, {"type": "node", "id": 11221093901, "lat": 48.3773574, "lon": 7.5949874, "tags": {"operator": "Strasbourg \u00c9lectricit\u00e9 R\u00e9seaux", "power": "substation", "ref": "028024", "source": "Exploitants contributeurs de l'Agence ORE - 2022-07 - Strasbourg \u00c9lectricit\u00e9 R\u00e9seaux", "substation": "minor_distribution", "voltage": "20000"}}, {"type": "node", "id": 11221093902, "lat": 48.367719, "lon": 7.592963, "tags": {"operator": "Strasbourg \u00c9lectricit\u00e9 R\u00e9seaux", "power": "substation", "ref": "028031", "source": "Exploitants contributeurs de l'Agence ORE - 2022-07 - Strasbourg \u00c9lectricit\u00e9 R\u00e9seaux", "substation": "minor_distribution", "voltage": "20000"}}, {"type": "node", "id": 11221093903, "lat": 48.3721392, "lon": 7.5871988, "tags": {"operator": "Strasbourg \u00c9lectricit\u00e9 R\u00e9seaux", "power": "substation", "ref": "028026", "source": "Exploitants contributeurs de l'Agence ORE - 2022-07 - Strasbourg \u00c9lectricit\u00e9 R\u00e9seaux", "substation": "minor_distribution", "voltage": "20000"}}, {"type": "node", "id": 11221093904, "lat": 48.3778117, "lon": 7.5926867, "tags": {"operator": "Strasbourg \u00c9lectricit\u00e9 R\u00e9seaux", "power": "substation", "ref": "028049", "source": "Exploitants contributeurs de l'Agence ORE - 2022-07 - Strasbourg \u00c9lectricit\u00e9 R\u00e9seaux", "substation": "minor_distribution", "voltage": "20000"}}, {"type": "node", "id": 11221093905, "lat": 48.3706455, "lon": 7.5913268, "tags": {"operator": "Strasbourg \u00c9lectricit\u00e9 R\u00e9seaux", "power": "substation", "ref": "028042", "source": "Exploitants contributeurs de l'Agence ORE - 2022-07 - Strasbourg \u00c9lectricit\u00e9 R\u00e9seaux", "substation": "minor_distribution", "voltage": "20000"}}, {"type": "node", "id": 11221093906, "lat": 48.372974, "lon": 7.5834605, "tags": {"operator": "Strasbourg \u00c9lectricit\u00e9 R\u00e9seaux", "power": "substation", "ref": "028034", "source": "Exploitants contributeurs de l'Agence ORE - 2022-07 - Strasbourg \u00c9lectricit\u00e9 R\u00e9seaux", "substation": "minor_distribution", "voltage": "20000"}}, {"type": "node", "id": 11221093907, "lat": 48.3666254, "lon": 7.5958833, "tags": {"operator": "Strasbourg \u00c9lectricit\u00e9 R\u00e9seaux", "power": "substation", "ref": "028022", "source": "Exploitants contributeurs de l'Agence ORE - 2022-07 - Strasbourg \u00c9lectricit\u00e9 R\u00e9seaux", "substation": "minor_distribution", "voltage": "20000"}}, {"type": "node", "id": 11221093908, "lat": 48.3730064, "lon": 7.5856822, "tags": {"operator": "Strasbourg \u00c9lectricit\u00e9 R\u00e9seaux", "power": "substation", "ref": "028014", "source": "Exploitants contributeurs de l'Agence ORE - 2022-07 - Strasbourg \u00c9lectricit\u00e9 R\u00e9seaux", "substation": "minor_distribution", "voltage": "20000"}}, {"type": "node", "id": 11221093909, "lat": 48.3795915, "lon": 7.5962671, "tags": {"operator": "Strasbourg \u00c9lectricit\u00e9 R\u00e9seaux", "power": "substation", "ref": "028009", "source": "Exploitants contributeurs de l'Agence ORE - 2022-07 - Strasbourg \u00c9lectricit\u00e9 R\u00e9seaux", "substation": "minor_distribution", "voltage": "20000"}}, {"type": "node", "id": 11221093910, "lat": 48.3664562, "lon": 7.5908674, "tags": {"operator": "Strasbourg \u00c9lectricit\u00e9 R\u00e9seaux", "power": "substation", "ref": "028039", "source": "Exploitants contributeurs de l'Agence ORE - 2022-07 - Strasbourg \u00c9lectricit\u00e9 R\u00e9seaux", "substation": "minor_distribution", "voltage": "20000"}}, {"type": "node", "id": 11221093911, "lat": 48.3688938, "lon": 7.5961788, "tags": {"operator": "Strasbourg \u00c9lectricit\u00e9 R\u00e9seaux", "power": "substation", "ref": "028027", "source": "Exploitants contributeurs de l'Agence ORE - 2022-07 - Strasbourg \u00c9lectricit\u00e9 R\u00e9seaux", "substation": "minor_distribution", "voltage": "20000"}}, {"type": "node", "id": 11221093912, "lat": 48.3695856, "lon": 7.5930714, "tags": {"operator": "Strasbourg \u00c9lectricit\u00e9 R\u00e9seaux", "power": "substation", "ref": "028001", "source": "Exploitants contributeurs de l'Agence ORE - 2022-07 - Strasbourg \u00c9lectricit\u00e9 R\u00e9seaux", "substation": "minor_distribution", "voltage": "20000"}}, {"type": "node", "id": 11221093913, "lat": 48.3694719, "lon": 7.5924978, "tags": {"operator": "Strasbourg \u00c9lectricit\u00e9 R\u00e9seaux", "power": "substation", "ref": "028046", "source": "Exploitants contributeurs de l'Agence ORE - 2022-07 - Strasbourg \u00c9lectricit\u00e9 R\u00e9seaux", "substation": "minor_distribution", "voltage": "20000"}}, {"type": "node", "id": 11221093914, "lat": 48.3704436, "lon": 7.5963801, "tags": {"operator": "Strasbourg \u00c9lectricit\u00e9 R\u00e9seaux", "power": "substation", "ref": "028045", "source": "Exploitants contributeurs de l'Agence ORE - 2022-07 - Strasbourg \u00c9lectricit\u00e9 R\u00e9seaux", "substation": "minor_distribution", "voltage": "20000"}}, {"type": "node", "id": 11221095437, "lat": 48.3694627, "lon": 7.6017435, "tags": {"operator": "Strasbourg \u00c9lectricit\u00e9 R\u00e9seaux", "power": "substation", "ref": "028050", "source": "Exploitants contributeurs de l'Agence ORE - 2022-07 - Strasbourg \u00c9lectricit\u00e9 R\u00e9seaux", "substation": "minor_distribution", "voltage": "20000"}}, {"type": "node", "id": 11221095438, "lat": 48.3713064, "lon": 7.6009813, "tags": {"operator": "Strasbourg \u00c9lectricit\u00e9 R\u00e9seaux", "power": "substation", "ref": "028006", "source": "Exploitants contributeurs de l'Agence ORE - 2022-07 - Strasbourg \u00c9lectricit\u00e9 R\u00e9seaux", "substation": "minor_distribution", "voltage": "20000"}}, {"type": "node", "id": 11221095439, "lat": 48.3727677, "lon": 7.6007519, "tags": {"operator": "Strasbourg \u00c9lectricit\u00e9 R\u00e9seaux", "power": "substation", "ref": "028017", "source": "Exploitants contributeurs de l'Agence ORE - 2022-07 - Strasbourg \u00c9lectricit\u00e9 R\u00e9seaux", "substation": "minor_distribution", "voltage": "20000"}}, {"type": "node", "id": 11221095440, "lat": 48.3729977, "lon": 7.5959644, "tags": {"operator": "Strasbourg \u00c9lectricit\u00e9 R\u00e9seaux", "power": "substation", "ref": "028040", "source": "Exploitants contributeurs de l'Agence ORE - 2022-07 - Strasbourg \u00c9lectricit\u00e9 R\u00e9seaux", "substation": "minor_distribution", "voltage": "20000"}}, {"type": "node", "id": 11227530395, "lat": 48.374346, "lon": 7.601922, "tags": {"operator": "Strasbourg \u00c9lectricit\u00e9 R\u00e9seaux", "power": "substation", "ref": "028030", "source": "Exploitants contributeurs de l'Agence ORE - 2022-07 - Strasbourg \u00c9lectricit\u00e9 R\u00e9seaux", "substation": "minor_distribution", "voltage": "20000"}}, {"type": "node", "id": 11227530396, "lat": 48.3743448, "lon": 7.6072008, "tags": {"operator": "Strasbourg \u00c9lectricit\u00e9 R\u00e9seaux", "power": "substation", "ref": "028032", "source": "Exploitants contributeurs de l'Agence ORE - 2022-07 - Strasbourg \u00c9lectricit\u00e9 R\u00e9seaux", "substation": "minor_distribution", "voltage": "20000"}}, {"type": "node", "id": 11227530397, "lat": 48.375762, "lon": 7.6030999, "tags": {"operator": "Strasbourg \u00c9lectricit\u00e9 R\u00e9seaux", "power": "substation", "ref": "028033", "source": "Exploitants contributeurs de l'Agence ORE - 2022-07 - Strasbourg \u00c9lectricit\u00e9 R\u00e9seaux", "substation": "minor_distribution", "voltage": "20000"}}, {"type": "node", "id": 11227533809, "lat": 48.3604536, "lon": 7.5678742, "tags": {"operator": "Strasbourg \u00c9lectricit\u00e9 R\u00e9seaux", "power": "substation", "ref": "216017", "source": "Exploitants contributeurs de l'Agence ORE - 2022-07 - Strasbourg \u00c9lectricit\u00e9 R\u00e9seaux", "substation": "minor_distribution", "voltage": "20000"}}, {"type": "node", "id": 11227533810, "lat": 48.3682497, "lon": 7.5704085, "tags": {"operator": "Strasbourg \u00c9lectricit\u00e9 R\u00e9seaux", "power": "substation", "ref": "216027", "source": "Exploitants contributeurs de l'Agence ORE - 2022-07 - Strasbourg \u00c9lectricit\u00e9 R\u00e9seaux", "substation": "minor_distribution", "voltage": "20000"}}, {"type": "node", "id": 11227583031, "lat": 48.3731556, "lon": 7.5931882, "tags": {"operator": "Strasbourg \u00c9lectricit\u00e9 R\u00e9seaux", "operator:wikidata": "Q107352347", "power": "substation", "ref": "028041", "source": "Exploitants contributeurs de l'Agence ORE - 2022-07 - Strasbourg \u00c9lectricit\u00e9 R\u00e9seaux", "substation": "minor_distribution", "voltage": "20000"}}, {"type": "node", "id": 11227583240, "lat": 48.3732006, "lon": 7.5931727, "tags": {"operator": "Strasbourg \u00c9lectricit\u00e9 R\u00e9seaux", "operator:wikidata": "Q107352347", "power": "substation", "ref": "028021", "source": "Exploitants contributeurs de l'Agence ORE - 2022-07 - Strasbourg \u00c9lectricit\u00e9 R\u00e9seaux", "substation": "minor_distribution", "voltage": "20000"}}, {"type": "node", "id": 11227598328, "lat": 48.3718371, "lon": 7.6082277, "tags": {"operator": "Strasbourg \u00c9lectricit\u00e9 R\u00e9seaux", "power": "substation", "ref": "028048", "source": "Exploitants contributeurs de l'Agence ORE - 2022-07 - Strasbourg \u00c9lectricit\u00e9 R\u00e9seaux", "substation": "minor_distribution", "voltage": "20000"}}, {"type": "node", "id": 11227622944, "lat": 48.3668376, "lon": 7.6082283, "tags": {"operator": "Strasbourg \u00c9lectricit\u00e9 R\u00e9seaux", "power": "substation", "ref": "028015", "source": "Exploitants contributeurs de l'Agence ORE - 2022-07 - Strasbourg \u00c9lectricit\u00e9 R\u00e9seaux", "substation": "minor_distribution", "voltage": "20000"}}, {"type": "node", "id": 11227670166, "lat": 48.3806437, "lon": 7.5694309, "tags": {"operator": "Strasbourg \u00c9lectricit\u00e9 R\u00e9seaux", "power": "substation", "ref": "233001", "source": "Exploitants contributeurs de l'Agence ORE - 2022-07 - Strasbourg \u00c9lectricit\u00e9 R\u00e9seaux", "substation": "minor_distribution", "voltage": "20000"}}, {"type": "node", "id": 11227670167, "lat": 48.3749399, "lon": 7.5729127, "tags": {"operator": "Strasbourg \u00c9lectricit\u00e9 R\u00e9seaux", "power": "substation", "ref": "233007", "source": "Exploitants contributeurs de l'Agence ORE - 2022-07 - Strasbourg \u00c9lectricit\u00e9 R\u00e9seaux", "substation": "minor_distribution", "voltage": "20000"}}, {"type": "node", "id": 11227670170, "lat": 48.3833266, "lon": 7.5646825, "tags": {"operator": "Strasbourg \u00c9lectricit\u00e9 R\u00e9seaux", "power": "substation", "ref": "233003", "source": "Exploitants contributeurs de l'Agence ORE - 2022-07 - Strasbourg \u00c9lectricit\u00e9 R\u00e9seaux", "substation": "minor_distribution", "voltage": "20000"}}, {"type": "node", "id": 11227670171, "lat": 48.3760189, "lon": 7.5651761, "tags": {"operator": "Strasbourg \u00c9lectricit\u00e9 R\u00e9seaux", "power": "substation", "ref": "233009", "source": "Exploitants contributeurs de l'Agence ORE - 2022-07 - Strasbourg \u00c9lectricit\u00e9 R\u00e9seaux", "substation": "minor_distribution", "voltage": "20000"}}, {"type": "node", "id": 11227670172, "lat": 48.3819821, "lon": 7.5639342, "tags": {"operator": "Strasbourg \u00c9lectricit\u00e9 R\u00e9seaux", "power": "substation", "ref": "233008", "source": "Exploitants contributeurs de l'Agence ORE - 2022-07 - Strasbourg \u00c9lectricit\u00e9 R\u00e9seaux", "substation": "minor_distribution", "voltage": "20000"}}, {"type": "node", "id": 11227670174, "lat": 48.3787059, "lon": 7.5726127, "tags": {"operator": "Strasbourg \u00c9lectricit\u00e9 R\u00e9seaux", "power": "substation", "ref": "233002", "source": "Exploitants contributeurs de l'Agence ORE - 2022-07 - Strasbourg \u00c9lectricit\u00e9 R\u00e9seaux", "substation": "minor_distribution", "voltage": "20000"}}, {"type": "node", "id": 11227670176, "lat": 48.3904845, "lon": 7.5449072, "tags": {"operator": "Strasbourg \u00c9lectricit\u00e9 R\u00e9seaux", "power": "substation", "ref": "233004", "source": "Exploitants contributeurs de l'Agence ORE - 2022-07 - Strasbourg \u00c9lectricit\u00e9 R\u00e9seaux", "substation": "minor_distribution", "voltage": "20000"}}, {"type": "node", "id": 11227670177, "lat": 48.3788399, "lon": 7.5658859, "tags": {"operator": "Strasbourg \u00c9lectricit\u00e9 R\u00e9seaux", "power": "substation", "ref": "233006", "source": "Exploitants contributeurs de l'Agence ORE - 2022-07 - Strasbourg \u00c9lectricit\u00e9 R\u00e9seaux", "substation": "minor_distribution", "voltage": "20000"}}, {"type": "node", "id": 11227670180, "lat": 48.3842746, "lon": 7.5734031, "tags": {"operator": "Strasbourg \u00c9lectricit\u00e9 R\u00e9seaux", "power": "substation", "ref": "233012", "source": "Exploitants contributeurs de l'Agence ORE - 2022-07 - Strasbourg \u00c9lectricit\u00e9 R\u00e9seaux", "substation": "minor_distribution", "voltage": "20000"}}, {"type": "node", "id": 11227672491, "lat": 48.3787395, "lon": 7.5726071, "tags": {"operator": "Strasbourg \u00c9lectricit\u00e9 R\u00e9seaux", "power": "substation", "ref": "233010", "source": "Exploitants contributeurs de l'Agence ORE - 2022-07 - Strasbourg \u00c9lectricit\u00e9 R\u00e9seaux", "substation": "minor_distribution", "voltage": "20000"}}, {"type": "node", "id": 11234056697, "lat": 48.3360018, "lon": 7.6804804, "tags": {"operator": "Enedis", "power": "substation", "source": "Exploitants contributeurs de l'Agence ORE - 2022-07 - Enedis", "substation": "minor_distribution", "voltage": "20000"}}, {"type": "node", "id": 11234069722, "lat": 48.3290823, "lon": 7.6916397, "tags": {"operator": "Enedis", "power": "substation", "source": "Exploitants contributeurs de l'Agence ORE - 2022-07 - Enedis", "substation": "minor_distribution", "voltage": "20000"}}, {"type": "node", "id": 11234069723, "lat": 48.328996, "lon": 7.6914891, "tags": {"operator": "Enedis", "power": "substation", "source": "Exploitants contributeurs de l'Agence ORE - 2022-07 - Enedis", "substation": "minor_distribution", "voltage": "20000"}}, {"type": "node", "id": 11234069724, "lat": 48.3284561, "lon": 7.6913925, "tags": {"operator": "Enedis", "power": "substation", "source": "Exploitants contributeurs de l'Agence ORE - 2022-07 - Enedis", "substation": "minor_distribution", "voltage": "20000"}}, {"type": "node", "id": 11234080043, "lat": 48.3320427, "lon": 7.6746592, "tags": {"operator": "Enedis", "power": "substation", "source": "Exploitants contributeurs de l'Agence ORE - 2022-07 - Enedis", "substation": "minor_distribution", "voltage": "20000"}}, {"type": "node", "id": 11234080045, "lat": 48.3358369, "lon": 7.6802819, "tags": {"operator": "Enedis", "power": "substation", "source": "Exploitants contributeurs de l'Agence ORE - 2022-07 - Enedis", "substation": "minor_distribution", "voltage": "20000"}}, {"type": "node", "id": 11234080046, "lat": 48.3348734, "lon": 7.6790043, "tags": {"operator": "Enedis", "power": "substation", "source": "Exploitants contributeurs de l'Agence ORE - 2022-07 - Enedis", "substation": "minor_distribution", "voltage": "20000"}}, {"type": "node", "id": 11234080047, "lat": 48.3326547, "lon": 7.6787507, "tags": {"operator": "Enedis", "power": "substation", "source": "Exploitants contributeurs de l'Agence ORE - 2022-07 - Enedis", "substation": "minor_distribution", "voltage": "20000"}}, {"type": "node", "id": 11234080048, "lat": 48.3324435, "lon": 7.6795413, "tags": {"operator": "Enedis", "power": "substation", "source": "Exploitants contributeurs de l'Agence ORE - 2022-07 - Enedis", "substation": "minor_distribution", "voltage": "20000"}}, {"type": "node", "id": 11234080051, "lat": 48.3352193, "lon": 7.682393, "tags": {"operator": "Enedis", "power": "substation", "source": "Exploitants contributeurs de l'Agence ORE - 2022-07 - Enedis", "substation": "minor_distribution", "voltage": "20000"}}, {"type": "node", "id": 11234080054, "lat": 48.3300335, "lon": 7.6823211, "tags": {"operator": "Enedis", "power": "substation", "source": "Exploitants contributeurs de l'Agence ORE - 2022-07 - Enedis", "substation": "minor_distribution", "voltage": "20000"}}, {"type": "node", "id": 11234080055, "lat": 48.3288249, "lon": 7.6853076, "tags": {"operator": "Enedis", "power": "substation", "source": "Exploitants contributeurs de l'Agence ORE - 2022-07 - Enedis", "substation": "minor_distribution", "voltage": "20000"}}, {"type": "node", "id": 11234080056, "lat": 48.3291299, "lon": 7.6878158, "tags": {"operator": "Enedis", "power": "substation", "source": "Exploitants contributeurs de l'Agence ORE - 2022-07 - Enedis", "substation": "minor_distribution", "voltage": "20000"}}, {"type": "node", "id": 11234080057, "lat": 48.3310477, "lon": 7.6872886, "tags": {"operator": "Enedis", "power": "substation", "source": "Exploitants contributeurs de l'Agence ORE - 2022-07 - Enedis", "substation": "minor_distribution", "voltage": "20000"}}, {"type": "node", "id": 11234080059, "lat": 48.3343007, "lon": 7.6868794, "tags": {"operator": "Enedis", "power": "substation", "source": "Exploitants contributeurs de l'Agence ORE - 2022-07 - Enedis", "substation": "minor_distribution", "voltage": "20000"}}, {"type": "node", "id": 11234080060, "lat": 48.3373137, "lon": 7.6903522, "tags": {"operator": "Enedis", "power": "substation", "source": "Exploitants contributeurs de l'Agence ORE - 2022-07 - Enedis", "substation": "minor_distribution", "voltage": "20000"}}, {"type": "node", "id": 11234080061, "lat": 48.3374535, "lon": 7.6838413, "tags": {"operator": "Enedis", "power": "substation", "source": "Exploitants contributeurs de l'Agence ORE - 2022-07 - Enedis", "substation": "minor_distribution", "voltage": "20000"}}, {"type": "node", "id": 11234080062, "lat": 48.3388292, "lon": 7.6848534, "tags": {"operator": "Enedis", "power": "substation", "source": "Exploitants contributeurs de l'Agence ORE - 2022-07 - Enedis", "substation": "minor_distribution", "voltage": "20000"}}, {"type": "node", "id": 11234082989, "lat": 48.334979, "lon": 7.673165, "tags": {"operator": "Enedis", "power": "substation", "source": "Exploitants contributeurs de l'Agence ORE - 2022-07 - Enedis", "substation": "minor_distribution", "voltage": "20000"}}, {"type": "node", "id": 11234176979, "lat": 48.3867106, "lon": 7.7148555, "tags": {"operator": "Strasbourg \u00c9lectricit\u00e9 R\u00e9seaux", "operator:short": "SER", "operator:wikidata": "Q107352347", "power": "substation", "ref": "154017", "source": "Exploitants contributeurs de l'Agence ORE - 2022-07 - Strasbourg \u00c9lectricit\u00e9 R\u00e9seaux", "substation": "minor_distribution", "voltage": "20000"}}, {"type": "node", "id": 11234197126, "lat": 48.3878928, "lon": 7.7089169, "tags": {"operator": "Strasbourg \u00c9lectricit\u00e9 R\u00e9seaux", "operator:short": "SER", "operator:wikidata": "Q107352347", "power": "substation", "ref": "154009", "source": "Exploitants contributeurs de l'Agence ORE - 2022-07 - Strasbourg \u00c9lectricit\u00e9 R\u00e9seaux", "substation": "minor_distribution", "voltage": "20000"}}, {"type": "node", "id": 11234214171, "lat": 48.3882116, "lon": 7.7132926, "tags": {"operator": "Strasbourg \u00c9lectricit\u00e9 R\u00e9seaux", "power": "substation", "ref": "154015", "source": "Exploitants contributeurs de l'Agence ORE - 2022-07 - Strasbourg \u00c9lectricit\u00e9 R\u00e9seaux", "substation": "minor_distribution", "voltage": "20000"}}, {"type": "node", "id": 11234218036, "lat": 48.3839801, "lon": 7.7102925, "tags": {"operator": "Strasbourg \u00c9lectricit\u00e9 R\u00e9seaux", "operator:short": "SER", "operator:wikidata": "Q107352347", "power": "substation", "ref": "154001", "source": "Exploitants contributeurs de l'Agence ORE - 2022-07 - Strasbourg \u00c9lectricit\u00e9 R\u00e9seaux", "substation": "minor_distribution", "voltage": "20000"}}, {"type": "node", "id": 11234222022, "lat": 48.3805556, "lon": 7.7035958, "tags": {"operator": "Strasbourg \u00c9lectricit\u00e9 R\u00e9seaux", "power": "substation", "ref": "154007", "source": "Exploitants contributeurs de l'Agence ORE - 2022-07 - Strasbourg \u00c9lectricit\u00e9 R\u00e9seaux", "substation": "minor_distribution", "voltage": "20000"}}, {"type": "node", "id": 11234225843, "lat": 48.3743147, "lon": 7.7029875, "tags": {"operator": "Strasbourg \u00c9lectricit\u00e9 R\u00e9seaux", "operator:short": "SER", "operator:wikidata": "Q107352347", "power": "substation", "ref": "154019", "source": "Exploitants contributeurs de l'Agence ORE - 2022-07 - Strasbourg \u00c9lectricit\u00e9 R\u00e9seaux", "substation": "minor_distribution", "voltage": "20000"}}, {"type": "node", "id": 11234230603, "lat": 48.378008, "lon": 7.6945625, "tags": {"operator": "Strasbourg \u00c9lectricit\u00e9 R\u00e9seaux", "operator:short": "SER", "operator:wikidata": "Q107352347", "power": "substation", "ref": "154030", "source": "Exploitants contributeurs de l'Agence ORE - 2022-07 - Strasbourg \u00c9lectricit\u00e9 R\u00e9seaux", "substation": "minor_distribution", "voltage": "20000"}}, {"type": "node", "id": 11234231099, "lat": 48.377246, "lon": 7.7057555, "tags": {"operator": "Strasbourg \u00c9lectricit\u00e9 R\u00e9seaux", "operator:short": "SER", "operator:wikidata": "Q107352347", "power": "substation", "ref": "154010", "source": "Exploitants contributeurs de l'Agence ORE - 2022-07 - Strasbourg \u00c9lectricit\u00e9 R\u00e9seaux", "substation": "minor_distribution", "voltage": "20000"}}, {"type": "node", "id": 11234232965, "lat": 48.3867765, "lon": 7.7122898, "tags": {"operator": "Strasbourg \u00c9lectricit\u00e9 R\u00e9seaux", "power": "substation", "ref": "154011", "source": "Exploitants contributeurs de l'Agence ORE - 2022-07 - Strasbourg \u00c9lectricit\u00e9 R\u00e9seaux", "substation": "minor_distribution", "voltage": "20000"}}, {"type": "node", "id": 11234233696, "lat": 48.3816058, "lon": 7.6906446, "tags": {"operator": "Strasbourg \u00c9lectricit\u00e9 R\u00e9seaux", "power": "substation", "ref": "154028", "source": "Exploitants contributeurs de l'Agence ORE - 2022-07 - Strasbourg \u00c9lectricit\u00e9 R\u00e9seaux", "substation": "minor_distribution", "voltage": "20000"}}, {"type": "node", "id": 11234236084, "lat": 48.38356, "lon": 7.7063527, "tags": {"operator": "Strasbourg \u00c9lectricit\u00e9 R\u00e9seaux", "operator:short": "SER", "operator:wikidata": "Q107352347", "power": "substation", "ref": "154020", "source": "Exploitants contributeurs de l'Agence ORE - 2022-07 - Strasbourg \u00c9lectricit\u00e9 R\u00e9seaux", "substation": "minor_distribution", "voltage": "20000"}}, {"type": "node", "id": 11234236671, "lat": 48.3766535, "lon": 7.7055856, "tags": {"operator": "Strasbourg \u00c9lectricit\u00e9 R\u00e9seaux", "operator:short": "SER", "operator:wikidata": "Q107352347", "power": "substation", "ref": "154013", "source": "Exploitants contributeurs de l'Agence ORE - 2022-07 - Strasbourg \u00c9lectricit\u00e9 R\u00e9seaux", "substation": "minor_distribution", "voltage": "20000"}}, {"type": "node", "id": 11234237850, "lat": 48.3791672, "lon": 7.6979501, "tags": {"operator": "Strasbourg \u00c9lectricit\u00e9 R\u00e9seaux", "operator:short": "SER", "operator:wikidata": "Q107352347", "power": "substation", "ref": "154024", "source": "Exploitants contributeurs de l'Agence ORE - 2022-07 - Strasbourg \u00c9lectricit\u00e9 R\u00e9seaux", "substation": "minor_distribution", "voltage": "20000"}}, {"type": "node", "id": 11234238457, "lat": 48.383617, "lon": 7.6976601, "tags": {"operator": "Strasbourg \u00c9lectricit\u00e9 R\u00e9seaux", "operator:short": "SER", "operator:wikidata": "Q107352347", "power": "substation", "ref": "154031", "source": "Exploitants contributeurs de l'Agence ORE - 2022-07 - Strasbourg \u00c9lectricit\u00e9 R\u00e9seaux", "substation": "minor_distribution", "voltage": "20000"}}, {"type": "node", "id": 11234240880, "lat": 48.3898553, "lon": 7.7160768, "tags": {"operator": "Strasbourg \u00c9lectricit\u00e9 R\u00e9seaux", "operator:short": "SER", "operator:wikidata": "Q107352347", "power": "substation", "ref": "154006", "source": "Exploitants contributeurs de l'Agence ORE - 2022-07 - Strasbourg \u00c9lectricit\u00e9 R\u00e9seaux", "substation": "minor_distribution", "voltage": "20000"}}, {"type": "node", "id": 11234241058, "lat": 48.3730258, "lon": 7.706118, "tags": {"operator": "Strasbourg \u00c9lectricit\u00e9 R\u00e9seaux", "operator:short": "SER", "operator:wikidata": "Q107352347", "power": "substation", "ref": "154025", "source": "Exploitants contributeurs de l'Agence ORE - 2022-07 - Strasbourg \u00c9lectricit\u00e9 R\u00e9seaux", "substation": "minor_distribution", "voltage": "20000"}}, {"type": "node", "id": 11234241059, "lat": 48.3826018, "lon": 7.7158408, "tags": {"operator": "Strasbourg \u00c9lectricit\u00e9 R\u00e9seaux", "operator:short": "SER", "operator:wikidata": "Q107352347", "power": "substation", "ref": "154022", "source": "Exploitants contributeurs de l'Agence ORE - 2022-07 - Strasbourg \u00c9lectricit\u00e9 R\u00e9seaux", "substation": "minor_distribution", "voltage": "20000"}}, {"type": "node", "id": 11234243732, "lat": 48.3879806, "lon": 7.7265328, "tags": {"operator": "Strasbourg \u00c9lectricit\u00e9 R\u00e9seaux", "power": "substation", "ref": "154005", "source": "Exploitants contributeurs de l'Agence ORE - 2022-07 - Strasbourg \u00c9lectricit\u00e9 R\u00e9seaux", "substation": "minor_distribution", "voltage": "20000"}}, {"type": "node", "id": 11234249052, "lat": 48.3812943, "lon": 7.6998671, "tags": {"operator": "Strasbourg \u00c9lectricit\u00e9 R\u00e9seaux", "operator:short": "SER", "operator:wikidata": "Q107352347", "power": "substation", "ref": "154027", "source": "Exploitants contributeurs de l'Agence ORE - 2022-07 - Strasbourg \u00c9lectricit\u00e9 R\u00e9seaux", "substation": "minor_distribution", "voltage": "20000"}}, {"type": "node", "id": 11234252283, "lat": 48.3867164, "lon": 7.7038479, "tags": {"operator": "Strasbourg \u00c9lectricit\u00e9 R\u00e9seaux", "power": "substation", "ref": "154014", "source": "Exploitants contributeurs de l'Agence ORE - 2022-07 - Strasbourg \u00c9lectricit\u00e9 R\u00e9seaux", "substation": "minor_distribution", "voltage": "20000"}}, {"type": "node", "id": 11234282012, "lat": 48.3996795, "lon": 7.6344469, "tags": {"operator": "Strasbourg \u00c9lectricit\u00e9 R\u00e9seaux", "power": "substation", "ref": "364009", "source": "Exploitants contributeurs de l'Agence ORE - 2022-07 - Strasbourg \u00c9lectricit\u00e9 R\u00e9seaux", "substation": "minor_distribution", "voltage": "20000"}}, {"type": "node", "id": 11234282015, "lat": 48.4012751, "lon": 7.6400205, "tags": {"operator": "Strasbourg \u00c9lectricit\u00e9 R\u00e9seaux", "power": "substation", "ref": "364001", "source": "Exploitants contributeurs de l'Agence ORE - 2022-07 - Strasbourg \u00c9lectricit\u00e9 R\u00e9seaux", "substation": "minor_distribution", "voltage": "20000"}}, {"type": "node", "id": 11234282016, "lat": 48.4045699, "lon": 7.6428595, "tags": {"operator": "Strasbourg \u00c9lectricit\u00e9 R\u00e9seaux", "power": "substation", "ref": "364004", "source": "Exploitants contributeurs de l'Agence ORE - 2022-07 - Strasbourg \u00c9lectricit\u00e9 R\u00e9seaux", "substation": "minor_distribution", "voltage": "20000"}}, {"type": "node", "id": 11234282017, "lat": 48.4021713, "lon": 7.6459968, "tags": {"operator": "Strasbourg \u00c9lectricit\u00e9 R\u00e9seaux", "power": "substation", "ref": "364002", "source": "Exploitants contributeurs de l'Agence ORE - 2022-07 - Strasbourg \u00c9lectricit\u00e9 R\u00e9seaux", "substation": "minor_distribution", "voltage": "20000"}}, {"type": "node", "id": 11234282019, "lat": 48.4002388, "lon": 7.6502491, "tags": {"operator": "Strasbourg \u00c9lectricit\u00e9 R\u00e9seaux", "power": "substation", "ref": "364005", "source": "Exploitants contributeurs de l'Agence ORE - 2022-07 - Strasbourg \u00c9lectricit\u00e9 R\u00e9seaux", "substation": "minor_distribution", "voltage": "20000"}}, {"type": "node", "id": 11234298464, "lat": 48.3921982, "lon": 7.6414085, "tags": {"operator": "Strasbourg \u00c9lectricit\u00e9 R\u00e9seaux", "power": "substation", "ref": "364006", "source": "Exploitants contributeurs de l'Agence ORE - 2022-07 - Strasbourg \u00c9lectricit\u00e9 R\u00e9seaux", "substation": "minor_distribution", "voltage": "20000"}}, {"type": "node", "id": 11251337011, "lat": 48.3851963, "lon": 7.6283628, "tags": {"operator": "Strasbourg \u00c9lectricit\u00e9 R\u00e9seaux", "power": "substation", "ref": "285008", "source": "Exploitants contributeurs de l'Agence ORE - 2022-07 - Strasbourg \u00c9lectricit\u00e9 R\u00e9seaux", "substation": "minor_distribution", "voltage": "20000"}}, {"type": "node", "id": 11251350608, "lat": 48.3890527, "lon": 7.6347629, "tags": {"operator": "Strasbourg \u00c9lectricit\u00e9 R\u00e9seaux", "power": "substation", "ref": "285007", "source": "Exploitants contributeurs de l'Agence ORE - 2022-07 - Strasbourg \u00c9lectricit\u00e9 R\u00e9seaux", "substation": "minor_distribution", "voltage": "20000"}}, {"type": "node", "id": 11251427213, "lat": 48.3915033, "lon": 7.6196799, "tags": {"operator": "Strasbourg \u00c9lectricit\u00e9 R\u00e9seaux", "power": "substation", "ref": "285006", "source": "Exploitants contributeurs de l'Agence ORE - 2022-07 - Strasbourg \u00c9lectricit\u00e9 R\u00e9seaux", "substation": "minor_distribution", "voltage": "20000"}}, {"type": "node", "id": 11251443869, "lat": 48.3945747, "lon": 7.622981, "tags": {"operator": "Strasbourg \u00c9lectricit\u00e9 R\u00e9seaux", "power": "substation", "ref": "285001", "source": "Exploitants contributeurs de l'Agence ORE - 2022-07 - Strasbourg \u00c9lectricit\u00e9 R\u00e9seaux", "substation": "minor_distribution", "voltage": "20000"}}, {"type": "node", "id": 11251444090, "lat": 48.3833684, "lon": 7.6135318, "tags": {"operator": "Strasbourg \u00c9lectricit\u00e9 R\u00e9seaux", "power": "substation", "ref": "433011", "source": "Exploitants contributeurs de l'Agence ORE - 2022-07 - Strasbourg \u00c9lectricit\u00e9 R\u00e9seaux", "substation": "minor_distribution", "voltage": "20000"}}, {"type": "node", "id": 11251451456, "lat": 48.3892911, "lon": 7.6295516, "tags": {"operator": "Strasbourg \u00c9lectricit\u00e9 R\u00e9seaux", "power": "substation", "ref": "285003", "source": "Exploitants contributeurs de l'Agence ORE - 2022-07 - Strasbourg \u00c9lectricit\u00e9 R\u00e9seaux", "substation": "minor_distribution", "voltage": "20000"}}, {"type": "node", "id": 11251453257, "lat": 48.3882972, "lon": 7.6258582, "tags": {"operator": "Strasbourg \u00c9lectricit\u00e9 R\u00e9seaux", "power": "substation", "ref": "285004", "source": "Exploitants contributeurs de l'Agence ORE - 2022-07 - Strasbourg \u00c9lectricit\u00e9 R\u00e9seaux", "substation": "minor_distribution", "voltage": "20000"}}, {"type": "node", "id": 11251453285, "lat": 48.3971987, "lon": 7.6224137, "tags": {"operator": "Strasbourg \u00c9lectricit\u00e9 R\u00e9seaux", "power": "substation", "ref": "285005", "source": "Exploitants contributeurs de l'Agence ORE - 2022-07 - Strasbourg \u00c9lectricit\u00e9 R\u00e9seaux", "substation": "minor_distribution", "voltage": "20000"}}, {"type": "node", "id": 11251459475, "lat": 48.3894099, "lon": 7.5991754, "tags": {"operator": "Strasbourg \u00c9lectricit\u00e9 R\u00e9seaux", "power": "substation", "ref": "433010", "source": "Exploitants contributeurs de l'Agence ORE - 2022-07 - Strasbourg \u00c9lectricit\u00e9 R\u00e9seaux", "substation": "minor_distribution", "voltage": "20000"}}, {"type": "node", "id": 11251495259, "lat": 48.3948525, "lon": 7.6276522, "tags": {"operator": "Strasbourg \u00c9lectricit\u00e9 R\u00e9seaux", "power": "substation", "ref": "285009", "source": "Exploitants contributeurs de l'Agence ORE - 2022-07 - Strasbourg \u00c9lectricit\u00e9 R\u00e9seaux", "substation": "minor_distribution", "voltage": "20000"}}, {"type": "node", "id": 11251507954, "lat": 48.3825405, "lon": 7.6088028, "tags": {"operator": "Strasbourg \u00c9lectricit\u00e9 R\u00e9seaux", "power": "substation", "ref": "433006", "source": "Exploitants contributeurs de l'Agence ORE - 2022-07 - Strasbourg \u00c9lectricit\u00e9 R\u00e9seaux", "substation": "minor_distribution", "voltage": "20000"}}, {"type": "node", "id": 11251507955, "lat": 48.3839349, "lon": 7.6091084, "tags": {"operator": "Strasbourg \u00c9lectricit\u00e9 R\u00e9seaux", "power": "substation", "ref": "433009", "source": "Exploitants contributeurs de l'Agence ORE - 2022-07 - Strasbourg \u00c9lectricit\u00e9 R\u00e9seaux", "substation": "minor_distribution", "voltage": "20000"}}, {"type": "node", "id": 11251507956, "lat": 48.386136, "lon": 7.6118218, "tags": {"operator": "Strasbourg \u00c9lectricit\u00e9 R\u00e9seaux", "power": "substation", "ref": "433008", "source": "Exploitants contributeurs de l'Agence ORE - 2022-07 - Strasbourg \u00c9lectricit\u00e9 R\u00e9seaux", "substation": "minor_distribution", "voltage": "20000"}}, {"type": "node", "id": 11251507957, "lat": 48.3790929, "lon": 7.6119541, "tags": {"operator": "Strasbourg \u00c9lectricit\u00e9 R\u00e9seaux", "power": "substation", "ref": "433005", "source": "Exploitants contributeurs de l'Agence ORE - 2022-07 - Strasbourg \u00c9lectricit\u00e9 R\u00e9seaux", "substation": "minor_distribution", "voltage": "20000"}}, {"type": "node", "id": 11262517724, "lat": 48.3722384, "lon": 7.6162512, "tags": {"operator": "Strasbourg \u00c9lectricit\u00e9 R\u00e9seaux", "power": "substation", "ref": "028043", "source": "Exploitants contributeurs de l'Agence ORE - 2022-07 - Strasbourg \u00c9lectricit\u00e9 R\u00e9seaux", "substation": "minor_distribution", "voltage": "20000"}}, {"type": "node", "id": 11277601250, "lat": 48.3944606, "lon": 7.5875988, "tags": {"operator": "Strasbourg \u00c9lectricit\u00e9 R\u00e9seaux", "power": "substation", "ref": "526010", "source": "Exploitants contributeurs de l'Agence ORE - 2022-07 - Strasbourg \u00c9lectricit\u00e9 R\u00e9seaux", "substation": "minor_distribution", "voltage": "20000"}}, {"type": "node", "id": 11277670591, "lat": 48.3930091, "lon": 7.5905387, "tags": {"operator": "Strasbourg \u00c9lectricit\u00e9 R\u00e9seaux", "power": "substation", "ref": "526007", "source": "Exploitants contributeurs de l'Agence ORE - 2022-07 - Strasbourg \u00c9lectricit\u00e9 R\u00e9seaux", "substation": "minor_distribution", "voltage": "20000"}}, {"type": "node", "id": 11277670592, "lat": 48.3953247, "lon": 7.5834444, "tags": {"operator": "Strasbourg \u00c9lectricit\u00e9 R\u00e9seaux", "power": "substation", "ref": "526005", "source": "Exploitants contributeurs de l'Agence ORE - 2022-07 - Strasbourg \u00c9lectricit\u00e9 R\u00e9seaux", "substation": "minor_distribution", "voltage": "20000"}}, {"type": "node", "id": 11277670593, "lat": 48.3961395, "lon": 7.588984, "tags": {"operator": "Strasbourg \u00c9lectricit\u00e9 R\u00e9seaux", "power": "substation", "ref": "526001", "source": "Exploitants contributeurs de l'Agence ORE - 2022-07 - Strasbourg \u00c9lectricit\u00e9 R\u00e9seaux", "substation": "minor_distribution", "voltage": "20000"}},