{"version": 0.6, "generator": "Overpass API 0.7.62.8 e802775f", "osm3s": {"timestamp_osm_base": "2025-10-13T23:29:26Z", "copyright": "The data included in this document is from www.openstreetmap.org. The data is made available under ODbL."}, "elements": [{"type": "node", "id": 294143775, "lat": 43.0994905, "lon": 5.850556, "tags": {"power": "substation"}}, {"type": "node", "id": 295992138, "lat": 43.0804741, "lon": 5.8586782, "tags": {"power": "substation"}}, {"type": "node", "id": 295992174, "lat": 43.0831049, "lon": 5.8626967, "tags": {"power": "substation"}}, {"type": "node", "id": 297615128, "lat": 43.0547237, "lon": 5.8467547, "tags": {"power": "substation"}}, {"type": "node", "id": 297615373, "lat": 43.0773147, "lon": 5.85803, "tags": {"power": "substation"}}, {"type": "node", "id": 331102569, "lat": 43.5729932, "lon": 5.3500539, "tags": {"power": "substation"}}, {"type": "node", "id": 332552391, "lat": 43.654976, "lon": 5.2643255, "tags": {"power": "substation"}}, {"type": "node", "id": 340386520, "lat": 43.6492202, "lon": 5.2608807, "tags": {"power": "substation"}}, {"type": "node", "id": 351127428, "lat": 43.4915757, "lon": 5.3734313, "tags": {"power": "substation"}}, {"type": "node", "id": 357547296, "lat": 43.6282083, "lon": 5.2605879, "tags": {"power": "substation"}}, {"type": "node", "id": 357547301, "lat": 43.6310071, "lon": 5.2617662, "tags": {"power": "substation"}}, {"type": "node", "id": 357558469, "lat": 43.5888553, "lon": 5.3359944, "tags": {"power": "substation"}}, {"type": "node", "id": 357564685, "lat": 43.5714762, "lon": 5.3534371, "tags": {"power": "substation"}}, {"type": "node", "id": 361479108, "lat": 43.5348199, "lon": 5.4151729, "tags": {"power": "substation"}}, {"type": "node", "id": 363984967, "lat": 43.6296006, "lon": 5.1707358, "tags": {"power": "substation"}}, {"type": "node", "id": 363993493, "lat": 43.6270166, "lon": 5.1656433, "tags": {"power": "substation"}}, {"type": "node", "id": 363993734, "lat": 43.6267864, "lon": 5.1723092, "tags": {"power": "substation"}}, {"type": "node", "id": 363993737, "lat": 43.6373914, "lon": 5.1756955, "tags": {"power": "substation"}}, {"type": "node", "id": 363993738, "lat": 43.6396173, "lon": 5.1849232, "tags": {"power": "substation"}}, {"type": "node", "id": 363993739, "lat": 43.6425078, "lon": 5.1882695, "tags": {"power": "substation"}}, {"type": "node", "id": 363993740, "lat": 43.643445, "lon": 5.1943301, "tags": {"power": "substation"}}, {"type": "node", "id": 363993742, "lat": 43.6476813, "lon": 5.2103617, "tags": {"power": "substation"}}, {"type": "node", "id": 364847609, "lat": 43.6485498, "lon": 5.2642166, "tags": {"power": "substation"}}, {"type": "node", "id": 673344580, "lat": 43.5605127, "lon": 5.4351336, "tags": {"power": "substation"}}, {"type": "node", "id": 673344588, "lat": 43.5590071, "lon": 5.44279, "tags": {"power": "substation"}}, {"type": "node", "id": 673417142, "lat": 43.5520917, "lon": 5.3664283, "tags": {"power": "substation"}}, {"type": "node", "id": 686817024, "lat": 43.6500911, "lon": 5.2659423, "tags": {"power": "substation"}}, {"type": "node", "id": 1767508958, "lat": 43.6930126, "lon": 5.522704, "tags": {"power": "substation"}}, {"type": "node", "id": 2280621833, "lat": 43.4321593, "lon": 5.6930565, "tags": {"description": "Transfo MT", "power": "substation"}}, {"type": "node", "id": 2302672037, "lat": 43.5736192, "lon": 5.3624679, "tags": {"power": "substation"}}, {"type": "node", "id": 2615682700, "lat": 43.5178828, "lon": 5.463308, "tags": {"location": "indoor", "name": "Oliveraie", "operator": "Enedis", "operator:wikidata": "Q3587594", "power": "substation", "ref:FR:gdo": "13001P8181", "substation": "minor_distribution", "voltage": "20000;400"}}, {"type": "node", "id": 2615682701, "lat": 43.5205126, "lon": 5.4552693, "tags": {"location": "indoor", "name": "Saint-J\u00e9rome", "operator": "Enedis", "operator:wikidata": "Q3587594", "power": "substation", "ref:FR:gdo": "13001P8153", "substation": "minor_distribution", "voltage": "20000;400"}}, {"type": "node", "id": 2683983071, "lat": 43.53293, "lon": 5.4510223, "tags": {"location": "indoor", "name": "\u00c9cole normale", "operator": "Enedis", "operator:wikidata": "Q3587594", "power": "substation", "ref:FR:gdo": "13001P0821", "substation": "minor_distribution", "voltage": "20000;400"}}, {"type": "node", "id": 2683983072, "lat": 43.5321489, "lon": 5.4548488, "tags": {"location": "indoor", "name": "Jardin Ste Victoire", "operator": "Enedis", "power": "substation", "substation": "minor_distribution", "utility": "power", "voltage": "20000;400"}}, {"type": "node", "id": 2683983073, "lat": 43.532956, "lon": 5.4478401, "tags": {"location": "indoor", "name": "Montserrat", "operator": "Enedis", "operator:wikidata": "Q3587594", "power": "substation", "ref:FR:gdo": "13001P8072", "substation": "minor_distribution", "voltage": "20000;400"}}, {"type": "node", "id": 2683983074, "lat": 43.5384009, "lon": 5.4531262, "tags": {"location": "indoor", "name": "Ozone", "operator": "Enedis", "power": "substation", "ref:FR:gdo": "13001P0876", "substation": "minor_distribution", "voltage": "20000;400"}}, {"type": "node", "id": 2685939536, "lat": 43.5268304, "lon": 5.4379436, "tags": {"location": "indoor", "name": "Boticcelli", "operator": "Enedis", "operator:wikidata": "Q3587594", "power": "substation", "ref:FR:gdo": "13001P9050", "substation": "minor_distribution", "voltage": "20000;400"}}, {"type": "node", "id": 2685939537, "lat": 43.5270104, "lon": 5.4379669, "tags": {"location": "indoor", "name": "Carthage", "operator": "Enedis", "operator:wikidata": "Q3587594", "power": "substation", "ref:FR:gdo": "13001P9051", "substation": "minor_distribution", "voltage": "20000;400"}}, {"type": "node", "id": 2685939538, "lat": 43.5255641, "lon": 5.4437213, "tags": {"location": "indoor", "name": "Central PTT", "operator": "Enedis", "operator:wikidata": "Q3587594", "power": "substation", "ref:FR:gdo": "13001P0826", "substation": "minor_distribution", "voltage": "20000;400"}}, {"type": "node", "id": 2685939539, "lat": 43.5278219, "lon": 5.4232549, "tags": {"location": "indoor", "name": "Drakar", "operator": "Enedis", "operator:wikidata": "Q3587594", "power": "substation", "ref:FR:gdo": "13001P8882", "substation": "minor_distribution", "voltage": "20000;400"}}, {"type": "node", "id": 2685939540, "lat": 43.5267045, "lon": 5.4389393, "tags": {"location": "indoor", "name": "EGS Provence", "operator": "Enedis", "operator:wikidata": "Q3587594", "power": "substation", "ref:FR:gdo": "13001P0811", "substation": "minor_distribution", "voltage": "20000;400"}}, {"type": "node", "id": 2685939541, "lat": 43.5250579, "lon": 5.4421374, "tags": {"location": "indoor", "name": "Gondole", "operator": "Enedis", "operator:wikidata": "Q3587594", "power": "substation", "ref:FR:gdo": "13001P8949", "substation": "minor_distribution", "voltage": "20000;400"}}, {"type": "node", "id": 2685939542, "lat": 43.5279001, "lon": 5.438634, "tags": {"location": "indoor", "name": "Ilot Paradis", "operator": "Enedis", "operator:wikidata": "Q3587594", "power": "substation", "ref:FR:gdo": "13001P0015", "substation": "minor_distribution", "voltage": "20000;400"}}, {"type": "node", "id": 2685939543, "lat": 43.5251592, "lon": 5.4405058, "tags": {"location": "indoor", "name": "Jardin de Mozart", "operator": "Enedis", "operator:wikidata": "Q3587594", "power": "substation", "substation": "minor_distribution", "voltage": "20000;400"}}, {"type": "node", "id": 2685939544, "lat": 43.5254253, "lon": 5.4425418, "tags": {"location": "indoor", "name": "Jonque", "operator": "Enedis", "operator:wikidata": "Q3587594", "power": "substation", "substation": "minor_distribution", "voltage": "20000;400"}}, {"type": "node", "id": 2685939545, "lat": 43.5250212, "lon": 5.4362967, "tags": {"location": "indoor", "name": "Ketch", "operator": "Enedis", "operator:wikidata": "Q3587594", "power": "substation", "ref:FR:gdo": "13001P8994", "substation": "minor_distribution", "voltage": "20000;400"}}, {"type": "node", "id": 2685939546, "lat": 43.5285996, "lon": 5.4392834, "tags": {"location": "indoor", "name": "Laureat", "operator": "Enedis", "operator:wikidata": "Q3587594", "power": "substation", "ref:FR:gdo": "13001P9049", "substation": "minor_distribution", "voltage": "20000;400"}}, {"type": "node", "id": 2685939547, "lat": 43.5399231, "lon": 5.4389052, "tags": {"location": "indoor", "name": "Les lauriers", "operator": "Enedis", "power": "substation", "ref:FR:gdo": "13001P8506", "substation": "minor_distribution", "voltage": "20000;400"}}, {"type": "node", "id": 2685939548, "lat": 43.5273398, "lon": 5.4552718, "tags": {"location": "indoor", "name": "Miollis", "operator": "Enedis", "operator:wikidata": "Q3587594", "power": "substation", "substation": "minor_distribution", "utility": "power", "voltage": "20000;400"}}, {"type": "node", "id": 2685939549, "lat": 43.5259672, "lon": 5.4419907, "tags": {"location": "indoor", "name": "Monops", "operator": "Enedis", "operator:wikidata": "Q3587594", "power": "substation", "ref:FR:gdo": "13001P0819", "substation": "minor_distribution", "voltage": "20000;400"}}, {"type": "node", "id": 2685939550, "lat": 43.5249867, "lon": 5.4434576, "tags": {"location": "indoor", "name": "Montperrin", "operator": "Enedis", "operator:wikidata": "Q3587594", "power": "substation", "ref:FR:gdo": "13001P8031", "substation": "minor_distribution", "voltage": "20000;400"}}, {"type": "node", "id": 2685939551, "lat": 43.5344392, "lon": 5.4456825, "tags": {"location": "indoor", "name": "Parking Pasteur", "operator": "Enedis", "operator:wikidata": "Q3587594", "power": "substation", "ref:FR:gdo": "13001P9125", "substation": "minor_distribution", "survey:date": "2020-01-15", "voltage": "20000;400"}}, {"type": "node", "id": 2685939552, "lat": 43.5268519, "lon": 5.4389274, "tags": {"location": "indoor", "name": "Pompidou", "operator": "Enedis", "operator:wikidata": "Q3587594", "power": "substation", "ref:FR:gdo": "13001P9087", "substation": "minor_distribution", "voltage": "20000;400"}}, {"type": "node", "id": 2685939553, "lat": 43.5274529, "lon": 5.437972, "tags": {"location": "indoor", "name": "Terrasses du Roy", "operator": "Enedis", "operator:wikidata": "Q3587594", "power": "substation", "ref:FR:gdo": "13001P8792", "substation": "minor_distribution", "voltage": "20000;400"}}, {"type": "node", "id": 2685939554, "lat": 43.5266366, "lon": 5.4381187, "tags": {"location": "indoor", "name": "Toit de Grenade", "operator": "Enedis", "operator:wikidata": "Q3587594", "power": "substation", "ref:FR:gdo": "13001P9052", "substation": "minor_distribution", "voltage": "20000;400"}}, {"type": "node", "id": 2685939555, "lat": 43.5271217, "lon": 5.4373164, "tags": {"location": "indoor", "name": "Trimaran", "operator": "Enedis", "operator:wikidata": "Q3587594", "power": "substation", "ref:FR:gdo": "13001P9036", "substation": "minor_distribution", "voltage": "20000;400"}}, {"type": "node", "id": 2685939556, "lat": 43.5260142, "lon": 5.4420594, "tags": {"location": "indoor", "name": "Villevieille", "operator": "Enedis", "operator:wikidata": "Q3587594", "power": "substation", "ref:FR:gdo": "13001P9082", "substation": "minor_distribution", "voltage": "20000;400"}}, {"type": "node", "id": 2685940238, "lat": 43.5239626, "lon": 5.4363695, "tags": {"location": "indoor", "name": "3e age", "operator": "Enedis", "operator:wikidata": "Q3587594", "power": "substation", "ref:FR:gdo": "13001P8604", "substation": "minor_distribution", "voltage": "20000;400"}}, {"type": "node", "id": 2889146142, "lat": 43.5209445, "lon": 5.4595722, "tags": {"location": "indoor", "name": "Chantesoleil", "operator": "Enedis", "operator:wikidata": "Q3587594", "power": "substation", "ref:FR:gdo": "13001P8124", "substation": "minor_distribution", "voltage": "20000;400"}}, {"type": "node", "id": 2889146143, "lat": 43.5224452, "lon": 5.4570172, "tags": {"location": "indoor", "name": "Lemas", "operator": "Enedis", "operator:wikidata": "Q3587594", "power": "substation", "ref:FR:gdo": "13001P8110", "substation": "minor_distribution", "voltage": "20000;400"}}, {"type": "node", "id": 2889146144, "lat": 43.5235536, "lon": 5.4557444, "tags": {"location": "indoor", "name": "Les Poilus", "operator": "Enedis", "operator:wikidata": "Q3587594", "power": "substation", "ref:FR:gdo": "13001P8910", "substation": "minor_distribution", "voltage": "20000;400"}}, {"type": "node", "id": 2889146145, "lat": 43.5238737, "lon": 5.4561072, "tags": {"location": "indoor", "name": "Marat", "operator": "Enedis", "operator:wikidata": "Q3587594", "power": "substation", "ref:FR:gdo": "13001P8935", "substation": "minor_distribution", "voltage": "20000;400"}}, {"type": "node", "id": 2889146146, "lat": 43.5246174, "lon": 5.4556114, "tags": {"location": "indoor", "name": "Robespierre", "operator": "Enedis", "operator:wikidata": "Q3587594", "power": "substation", "ref:FR:gdo": "13001P8932", "substation": "minor_distribution", "voltage": "20000;400"}}, {"type": "node", "id": 2889146147, "lat": 43.5247491, "lon": 5.4564633, "tags": {"location": "indoor", "name": "Sieyes", "operator": "Enedis", "operator:wikidata": "Q3587594", "power": "substation", "ref:FR:gdo": "13001P8933", "substation": "minor_distribution", "voltage": "20000;400"}}, {"type": "node", "id": 2896247777, "lat": 43.3169362, "lon": 5.5988311, "tags": {"man_made": "street_cabinet", "operator": "Enedis", "power": "substation", "street_cabinet": "power", "substation": "minor_distribution", "voltage": "20000;400"}}, {"type": "node", "id": 2896249108, "lat": 43.4963097, "lon": 5.4335911, "tags": {"man_made": "street_cabinet", "operator": "Enedis", "power": "substation", "start_date": "2014-06", "substation": "minor_distribution", "utility": "power", "voltage": "20000;400"}}, {"type": "node", "id": 2904266347, "lat": 43.4121664, "lon": 5.0425265, "tags": {"power": "substation"}}, {"type": "node", "id": 2957861968, "lat": 43.5245973, "lon": 5.4476859, "tags": {"location": "indoor", "name": "Malherbe", "operator": "Enedis", "operator:wikidata": "Q3587594", "power": "substation", "ref:FR:gdo": "13001P8019", "substation": "minor_distribution", "voltage": "20000;400"}}, {"type": "node", "id": 3480523789, "lat": 43.5277312, "lon": 5.4508193, "tags": {"location": "indoor", "name": "Agard", "operator": "Enedis", "operator:wikidata": "Q3587594", "power": "substation", "substation": "minor_distribution", "utility": "power", "voltage": "20000;400"}}, {"type": "node", "id": 3480523790, "lat": 43.5286946, "lon": 5.4499514, "tags": {"location": "underground", "name": "Cours Cassation", "operator": "Enedis", "operator:wikidata": "Q3587594", "power": "substation", "substation": "minor_distribution", "utility": "power", "voltage": "20000;400"}}, {"type": "node", "id": 3480523791, "lat": 43.5264386, "lon": 5.4511751, "tags": {"location": "indoor", "name": "Fernandol", "operator": "Enedis", "operator:wikidata": "Q3587594", "power": "substation", "substation": "minor_distribution", "utility": "power", "voltage": "20000;400"}}, {"type": "node", "id": 3480523792, "lat": 43.530017, "lon": 5.4493713, "tags": {"location": "underground", "name": "Loubon", "operator": "Enedis", "operator:wikidata": "Q3587594", "power": "substation", "substation": "minor_distribution", "utility": "power", "voltage": "20000;400"}}, {"type": "node", "id": 3480524193, "lat": 43.5274174, "lon": 5.4526425, "tags": {"location": "indoor", "name": "Mule Noire", "operator": "Enedis", "operator:wikidata": "Q3587594", "power": "substation", "ref:FR:gdo": "13001P8916", "substation": "minor_distribution", "voltage": "20000;400"}}, {"type": "node", "id": 3480524201, "lat": 43.5277101, "lon": 5.4464186, "tags": {"location": "underground", "operator": "Enedis", "operator:wikidata": "Q3587594", "power": "substation", "substation": "minor_distribution", "utility": "power", "voltage": "20000;400"}}, {"type": "node", "id": 3480524202, "lat": 43.5277468, "lon": 5.4492278, "tags": {"location": "underground", "operator": "Enedis", "operator:wikidata": "Q3587594", "power": "substation", "substation": "minor_distribution", "utility": "power", "voltage": "20000;400"}}, {"type": "node", "id": 3509210646, "lat": 43.5277183, "lon": 5.4472522, "tags": {"location": "underground", "name": "Bedarride", "operator": "Enedis", "operator:wikidata": "Q3587594", "operator:wikipedia": "fr:Enedis", "power": "substation", "substation": "minor_distribution", "utility": "power", "voltage": "20000;400"}}, {"type": "node", "id": 3509210647, "lat": 43.527258, "lon": 5.447931, "tags": {"location": "underground", "name": "Courteissade", "operator": "Enedis", "operator:wikidata": "Q3587594", "power": "substation", "substation": "minor_distribution", "utility": "power", "voltage": "20000;400"}}, {"type": "node", "id": 3509210648, "lat": 43.5264831, "lon": 5.4499909, "tags": {"location": "underground", "name": "Espagnet", "operator": "Enedis", "operator:wikidata": "Q3587594", "power": "substation", "ref:FR:gdo": "13001P8475", "substation": "minor_distribution", "voltage": "20000;400"}}, {"type": "node", "id": 3509210649, "lat": 43.5243706, "lon": 5.4511996, "tags": {"location": "underground", "name": "Goyrand", "operator": "Enedis", "operator:wikidata": "Q3587594", "power": "substation", "substation": "minor_distribution", "utility": "power", "voltage": "20000;400"}}, {"type": "node", "id": 3509210650, "lat": 43.5255963, "lon": 5.446365, "tags": {"location": "underground", "name": "Hugo", "operator": "Enedis", "operator:wikidata": "Q3587594", "power": "substation", "substation": "minor_distribution", "utility": "power", "voltage": "20000;400"}}, {"type": "node", "id": 3509210651, "lat": 43.5264904, "lon": 5.4526504, "tags": {"location": "underground", "name": "Italie", "operator": "Enedis", "operator:wikidata": "Q3587594", "power": "substation", "substation": "minor_distribution", "utility": "power", "voltage": "20000;400"}}, {"type": "node", "id": 3509210652, "lat": 43.5251777, "lon": 5.4529128, "tags": {"location": "indoor", "name": "Mus\u00e9e Granet", "operator": "Enedis", "operator:wikidata": "Q3587594", "power": "substation", "ref:FR:gdo": "13001P0830", "substation": "minor_distribution", "voltage": "20000;400"}}, {"type": "node", "id": 3509210653, "lat": 43.5248652, "lon": 5.4500439, "tags": {"location": "underground", "name": "Roux-Alph\u00e9ran", "operator": "Enedis", "operator:wikidata": "Q3587594", "power": "substation", "substation": "minor_distribution", "voltage": "20000;400"}}, {"type": "node", "id": 3509210654, "lat": 43.5245827, "lon": 5.4518764, "tags": {"location": "underground", "name": "Sallier", "operator": "Enedis", "operator:wikidata": "Q3587594", "power": "substation", "substation": "minor_distribution", "utility": "power", "voltage": "20000;400"}}, {"type": "node", "id": 3509210655, "lat": 43.5251743, "lon": 5.4528685, "tags": {"location": "indoor", "name": "Saint-Jean de Malte", "operator": "Enedis", "operator:wikidata": "Q3587594", "power": "substation", "ref:FR:gdo": "13001P9100", "substation": "minor_distribution", "voltage": "20000;400"}}, {"type": "node", "id": 3509210656, "lat": 43.5259188, "lon": 5.4462302, "tags": {"location": "underground", "name": "Villars", "operator": "Enedis", "operator:wikidata": "Q3587594", "power": "substation", "substation": "minor_distribution", "utility": "power", "voltage": "20000;400"}}, {"type": "node", "id": 3509210658, "lat": 43.5261576, "lon": 5.4489639, "tags": {"location": "underground", "operator": "Enedis", "operator:wikidata": "Q3587594", "power": "substation", "substation": "minor_distribution", "utility": "power", "voltage": "20000;400"}}, {"type": "node", "id": 3509210659, "lat": 43.526522, "lon": 5.4477186, "tags": {"location": "underground", "note": "Correspond \u00e0 la trappe de 1m x 1m entre le banc et le platane", "operator": "Enedis", "operator:wikidata": "Q3587594", "power": "substation", "substation": "minor_distribution", "utility": "power", "voltage": "20000;400"}}, {"type": "node", "id": 3509210660, "lat": 43.5269547, "lon": 5.4520419, "tags": {"location": "underground", "note": "Correspond \u00e0 la trappe de 1m x 1m devant l'un des magasins. Contre le b\u00e2timent", "operator": "Enedis", "operator:wikidata": "Q3587594", "power": "substation", "substation": "minor_distribution", "utility": "power", "voltage": "20000;400"}}, {"type": "node", "id": 3509210661, "lat": 43.5272141, "lon": 5.4479848, "tags": {"location": "indoor", "operator": "Enedis", "operator:wikidata": "Q3587594", "power": "substation", "substation": "minor_distribution", "utility": "power", "voltage": "20000;400"}}, {"type": "node", "id": 3509210662, "lat": 43.5273484, "lon": 5.453907, "tags": {"location": "indoor", "note": "Peut correspondre au poste Opera sans certitude (poste priv\u00e9 pour le th\u00e9atre ?)", "operator": "Enedis", "operator:wikidata": "Q3587594", "power": "substation", "substation": "minor_distribution", "utility": "power", "voltage": "20000;400"}}, {"type": "node", "id": 4200935289, "lat": 43.5276942, "lon": 5.4432603, "tags": {"location": "underground", "name": "BNP Sextius", "operator": "Enedis", "operator:wikidata": "Q3587594", "power": "substation", "ref:FR:gdo": "13001P8918", "substation": "minor_distribution", "voltage": "20000;400"}}, {"type": "node", "id": 4200935291, "lat": 43.5300224, "lon": 5.4416603, "tags": {"location": "indoor", "name": "Tavan", "operator": "Enedis", "operator:wikidata": "Q3587594", "power": "substation", "ref:FR:gdo": "13001P8903", "substation": "minor_distribution", "voltage": "20000;400"}}, {"type": "node", "id": 4549684737, "lat": 43.3093405, "lon": 5.3798908, "tags": {"location": "indoor", "name": "Natioetude", "operator": "Enedis", "operator:wikidata": "Q3587594", "power": "substation", "ref:FR:gdo": "13203P58116", "substation": "minor_distribution", "voltage": "20000"}}, {"type": "node", "id": 4549684738, "lat": 43.309303, "lon": 5.3799314, "tags": {"location": "indoor", "name": "Fachou", "operator": "Enedis", "operator:wikidata": "Q3587594", "power": "substation", "ref:FR:gdo": "13203P5832", "substation": "minor_distribution", "voltage": "20000"}}, {"type": "node", "id": 4549684739, "lat": 43.3092912, "lon": 5.379943, "tags": {"location": "indoor", "name": "Macou", "operator": "Enedis", "operator:wikidata": "Q3587594", "power": "substation", "ref:FR:gdo": "13203P5833", "substation": "minor_distribution", "voltage": "20000"}}, {"type": "node", "id": 4683234349, "lat": 43.5478559, "lon": 5.366498, "tags": {"power": "substation"}}, {"type": "node", "id": 4756775108, "lat": 43.30326, "lon": 5.3774502, "tags": {"location": "indoor", "name": "Telecom", "operator": "Enedis", "power": "substation", "ref:FR:gdo": "13203P4571", "substation": "minor_distribution", "voltage": "20000;400"}}, {"type": "node", "id": 4756775109, "lat": 43.303016, "lon": 5.3771082, "tags": {"location": "indoor", "name": "Nedelec", "operator": "Enedis", "power": "substation", "ref:FR:gdo": "13203P1074", "substation": "minor_distribution", "voltage": "20000;400"}}, {"type": "node", "id": 4879913617, "lat": 43.5210152, "lon": 5.4768348, "tags": {"location": "kiosk", "name": "Bagatelle", "operator": "Enedis", "power": "substation", "ref:FR:gdo": "13109P0010", "substation": "minor_distribution", "voltage": "20000;400"}}, {"type": "node", "id": 4879913618, "lat": 43.5232256, "lon": 5.4940525, "tags": {"location": "kiosk", "name": "Ch\u00e2teau Noir", "operator": "Enedis", "power": "substation", "ref:FR:gdo": "13109P0012", "substation": "minor_distribution", "voltage": "20000;400"}}, {"type": "node", "id": 5655511808, "lat": 43.2796382, "lon": 5.4274892, "tags": {"operator": "Enedis", "power": "substation", "source": "ENEDIS - 06/2018", "substation": "minor_distribution", "voltage": "20000;400"}}, {"type": "node", "id": 5655511809, "lat": 43.2810187, "lon": 5.4277327, "tags": {"operator": "Enedis", "power": "substation", "source": "ENEDIS - 06/2018", "substation": "minor_distribution", "voltage": "20000;400"}}, {"type": "node", "id": 5655515566, "lat": 43.2783886, "lon": 5.4239842, "tags": {"operator": "Enedis", "operator:wikidata": "Q3587594", "power": "substation", "source": "ENEDIS - 06/2018", "substation": "minor_distribution", "voltage": "20000;400"}}, {"type": "node", "id": 5655515919, "lat": 43.2770977, "lon": 5.4270899, "tags": {"operator": "Enedis", "power": "substation", "source": "ENEDIS - 06/2018", "substation": "minor_distribution", "voltage": "20000;400"}}, {"type": "node", "id": 5655515920, "lat": 43.2761347, "lon": 5.4241903, "tags": {"operator": "Enedis", "power": "substation", "source": "ENEDIS - 06/2018", "substation": "minor_distribution", "voltage": "20000;400"}}, {"type": "node", "id": 5655516521, "lat": 43.2779016, "lon": 5.4254292, "tags": {"operator": "Enedis", "power": "substation", "source": "ENEDIS - 06/2018", "substation": "minor_distribution", "voltage": "20000;400"}}, {"type": "node", "id": 5655516533, "lat": 43.2813916, "lon": 5.4263883, "tags": {"operator": "Enedis", "power": "substation", "source": "ENEDIS - 06/2018", "substation": "minor_distribution", "voltage": "20000;400"}}, {"type": "node", "id": 5669474609, "lat": 43.2850859, "lon": 5.4264079, "tags": {"operator": "Enedis", "power": "substation", "source": "ENEDIS - 06/2018", "substation": "minor_distribution", "voltage": "20000;400"}}, {"type": "node", "id": 5673213151, "lat": 43.2770988, "lon": 5.4290736, "tags": {"operator": "Enedis", "power": "substation", "source": "Enedis - 06/2018", "substation": "minor_distribution", "voltage": "20000;400"}}, {"type": "node", "id": 5673217274, "lat": 43.2741204, "lon": 5.4273536, "tags": {"operator": "Enedis", "power": "substation", "source": "Enedis - 06/2018", "substation": "minor_distribution", "voltage": "20000;400"}}, {"type": "node", "id": 5675403547, "lat": 43.2800307, "lon": 5.4194095, "tags": {"operator": "Enedis", "power": "substation", "source": "Enedis - 06/2018", "substation": "minor_distribution", "voltage": "20000;400"}}, {"type": "node", "id": 5675403548, "lat": 43.2805353, "lon": 5.4210846, "tags": {"operator": "Enedis", "power": "substation", "source": "Enedis - 06/2018", "substation": "minor_distribution", "voltage": "20000;400"}}, {"type": "node", "id": 5675403552, "lat": 43.2792229, "lon": 5.4225505, "tags": {"operator": "Enedis", "power": "substation", "source": "Enedis - 06/2018", "substation": "minor_distribution", "voltage": "20000;400"}}, {"type": "node", "id": 5675407936, "lat": 43.280863, "lon": 5.4222384, "tags": {"building": "service", "location": "indoor", "mapillary": "835065557092622", "operator": "Enedis", "power": "substation", "source": "Enedis - 06/2018", "substation": "minor_distribution", "survey:date": "2019-01-25", "voltage": "20000;400"}}, {"type": "node", "id": 5675407943, "lat": 43.274945, "lon": 5.4244347, "tags": {"operator": "Enedis", "power": "substation", "source": "Enedis - 06/2018", "substation": "minor_distribution", "voltage": "20000;400"}}, {"type": "node", "id": 5690849995, "lat": 43.3033256, "lon": 5.3782523, "tags": {"operator": "Enedis", "operator:wikidata": "Q3587594", "power": "substation", "source": "Enedis - 06/2018", "substation": "minor_distribution", "voltage": "20000;400"}}, {"type": "node", "id": 5704663402, "lat": 43.5195108, "lon": 5.4468101, "tags": {"power": "substation"}}, {"type": "node", "id": 5818209159, "lat": 43.3459764, "lon": 5.040734, "tags": {"operator": "Enedis", "power": "substation", "source": "Enedis - 06/2018", "substation": "minor_distribution", "voltage": "20000;400"}}, {"type": "node", "id": 5830035625, "lat": 43.2394093, "lon": 5.3732601, "tags": {"operator": "Enedis", "power": "substation", "source": "Enedis - 06/2018", "substation": "minor_distribution", "voltage": "20000;400"}}, {"type": "node", "id": 5845941250, "lat": 43.3323035, "lon": 5.3587666, "tags": {"name": "Bitumes 547", "operator": "Enedis", "power": "substation", "source": "Enedis - 06/2018", "substation": "minor_distribution", "voltage": "20000;400"}}, {"type": "node", "id": 5851371782, "lat": 43.337157, "lon": 5.4075785, "tags": {"operator": "Enedis", "power": "substation", "source": "Enedis - 06/2018", "substation": "minor_distribution", "voltage": "20000;400"}}, {"type": "node", "id": 5851372498, "lat": 43.335056, "lon": 5.4076297, "tags": {"operator": "Enedis", "power": "substation", "source": "Enedis - 06/2018", "substation": "minor_distribution", "voltage": "20000;400"}}, {"type": "node", "id": 5906291064, "lat": 43.2465576, "lon": 5.4318479, "tags": {"operator": "Enedis", "power": "substation", "source": "Enedis - 06/2018", "substation": "minor_distribution", "voltage": "20000;400"}}, {"type": "node", "id": 5911114552, "lat": 43.2453872, "lon": 5.4128544, "tags": {"operator": "Enedis", "power": "substation", "source": "Enedis - 06/2018", "substation": "minor_distribution", "voltage": "20000;400"}}, {"type": "node", "id": 5911115147, "lat": 43.2359327, "lon": 5.4383409, "tags": {"operator": "Enedis", "power": "substation", "source": "Enedis - 06/2018", "substation": "minor_distribution", "voltage": "20000;400"}}, {"type": "node", "id": 5911115149, "lat": 43.2490099, "lon": 5.4408238, "tags": {"operator": "Enedis", "power": "substation", "source": "Enedis - 06/2018", "substation": "minor_distribution", "voltage": "20000;400"}}, {"type": "node", "id": 5911115203, "lat": 43.2465044, "lon": 5.4355095, "tags": {"operator": "Enedis", "power": "substation", "source": "Enedis - 06/2018", "substation": "minor_distribution", "voltage": "20000;400"}}, {"type": "node", "id": 5913412888, "lat": 43.2500763, "lon": 5.4041086, "tags": {"operator": "Enedis", "power": "substation", "source": "Enedis - 06/2018", "substation": "minor_distribution", "voltage": "20000;400"}}, {"type": "node", "id": 5983640236, "lat": 43.3666043, "lon": 5.3070471, "tags": {"operator": "Enedis", "operator:wikidata": "Q3587594", "power": "substation", "source": "Enedis - 06/2018", "substation": "minor_distribution", "voltage": "20000;400"}}, {"type": "node", "id": 5983640644, "lat": 43.3650914, "lon": 5.3060486, "tags": {"operator": "Enedis", "operator:wikidata": "Q3587594", "power": "substation", "source": "Enedis - 06/2018", "substation": "minor_distribution", "voltage": "20000;400"}}, {"type": "node", "id": 6148508895, "lat": 43.3240677, "lon": 5.4339866, "tags": {"operator": "Enedis", "power": "substation", "source": "Enedis - 06/2018", "substation": "minor_distribution", "voltage": "20000;400"}}, {"type": "node", "id": 6148510460, "lat": 43.3233668, "lon": 5.4370671, "tags": {"operator": "Enedis", "power": "substation", "source": "Enedis - 06/2018", "substation": "minor_distribution", "voltage": "20000;400"}}, {"type": "node", "id": 6148510889, "lat": 43.3250587, "lon": 5.4339521, "tags": {"operator": "Enedis", "power": "substation", "source": "Enedis - 06/2018", "substation": "minor_distribution", "voltage": "20000;400"}}, {"type": "node", "id": 6239516542, "lat": 43.4798248, "lon": 5.4233914, "tags": {"power": "substation"}}, {"type": "node", "id": 6345045075, "lat": 43.447023, "lon": 5.243113, "tags": {"operator": "Enedis", "power": "substation", "source": "Enedis - 06/2018", "substation": "minor_distribution", "voltage": "20000;400"}}, {"type": "node", "id": 6436269475, "lat": 43.2972631, "lon": 5.4946564, "tags": {"operator": "Enedis", "power": "substation", "source": "Enedis - 06/2018", "substation": "minor_distribution", "voltage": "20000;400"}}, {"type": "node", "id": 6436272917, "lat": 43.2968787, "lon": 5.4926385, "tags": {"operator": "Enedis", "power": "substation", "source": "Enedis - 06/2018", "substation": "minor_distribution", "voltage": "20000;400"}}, {"type": "node", "id": 6482341235, "lat": 43.2918374, "lon": 5.4212317, "tags": {"operator": "Enedis", "power": "substation", "source": "Enedis - 06/2018", "substation": "minor_distribution", "voltage": "20000;400"}}, {"type": "node", "id": 6482341236, "lat": 43.290652, "lon": 5.421002, "tags": {"operator": "Enedis", "power": "substation", "source": "Enedis - 06/2018", "substation": "minor_distribution", "voltage": "20000;400"}}, {"type": "node", "id": 6482341237, "lat": 43.2914425, "lon": 5.4178585, "tags": {"operator": "Enedis", "power": "substation", "source": "Enedis - 06/2018", "substation": "minor_distribution", "voltage": "20000;400"}}, {"type": "node", "id": 6506190391, "lat": 43.3048871, "lon": 5.4383157, "tags": {"operator": "Enedis", "power": "substation", "source": "Enedis - 06/2018", "substation": "minor_distribution", "voltage": "20000;400"}}, {"type": "node", "id": 6572255327, "lat": 43.2950944, "lon": 5.4257049, "tags": {"operator": "Enedis", "power": "substation", "source": "Enedis - 06/2018", "substation": "minor_distribution", "voltage": "20000;400"}}, {"type": "node", "id": 6716122002, "lat": 43.3378116, "lon": 5.4725981, "tags": {"operator": "Enedis", "power": "substation", "source": "Enedis - 06/2018", "substation": "minor_distribution", "voltage": "20000;400"}}, {"type": "node", "id": 6738889347, "lat": 43.3396163, "lon": 5.4548592, "tags": {"operator": "Enedis", "operator:wikidata": "Q3587594", "power": "substation", "source": "Enedis - 06/2018", "substation": "minor_distribution", "voltage": "20000;400"}}, {"type": "node", "id": 7236823636, "lat": 43.3124341, "lon": 5.3871987, "tags": {"location": "indoor", "operator": "Enedis", "power": "substation", "source": "Enedis - 06/2018", "substation": "minor_distribution", "voltage": "20000;400"}}, {"type": "node", "id": 7778889025, "lat": 43.1230248, "lon": 5.8033709, "tags": {"power": "substation", "substation": "minor_distribution"}}, {"type": "node", "id": 7820394227, "lat": 43.5453284, "lon": 5.2947387, "tags": {"comment": "the substation is in a little house. i did not survey voltage etc.", "location": "indoor", "power": "substation", "substation": "minor_distribution"}}, {"type": "node", "id": 7856883036, "lat": 43.3392203, "lon": 5.1634881, "tags": {"man_made": "street_cabinet", "name": "Netti", "power": "substation", "substation": "minor_distribution", "utility": "power", "voltage": "20000"}}, {"type": "node", "id": 7856883037, "lat": 43.3410482, "lon": 5.1477494, "tags": {"man_made": "street_cabinet", "name": "Jas Neuf", "operator": "Enedis", "operator:wikidata": "Q3587594", "power": "substation", "substation": "distribution", "utility": "power", "voltage": "20000"}}, {"type": "node", "id": 7904898749, "lat": 43.3132376, "lon": 5.5731089, "tags": {"operator": "Enedis", "power": "substation", "substation": "distribution"}}, {"type": "node", "id": 7908131829, "lat": 43.312282, "lon": 5.5694401, "tags": {"building": "transformer_tower", "power": "substation", "substation": "minor_distribution", "voltage": "20000;400"}}, {"type": "node", "id": 7909129785, "lat": 43.5250591, "lon": 5.4167758, "tags": {"power": "substation", "survey:date": "2020-09-15"}}, {"type": "node", "id": 8395202151, "lat": 43.0762877, "lon": 5.8044296, "tags": {"name": "Cader", "operator": "Enedis", "power": "substation", "ref": "129-019", "source": "Enedis - 2021-01", "substation": "minor_distribution", "voltage": "20000;400"}}, {"type": "node", "id": 8395202154, "lat": 43.0926704, "lon": 5.8359751, "tags": {"operator": "Enedis", "power": "substation", "source": "Enedis - 2021-01", "substation": "minor_distribution", "voltage": "20000;400"}}, {"type": "node", "id": 8395202155, "lat": 43.0938815, "lon": 5.8351, "tags": {"operator": "Enedis", "power": "substation", "source": "Enedis - 2021-01", "substation": "minor_distribution", "voltage": "20000;400"}}, {"type": "node", "id": 8395202156, "lat": 43.0946388, "lon": 5.833434, "tags": {"operator": "Enedis", "power": "substation", "source": "Enedis - 2021-01", "substation": "minor_distribution", "voltage": "20000;400"}}, {"type": "node", "id": 8395202157, "lat": 43.0977792, "lon": 5.8236151, "tags": {"operator": "Enedis", "power": "substation", "source": "Enedis - 2021-01", "substation": "minor_distribution", "voltage": "20000;400"}}, {"type": "node", "id": 8395202159, "lat": 43.0970844, "lon": 5.8269286, "tags": {"operator": "Enedis", "power": "substation", "source": "Enedis - 2021-01", "substation": "minor_distribution", "voltage": "20000;400"}}, {"type": "node", "id": 8395202160, "lat": 43.0994057, "lon": 5.8252557, "tags": {"operator": "Enedis", "power": "substation", "source": "Enedis - 2021-01", "substation": "minor_distribution", "voltage": "20000;400"}}, {"type": "node", "id": 8395202161, "lat": 43.0984011, "lon": 5.8272888, "tags": {"operator": "Enedis", "power": "substation", "source": "Enedis - 2021-01", "substation": "minor_distribution", "voltage": "20000;400"}}, {"type": "node", "id": 8507320163, "lat": 43.0714801, "lon": 5.7900612, "tags": {"name": "Le Gaou", "operator": "Enedis", "power": "substation", "ref": "129-123", "source": "Enedis - 2021-01", "substation": "minor_distribution", "voltage": "20000;400"}}, {"type": "node", "id": 8662647468, "lat": 43.298093, "lon": 5.4291904, "tags": {"operator": "Enedis", "power": "substation", "source": "Enedis - 2021-01", "substation": "minor_distribution", "voltage": "20000;400"}}, {"type": "node", "id": 8704146067, "lat": 43.0728596, "lon": 5.8083722, "tags": {"operator": "Enedis", "power": "substation", "source": "Enedis - 2021-01", "substation": "minor_distribution", "voltage": "20000;400"}}, {"type": "node", "id": 8704146068, "lat": 43.0704852, "lon": 5.8033071, "tags": {"name": "Arcadie", "operator": "Enedis", "power": "substation", "ref": "129-95", "source": "Enedis - 2021-01", "substation": "minor_distribution", "voltage": "20000;400"}}, {"type": "node", "id": 8704146069, "lat": 43.072137, "lon": 5.8029204, "tags": {"name": "Th\u00e9ba\u00efde", "operator": "Enedis", "power": "substation", "ref": "129-43", "source": "Enedis - 2021-01", "substation": "minor_distribution", "voltage": "20000;400"}}, {"type": "node", "id": 8704146070, "lat": 43.0760538, "lon": 5.806992, "tags": {"name": "Gr\u00e9co Romain", "operator": "Enedis", "operator:wikidata": "Q3587594", "power": "substation", "ref": "129-45", "source": "Enedis - 2021-01", "substation": "minor_distribution", "voltage": "20000;400"}}, {"type": "node", "id": 8704146071, "lat": 43.0767028, "lon": 5.8123516, "tags": {"operator": "Enedis", "operator:wikidata": "Q3587594", "power": "substation", "source": "Enedis - 2021-01", "substation": "minor_distribution", "voltage": "20000;400"}}, {"type": "node", "id": 9103798339, "lat": 43.3889465, "lon": 5.7605563, "tags": {"operator": "Enedis", "power": "substation", "source": "Enedis - 2021-01", "substation": "minor_distribution", "voltage": "20000"}}, {"type": "node", "id": 9425745620, "lat": 43.3610766, "lon": 5.3469049, "tags": {"operator": "Enedis", "operator:wikidata": "Q3587594", "operator:wikipedia": "fr:Enedis", "power": "substation", "source": "Enedis - 2021-01", "substation": "minor_distribution", "voltage": "20000"}}, {"type": "node", "id": 9425873017, "lat": 43.3575452, "lon": 5.3501401, "tags": {"operator": "Enedis", "operator:wikidata": "Q3587594", "operator:wikipedia": "fr:Enedis", "power": "substation", "source": "Enedis - 2021-01", "substation": "minor_distribution", "voltage": "20000"}}, {"type": "node", "id": 9425873028, "lat": 43.3573847, "lon": 5.3561806, "tags": {"operator": "Enedis", "operator:wikidata": "Q3587594", "operator:wikipedia": "fr:Enedis", "power": "substation", "source": "Enedis - 2021-01", "substation": "minor_distribution", "voltage": "20000"}}, {"type": "node", "id": 9425873045, "lat": 43.3631794, "lon": 5.3459445, "tags": {"operator": "Enedis", "operator:wikidata": "Q3587594", "operator:wikipedia": "fr:Enedis", "power": "substation", "source": "Enedis - 2021-01", "substation": "minor_distribution", "voltage": "20000"}}, {"type": "node", "id": 9425873046, "lat": 43.3632, "lon": 5.3459351, "tags": {"operator": "Enedis", "operator:wikidata": "Q3587594", "operator:wikipedia": "fr:Enedis", "power": "substation", "source": "Enedis - 2021-01", "substation": "minor_distribution", "voltage": "20000"}}, {"type": "node", "id": 9425873048, "lat": 43.3643766, "lon": 5.3480533, "tags": {"operator": "Enedis", "operator:wikidata": "Q3587594", "operator:wikipedia": "fr:Enedis", "power": "substation", "source": "Enedis - 2021-01", "substation": "minor_distribution", "voltage": "20000"}}, {"type": "node", "id": 9425873049, "lat": 43.3647647, "lon": 5.3513742, "tags": {"operator": "Enedis", "operator:wikidata": "Q3587594", "operator:wikipedia": "fr:Enedis", "power": "substation", "source": "Enedis - 2021-01", "substation": "minor_distribution", "voltage": "20000"}}, {"type": "node", "id": 9425873050, "lat": 43.3646234, "lon": 5.3526481, "tags": {"operator": "Enedis", "operator:wikidata": "Q3587594", "operator:wikipedia": "fr:Enedis", "power": "substation", "source": "Enedis - 2021-01", "substation": "minor_distribution", "voltage": "20000"}}, {"type": "node", "id": 9425873051, "lat": 43.363304, "lon": 5.3472942, "tags": {"operator": "Enedis", "operator:wikidata": "Q3587594", "operator:wikipedia": "fr:Enedis", "power": "substation", "source": "Enedis - 2021-01", "substation": "minor_distribution", "voltage": "20000"}}, {"type": "node", "id": 9425873052, "lat": 43.3633104, "lon": 5.3473503, "tags": {"operator": "Enedis", "operator:wikidata": "Q3587594", "operator:wikipedia": "fr:Enedis", "power": "substation", "source": "Enedis - 2021-01", "substation": "minor_distribution", "voltage": "20000"}}, {"type": "node", "id": 9425873054, "lat": 43.3635065, "lon": 5.3488769, "tags": {"operator": "Enedis", "operator:wikidata": "Q3587594", "operator:wikipedia": "fr:Enedis", "power": "substation", "source": "Enedis - 2021-01", "substation": "minor_distribution", "voltage": "20000"}}, {"type": "node", "id": 9425873055, "lat": 43.3635142, "lon": 5.3489662, "tags": {"operator": "Enedis", "operator:wikidata": "Q3587594", "operator:wikipedia": "fr:Enedis", "power": "substation", "source": "Enedis - 2021-01", "substation": "minor_distribution", "voltage": "20000"}}, {"type": "node", "id": 9425873056, "lat": 43.3635198, "lon": 5.349049, "tags": {"operator": "Enedis", "operator:wikidata": "Q3587594", "operator:wikipedia": "fr:Enedis", "power": "substation", "source": "Enedis - 2021-01", "substation": "minor_distribution", "voltage": "20000"}}, {"type": "node", "id": 9425873057, "lat": 43.3635964, "lon": 5.3500117, "tags": {"operator": "Enedis", "operator:wikidata": "Q3587594", "operator:wikipedia": "fr:Enedis", "power": "substation", "source": "Enedis - 2021-01", "substation": "minor_distribution", "voltage": "20000"}}, {"type": "node", "id": 9425873058, "lat": 43.3635849, "lon": 5.3498777, "tags": {"operator": "Enedis", "operator:wikidata": "Q3587594", "operator:wikipedia": "fr:Enedis", "power": "substation", "source": "Enedis - 2021-01", "substation": "minor_distribution", "voltage": "20000"}}, {"type": "node", "id": 9437365712, "lat": 43.3501898, "lon": 5.3691202, "tags": {"operator": "Enedis", "operator:wikidata": "Q3587594", "operator:wikipedia": "fr:Enedis", "power": "substation", "source": "Enedis - 2021-01", "substation": "minor_distribution", "voltage": "20000"}}, {"type": "node", "id": 9437365713, "lat": 43.3509088, "lon": 5.37047, "tags": {"operator": "Enedis", "operator:wikidata": "Q3587594", "operator:wikipedia": "fr:Enedis", "power": "substation", "source": "Enedis - 2021-01", "substation": "minor_distribution", "voltage": "20000"}}, {"type": "node", "id": 9437365714, "lat": 43.3511505, "lon": 5.3697611, "tags": {"operator": "Enedis", "operator:wikidata": "Q3587594", "operator:wikipedia": "fr:Enedis", "power": "substation", "source": "Enedis - 2021-01", "substation": "minor_distribution", "voltage": "20000"}}, {"type": "node", "id": 9437395124, "lat": 43.3580975, "lon": 5.3574582, "tags": {"operator": "Enedis", "operator:wikidata": "Q3587594", "operator:wikipedia": "fr:Enedis", "power": "substation", "source": "Enedis - 2021-01", "substation": "minor_distribution", "voltage": "20000"}}, {"type": "node", "id": 9437395126, "lat": 43.3592517, "lon": 5.3568292, "tags": {"operator": "Enedis", "operator:wikidata": "Q3587594", "operator:wikipedia": "fr:Enedis", "power": "substation", "source": "Enedis - 2021-01", "substation": "minor_distribution", "voltage": "20000"}}, {"type": "node", "id": 9437743947, "lat": 43.3526619, "lon": 5.3601587, "tags": {"operator": "Enedis", "operator:wikidata": "Q3587594", "operator:wikipedia": "fr:Enedis", "power": "substation", "source": "Enedis - 2021-01", "substation": "minor_distribution", "voltage": "20000"}}, {"type": "node", "id": 9437743954, "lat": 43.3516654, "lon": 5.357922, "tags": {"operator": "Enedis", "operator:wikidata": "Q3587594", "operator:wikipedia": "fr:Enedis", "power": "substation", "source": "Enedis - 2021-01", "substation": "minor_distribution", "voltage": "20000"}}, {"type": "node", "id": 9437743971, "lat": 43.349074, "lon": 5.3553804, "tags": {"operator": "Enedis", "operator:wikidata": "Q3587594", "operator:wikipedia": "fr:Enedis", "power": "substation", "source": "Enedis - 2021-01", "substation": "minor_distribution", "voltage": "20000"}}, {"type": "node", "id": 9442215654, "lat": 43.368836, "lon": 5.3522508, "tags": {"operator": "Enedis", "operator:wikidata": "Q3587594", "operator:wikipedia": "fr:Enedis", "power": "substation", "source": "Enedis - 2021-01", "substation": "minor_distribution", "voltage": "20000"}}, {"type": "node", "id": 9442215659, "lat": 43.3706091, "lon": 5.3551048, "tags": {"operator": "Enedis", "operator:wikidata": "Q3587594", "operator:wikipedia": "fr:Enedis", "power": "substation", "source": "Enedis - 2021-01", "substation": "minor_distribution", "voltage": "20000"}}, {"type": "node", "id": 9442215680, "lat": 43.3679085, "lon": 5.3464891, "tags": {"operator": "Enedis", "operator:wikidata": "Q3587594", "operator:wikipedia": "fr:Enedis", "power": "substation", "source": "Enedis - 2021-01", "substation": "minor_distribution", "voltage": "20000"}}, {"type": "node", "id": 9442215687, "lat": 43.3691935, "lon": 5.3471872, "tags": {"operator": "Enedis", "operator:wikidata": "Q3587594", "operator:wikipedia": "fr:Enedis", "power": "substation", "source": "Enedis - 2021-01", "substation": "minor_distribution", "voltage": "20000"}}, {"type": "node", "id": 9442215692, "lat": 43.367555, "lon": 5.3399249, "tags": {"operator": "Enedis", "operator:wikidata": "Q3587594", "operator:wikipedia": "fr:Enedis", "power": "substation", "source": "Enedis - 2021-01", "substation": "minor_distribution", "voltage": "20000"}}, {"type": "node", "id": 9442215693, "lat": 43.3674102, "lon": 5.3418275, "tags": {"operator": "Enedis", "operator:wikidata": "Q3587594", "operator:wikipedia": "fr:Enedis", "power": "substation", "source": "Enedis - 2021-01", "substation": "minor_distribution", "voltage": "20000"}}, {"type": "node", "id": 9442215695, "lat": 43.3680352, "lon": 5.3439109, "tags": {"operator": "Enedis", "operator:wikidata": "Q3587594", "operator:wikipedia": "fr:Enedis", "power": "substation", "source": "Enedis - 2021-01", "substation": "minor_distribution", "voltage": "20000"}}, {"type": "node", "id": 9442215696, "lat": 43.3658686, "lon": 5.3414386, "tags": {"operator": "Enedis", "operator:wikidata": "Q3587594", "operator:wikipedia": "fr:Enedis", "power": "substation", "source": "Enedis - 2021-01", "substation": "minor_distribution", "voltage": "20000"}}, {"type": "node", "id": 9442215697, "lat": 43.3654515, "lon": 5.3402397, "tags": {"operator": "Enedis", "operator:wikidata": "Q3587594", "operator:wikipedia": "fr:Enedis", "power": "substation", "source": "Enedis - 2021-01", "substation": "minor_distribution", "voltage": "20000"}}, {"type": "node", "id": 9442215698, "lat": 43.3612249, "lon": 5.3573144, "tags": {"operator": "Enedis", "operator:wikidata": "Q3587594", "operator:wikipedia": "fr:Enedis", "power": "substation", "source": "Enedis - 2021-01", "substation": "minor_distribution", "voltage": "20000"}}, {"type": "node", "id": 9442215703, "lat": 43.3575302, "lon": 5.3614581, "tags": {"operator": "Enedis", "operator:wikidata": "Q3587594", "operator:wikipedia": "fr:Enedis", "power": "substation", "source": "Enedis - 2021-01", "substation": "minor_distribution", "voltage": "20000"}}, {"type": "node", "id": 9442215704, "lat": 43.3576073, "lon": 5.3591875, "tags": {"operator": "Enedis", "operator:wikidata": "Q3587594", "operator:wikipedia": "fr:Enedis", "power": "substation", "source": "Enedis - 2021-01", "substation": "minor_distribution", "voltage": "20000"}}, {"type": "node", "id": 9442215705, "lat": 43.3565324, "lon": 5.3610086, "tags": {"operator": "Enedis", "operator:wikidata": "Q3587594", "operator:wikipedia": "fr:Enedis", "power": "substation", "source": "Enedis - 2021-01", "substation": "minor_distribution", "voltage": "20000"}}, {"type": "node", "id": 9442215706, "lat": 43.3554084, "lon": 5.3599927, "tags": {"operator": "Enedis", "operator:wikidata": "Q3587594", "operator:wikipedia": "fr:Enedis", "power": "substation", "source": "Enedis - 2021-01", "substation": "minor_distribution", "voltage": "20000"}}, {"type": "node", "id": 9453992541, "lat": 43.5234744, "lon": 5.4430267, "tags": {"operator": "Enedis", "operator:wikidata": "Q3587594", "operator:wikipedia": "fr:Enedis", "power": "substation", "source": "Enedis - 2021-01", "substation": "minor_distribution", "voltage": "20000"}}, {"type": "node", "id": 9455638555, "lat": 43.4517802, "lon": 5.4529861, "tags": {"operator": "Enedis", "operator:wikidata": "Q3587594", "operator:wikipedia": "fr:Enedis", "power": "substation", "source": "Enedis - 2021-01", "substation": "minor_distribution", "voltage": "20000"}}, {"type": "node", "id": 9458193237, "lat": 43.4673377, "lon": 5.4717166, "tags": {"operator": "Enedis", "operator:wikidata": "Q3587594", "operator:wikipedia": "fr:Enedis", "power": "substation", "source": "Enedis - 2021-01", "substation": "minor_distribution", "voltage": "20000"}}, {"type": "node", "id": 9458193316, "lat": 43.4628402, "lon": 5.4832235, "tags": {"operator": "Enedis", "operator:wikidata": "Q3587594", "operator:wikipedia": "fr:Enedis", "power": "substation", "source": "Enedis - 2021-01", "substation": "minor_distribution", "voltage": "20000"}}, {"type": "node", "id": 9458196518, "lat": 43.4544136, "lon": 5.4801384, "tags": {"operator": "Enedis", "operator:wikidata": "Q3587594", "operator:wikipedia": "fr:Enedis", "power": "substation", "source": "Enedis - 2021-01", "substation": "minor_distribution", "voltage": "20000"}}, {"type": "node", "id": 9458400632, "lat": 43.3633823, "lon": 5.351454, "tags": {"operator": "Enedis", "operator:wikidata": "Q3587594", "operator:wikipedia": "fr:Enedis", "power": "substation", "source": "Enedis - 2021-01", "substation": "minor_distribution", "voltage": "20000"}}, {"type": "node", "id": 9458400657, "lat": 43.3589833, "lon": 5.3555791, "tags": {"operator": "Enedis", "operator:wikidata": "Q3587594", "operator:wikipedia": "fr:Enedis", "power": "substation", "source": "Enedis - 2021-01", "substation": "minor_distribution", "voltage": "20000"}}, {"type": "node", "id": 9458650830, "lat": 43.0743641, "lon": 5.8038977, "tags": {"name": "Le Mail", "operator": "Enedis", "power": "substation", "source": "Enedis - 2021-01", "substation": "minor_distribution", "voltage": "20000"}}, {"type": "node", "id": 9460195502, "lat": 43.0782621, "lon": 5.8044188, "tags": {"operator": "Enedis", "operator:wikidata": "Q3587594", "power": "substation", "ref": "83129 P0157", "source": "Enedis - 2021-01", "substation": "minor_distribution", "voltage": "20000"}}, {"type": "node", "id": 9460195504, "lat": 43.0789975, "lon": 5.8060945, "tags": {"operator": "Enedis", "power": "substation", "source": "Enedis - 2021-01", "substation": "minor_distribution", "voltage": "20000"}}, {"type": "node", "id": 9460195505, "lat": 43.0783122, "lon": 5.8070468, "tags": {"operator": "Enedis", "operator:wikidata": "Q3587594", "power": "substation", "source": "Enedis - 2021-01", "substation": "minor_distribution", "voltage": "20000"}}, {"type": "node", "id": 9460195506, "lat": 43.0801084, "lon": 5.8074787, "tags": {"operator": "Enedis", "power": "substation", "source": "Enedis - 2021-01", "substation": "minor_distribution", "voltage": "20000"}}, {"type": "node", "id": 9466230482, "lat": 43.4577981, "lon": 5.4582399, "tags": {"operator": "Enedis", "operator:wikidata": "Q3587594", "operator:wikipedia": "fr:Enedis", "power": "substation", "source": "Enedis - 2021-01", "substation": "minor_distribution", "voltage": "20000"}}, {"type": "node", "id": 9493710780, "lat": 43.3673578, "lon": 5.3691339, "tags": {"operator": "Enedis", "operator:wikidata": "Q3587594", "operator:wikipedia": "fr:Enedis", "power": "substation", "source": "Enedis - 2021-01", "substation": "minor_distribution", "voltage": "20000"}}, {"type": "node", "id": 9493926183, "lat": 43.4258534, "lon": 5.3662294, "tags": {"operator": "Enedis", "operator:wikidata": "Q3587594", "operator:wikipedia": "fr:Enedis", "power": "substation", "source": "Enedis - 2021-01", "substation": "minor_distribution", "voltage": "20000"}}, {"type": "node", "id": 9498576101, "lat": 43.4318396, "lon": 5.3981117, "tags": {"operator": "Enedis", "operator:wikidata": "Q3587594", "operator:wikipedia": "fr:Enedis", "power": "substation", "source": "Enedis - 2021-01", "substation": "minor_distribution", "voltage": "20000"}}, {"type": "node", "id": 9498576102, "lat": 43.4336283, "lon": 5.3973044, "tags": {"operator": "Enedis", "operator:wikidata": "Q3587594", "operator:wikipedia": "fr:Enedis", "power": "substation", "source": "Enedis - 2021-01", "substation": "minor_distribution", "voltage": "20000"}}, {"type": "node", "id": 9498586984, "lat": 43.4235675, "lon": 5.3856254, "tags": {"operator": "Enedis", "operator:wikidata": "Q3587594", "operator:wikipedia": "fr:Enedis", "power": "substation", "source": "Enedis - 2021-01", "substation": "minor_distribution", "voltage": "20000"}}, {"type": "node", "id": 9499397693, "lat": 43.4155363, "lon": 5.3468635, "tags": {"operator": "Enedis", "operator:wikidata": "Q3587594", "operator:wikipedia": "fr:Enedis", "power": "substation", "source": "Enedis - 2021-01", "substation": "minor_distribution", "voltage": "20000"}}, {"type": "node", "id": 9499397710, "lat": 43.4173337, "lon": 5.3484875, "tags": {"operator": "Enedis", "operator:wikidata": "Q3587594", "operator:wikipedia": "fr:Enedis", "power": "substation", "source": "Enedis - 2021-01", "substation": "minor_distribution", "voltage": "20000"}}, {"type": "node", "id": 9500887221, "lat": 43.4222156, "lon": 5.348974, "tags": {"operator": "Enedis", "operator:wikidata": "Q3587594", "operator:wikipedia": "fr:Enedis", "power": "substation", "source": "Enedis - 2021-01", "substation": "minor_distribution", "voltage": "20000"}}, {"type": "node", "id": 9501706922, "lat": 43.328955, "lon": 5.3626086, "tags": {"operator": "Enedis", "operator:wikidata": "Q3587594", "operator:wikipedia": "fr:Enedis", "power": "substation", "source": "Enedis - 2021-01", "substation": "minor_distribution", "voltage": "20000"}}, {"type": "node", "id": 9501706923, "lat": 43.3289597, "lon": 5.3626294, "tags": {"operator": "Enedis", "operator:wikidata": "Q3587594", "operator:wikipedia": "fr:Enedis", "power": "substation", "source": "Enedis - 2021-01", "substation": "minor_distribution", "voltage": "20000"}}, {"type": "node", "id": 9503269782, "lat": 43.3450618, "lon": 5.3541538, "tags": {"operator": "Enedis", "operator:wikidata": "Q3587594", "operator:wikipedia": "fr:Enedis", "power": "substation", "source": "Enedis - 2021-01", "substation": "minor_distribution", "voltage": "20000"}}, {"type": "node", "id": 9503269799, "lat": 43.3468676, "lon": 5.3464364, "tags": {"operator": "Enedis", "operator:wikidata": "Q3587594", "operator:wikipedia": "fr:Enedis", "power": "substation", "source": "Enedis - 2021-01", "substation": "minor_distribution", "voltage": "20000"}}, {"type": "node", "id": 9503496155, "lat": 43.2799711, "lon": 5.3249019, "tags": {"operator": "Enedis", "operator:wikidata": "Q3587594", "operator:wikipedia": "fr:Enedis", "power": "substation", "source": "Enedis - 2021-01", "substation": "minor_distribution", "voltage": "20000"}}, {"type": "node", "id": 9503496157, "lat": 43.2839804, "lon": 5.3182089, "tags": {"operator": "Enedis", "operator:wikidata": "Q3587594", "operator:wikipedia": "fr:Enedis", "power": "substation", "source": "Enedis - 2021-01", "substation": "minor_distribution", "voltage": "20000"}}, {"type": "node", "id": 9503496170, "lat": 43.2821783, "lon": 5.3096704, "tags": {"operator": "Enedis", "operator:wikidata": "Q3587594", "operator:wikipedia": "fr:Enedis", "power": "substation", "source": "Enedis - 2021-01", "substation": "minor_distribution", "voltage": "20000"}}, {"type": "node", "id": 9503496173, "lat": 43.2714842, "lon": 5.3008543, "tags": {"operator": "Enedis", "operator:wikidata": "Q3587594", "operator:wikipedia": "fr:Enedis", "power": "substation", "source": "Enedis - 2021-01", "substation": "minor_distribution", "voltage": "20000"}}, {"type": "node", "id": 9503496174, "lat": 43.2758341, "lon": 5.3041528, "tags": {"operator": "Enedis", "operator:wikidata": "Q3587594", "operator:wikipedia": "fr:Enedis", "power": "substation", "source": "Enedis - 2021-01", "substation": "minor_distribution", "voltage": "20000"}}, {"type": "node", "id": 9503661380, "lat": 43.3501254, "lon": 5.3615106, "tags": {"operator": "Enedis", "operator:wikidata": "Q3587594", "operator:wikipedia": "fr:Enedis", "power": "substation", "source": "Enedis - 2021-01", "substation": "minor_distribution", "voltage": "20000"}}, {"type": "node", "id": 9504491751, "lat": 43.06965, "lon": 5.8025703, "tags": {"name": "La Gardiole", "operator": "Enedis", "power": "substation", "ref": "129-9/49110A2", "substation": "minor_distribution", "voltage": "20000;400"}}, {"type": "node", "id": 9505730235, "lat": 43.3590147, "lon": 5.5743696, "tags": {"operator": "Enedis", "operator:wikidata": "Q3587594", "operator:wikipedia": "fr:Enedis", "power": "substation", "source": "Enedis - 2021-01", "substation": "minor_distribution", "voltage": "20000"}}, {"type": "node", "id": 9506334148, "lat": 43.3600029, "lon": 5.3364114, "tags": {"operator": "Enedis", "operator:wikidata": "Q3587594", "operator:wikipedia": "fr:Enedis", "power": "substation", "source": "Enedis - 2021-01", "substation": "minor_distribution", "voltage": "20000"}}, {"type": "node", "id": 9506334149, "lat": 43.3626005, "lon": 5.3350249, "tags": {"operator": "Enedis", "operator:wikidata": "Q3587594", "operator:wikipedia": "fr:Enedis", "power": "substation", "source": "Enedis - 2021-01", "substation": "minor_distribution", "voltage": "20000"}}, {"type": "node", "id": 9570847110, "lat": 43.4005816, "lon": 5.3528968, "tags": {"operator": "Enedis", "operator:wikidata": "Q3587594", "operator:wikipedia": "fr:Enedis", "power": "substation", "source": "Enedis - 2021-01", "substation": "minor_distribution", "voltage": "20000"}}, {"type": "node", "id": 9570847111, "lat": 43.4009287, "lon": 5.3504119, "tags": {"operator": "Enedis", "operator:wikidata": "Q3587594", "operator:wikipedia": "fr:Enedis", "power": "substation", "source": "Enedis - 2021-01", "substation": "minor_distribution", "voltage": "20000"}}, {"type": "node", "id": 9570859119, "lat": 43.4086039, "lon": 5.3489111, "tags": {"operator": "Enedis", "operator:wikidata": "Q3587594", "operator:wikipedia": "fr:Enedis", "power": "substation", "source": "Enedis - 2021-01", "substation": "minor_distribution", "voltage": "20000"}}, {"type": "node", "id": 9570859120, "lat": 43.4103092, "lon": 5.3453518, "tags": {"operator": "Enedis", "operator:wikidata": "Q3587594", "operator:wikipedia": "fr:Enedis", "power": "substation", "source": "Enedis - 2021-01", "substation": "minor_distribution", "voltage": "20000"}}, {"type": "node", "id": 9570859121, "lat": 43.4081959, "lon": 5.3346274, "tags": {"operator": "Enedis", "operator:wikidata": "Q3587594", "operator:wikipedia": "fr:Enedis", "power": "substation", "source": "Enedis - 2021-01", "substation": "minor_distribution", "voltage": "20000"}}, {"type": "node", "id": 9571561194, "lat": 43.4265199, "lon": 5.2852659, "tags": {"operator": "Enedis", "operator:wikidata": "Q3587594", "operator:wikipedia": "fr:Enedis", "power": "substation", "source": "Enedis - 2021-01", "substation": "minor_distribution", "voltage": "20000"}}, {"type": "node", "id": 9573931931, "lat": 43.3940123, "lon": 5.5877052, "tags": {"operator": "Enedis", "operator:wikidata": "Q3587594", "operator:wikipedia": "fr:Enedis", "power": "substation", "source": "Enedis - 2021-01", "substation": "minor_distribution", "voltage": "20000"}}, {"type": "node", "id": 9575293966, "lat": 43.4317047, "lon": 5.2782576, "tags": {"operator": "Enedis", "operator:wikidata": "Q3587594", "operator:wikipedia": "fr:Enedis", "power": "substation", "source": "Enedis - 2021-01", "substation": "minor_distribution", "voltage": "20000"}}, {"type": "node", "id": 9575293979, "lat": 43.4283845, "lon": 5.2649, "tags": {"operator": "Enedis", "operator:wikidata": "Q3587594", "operator:wikipedia": "fr:Enedis", "power": "substation", "source": "Enedis - 2021-01", "substation": "minor_distribution", "voltage": "20000"}}, {"type": "node", "id": 9575293980, "lat": 43.4288981, "lon": 5.263246, "tags": {"operator": "Enedis", "operator:wikidata": "Q3587594", "operator:wikipedia": "fr:Enedis", "power": "substation", "source": "Enedis - 2021-01", "substation": "minor_distribution", "voltage": "20000"}}, {"type": "node", "id": 9575293981, "lat": 43.4296779, "lon": 5.2624241, "tags": {"operator": "Enedis", "operator:wikidata": "Q3587594", "operator:wikipedia": "fr:Enedis", "power": "substation", "source": "Enedis - 2021-01", "substation": "minor_distribution", "voltage": "20000"}}, {"type": "node", "id": 9579223150, "lat": 43.4448332, "lon": 5.2204496, "tags": {"operator": "Enedis", "operator:wikidata": "Q3587594", "operator:wikipedia": "fr:Enedis", "power": "substation", "source": "Enedis - 2021-01", "substation": "minor_distribution", "voltage": "20000"}}, {"type": "node", "id": 9579268268, "lat": 43.446806, "lon": 5.2281399, "tags": {"operator": "Enedis", "operator:wikidata": "Q3587594", "operator:wikipedia": "fr:Enedis", "power": "substation", "source": "Enedis - 2021-01", "substation": "minor_distribution", "voltage": "20000"}}, {"type": "node", "id": 9579268307, "lat": 43.4398866, "lon": 5.229536, "tags": {"operator": "Enedis", "operator:wikidata": "Q3587594", "operator:wikipedia": "fr:Enedis", "power": "substation", "source": "Enedis - 2021-01", "substation": "minor_distribution", "voltage": "20000"}}, {"type": "node", "id": 9580912671, "lat": 43.4556268, "lon": 5.3163502, "tags": {"operator": "Enedis", "operator:wikidata": "Q3587594", "operator:wikipedia": "fr:Enedis", "power": "substation", "source": "Enedis - 2021-01", "substation": "minor_distribution", "voltage": "20000"}}, {"type": "node", "id": 9580912672, "lat": 43.4554299, "lon": 5.3156706, "tags": {"operator": "Enedis", "operator:wikidata": "Q3587594", "operator:wikipedia": "fr:Enedis", "power": "substation", "source": "Enedis - 2021-01", "substation": "minor_distribution", "voltage": "20000"}}, {"type": "node", "id": 9581008022, "lat": 43.4684184, "lon": 5.3392052, "tags": {"operator": "Enedis", "operator:wikidata": "Q3587594", "operator:wikipedia": "fr:Enedis", "power": "substation", "source": "Enedis - 2021-01", "substation": "minor_distribution", "voltage": "20000"}}, {"type": "node", "id": 9581654643, "lat": 43.3709843, "lon": 5.351206, "tags": {"operator": "Enedis", "operator:wikidata": "Q3587594", "operator:wikipedia": "fr:Enedis", "power": "substation", "source": "Enedis - 2021-01", "substation": "minor_distribution", "voltage": "20000"}}, {"type": "node", "id": 9581654644, "lat": 43.364776, "lon": 5.3427567, "tags": {"operator": "Enedis", "operator:wikidata": "Q3587594", "operator:wikipedia": "fr:Enedis", "power": "substation", "source": "Enedis - 2021-01", "substation": "minor_distribution", "voltage": "20000"}}, {"type": "node", "id": 9581654661, "lat": 43.3688267, "lon": 5.3566528, "tags": {"operator": "Enedis", "operator:wikidata": "Q3587594", "operator:wikipedia": "fr:Enedis", "power": "substation", "source": "Enedis - 2021-01", "substation": "minor_distribution", "voltage": "20000"}}, {"type": "node", "id": 9581654681, "lat": 43.3711749, "lon": 5.3554586, "tags": {"operator": "Enedis", "operator:wikidata": "Q3587594", "operator:wikipedia": "fr:Enedis", "power": "substation", "source": "Enedis - 2021-01", "substation": "minor_distribution", "voltage": "20000"}}, {"type": "node", "id": 9588633629, "lat": 43.4323955, "lon": 5.2605024, "tags": {"operator": "Enedis", "operator:wikidata": "Q3587594", "operator:wikipedia": "fr:Enedis", "power": "substation", "source": "Enedis - 2021-01", "substation": "minor_distribution", "voltage": "20000"}}, {"type": "node", "id": 9588633630, "lat": 43.4324662, "lon": 5.2606643, "tags": {"operator": "Enedis", "operator:wikidata": "Q3587594", "operator:wikipedia": "fr:Enedis", "power": "substation", "source": "Enedis - 2021-01", "substation": "minor_distribution", "voltage": "20000"}}, {"type": "node", "id": 9588633631, "lat": 43.4312307, "lon": 5.2612809, "tags": {"operator": "Enedis", "operator:wikidata": "Q3587594", "operator:wikipedia": "fr:Enedis", "power": "substation", "source": "Enedis - 2021-01", "substation": "minor_distribution", "voltage": "20000"}}, {"type": "node", "id": 9588633632, "lat": 43.4312435, "lon": 5.2612234, "tags": {"operator": "Enedis", "operator:wikidata": "Q3587594", "operator:wikipedia": "fr:Enedis", "power": "substation", "source": "Enedis - 2021-01", "substation": "minor_distribution", "voltage": "20000"}}, {"type": "node", "id": 9588633633, "lat": 43.433555, "lon": 5.25795, "tags": {"operator": "Enedis", "operator:wikidata": "Q3587594", "operator:wikipedia": "fr:Enedis", "power": "substation", "source": "Enedis - 2021-01", "substation": "minor_distribution", "voltage": "20000"}}, {"type": "node", "id": 9588633634, "lat": 43.433185, "lon": 5.2575538, "tags": {"operator": "Enedis", "operator:wikidata": "Q3587594", "operator:wikipedia": "fr:Enedis", "power": "substation", "source": "Enedis - 2021-01", "substation": "minor_distribution", "voltage": "20000"}}, {"type": "node", "id": 9588633635, "lat": 43.4331409, "lon": 5.2574751, "tags": {"operator": "Enedis", "operator:wikidata": "Q3587594", "operator:wikipedia": "fr:Enedis", "power": "substation", "source": "Enedis - 2021-01", "substation": "minor_distribution", "voltage": "20000"}}, {"type": "node", "id": 9588633636, "lat": 43.4331875, "lon": 5.2572262, "tags": {"operator": "Enedis", "operator:wikidata": "Q3587594", "operator:wikipedia": "fr:Enedis", "power": "substation", "source": "Enedis - 2021-01", "substation": "minor_distribution", "voltage": "20000"}}, {"type": "node", "id": 9588633637, "lat": 43.4321485, "lon": 5.2586125, "tags": {"operator": "Enedis", "operator:wikidata": "Q3587594", "operator:wikipedia": "fr:Enedis", "power": "substation", "source": "Enedis - 2021-01", "substation": "minor_distribution", "voltage": "20000"}}, {"type": "node", "id": 9588633642, "lat": 43.4336981, "lon": 5.260432, "tags": {"operator": "Enedis", "operator:wikidata": "Q3587594", "operator:wikipedia": "fr:Enedis", "power": "substation", "source": "Enedis - 2021-01", "substation": "minor_distribution", "voltage": "20000"}}, {"type": "node", "id": 9588633651, "lat": 43.4354154, "lon": 5.2582978, "tags": {"operator": "Enedis", "operator:wikidata": "Q3587594", "operator:wikipedia": "fr:Enedis", "power": "substation", "source": "Enedis - 2021-01", "substation": "minor_distribution", "voltage": "20000"}}, {"type": "node", "id": 9588633652, "lat": 43.4358415, "lon": 5.2576604, "tags": {"operator": "Enedis", "operator:wikidata": "Q3587594", "operator:wikipedia": "fr:Enedis", "power": "substation", "source": "Enedis - 2021-01", "substation": "minor_distribution", "voltage": "20000"}}, {"type": "node", "id": 9588633653, "lat": 43.4293395, "lon": 5.2686615, "tags": {"operator": "Enedis", "operator:wikidata": "Q3587594", "operator:wikipedia": "fr:Enedis", "power": "substation", "source": "Enedis - 2021-01", "substation": "minor_distribution", "voltage": "20000"}}, {"type": "node", "id": 9588633658, "lat": 43.4307995, "lon": 5.2662643, "tags": {"operator": "Enedis", "operator:wikidata": "Q3587594", "operator:wikipedia": "fr:Enedis", "power": "substation", "source": "Enedis - 2021-01", "substation": "minor_distribution", "voltage": "20000"}}, {"type": "node", "id": 9588633659, "lat": 43.4304259, "lon": 5.2629315, "tags": {"operator": "Enedis", "operator:wikidata": "Q3587594", "operator:wikipedia": "fr:Enedis", "power": "substation", "source": "Enedis - 2021-01", "substation": "minor_distribution", "voltage": "20000"}}, {"type": "node", "id": 9600922477, "lat": 43.4554099, "lon": 5.3084567, "tags": {"operator": "Enedis", "operator:wikidata": "Q3587594", "operator:wikipedia": "fr:Enedis", "power": "substation", "source": "Enedis - 2021-01", "substation": "minor_distribution", "voltage": "20000"}}, {"type": "node", "id": 9600922488, "lat": 43.4498354, "lon": 5.3331375, "tags": {"operator": "Enedis", "operator:wikidata": "Q3587594", "operator:wikipedia": "fr:Enedis", "power": "substation", "source": "Enedis - 2021-01", "substation": "minor_distribution", "voltage": "20000"}}, {"type": "node", "id": 9616283860, "lat": 43.3569172, "lon": 5.2777304, "tags": {"operator": "Enedis", "operator:wikidata": "Q3587594", "operator:wikipedia": "fr:Enedis", "power": "substation", "source": "Enedis - 2021-01", "substation": "minor_distribution", "voltage": "20000"}}, {"type": "node", "id": 9616283861, "lat": 43.3571326, "lon": 5.2874219, "tags": {"operator": "Enedis", "operator:wikidata": "Q3587594", "operator:wikipedia": "fr:Enedis", "power": "substation", "source": "Enedis - 2021-01", "substation": "minor_distribution", "voltage": "20000"}}, {"type": "node", "id": 9620958482, "lat": 43.5944474, "lon": 4.9921625, "tags": {"operator": "Enedis", "operator:wikidata": "Q3587594", "operator:wikipedia": "fr:Enedis", "power": "substation", "source": "Enedis - 2021-01", "substation": "minor_distribution", "voltage": "20000"}}, {"type": "node", "id": 9620958483, "lat": 43.5944217, "lon": 4.9920905, "tags": {"operator": "Enedis", "operator:wikidata": "Q3587594", "operator:wikipedia": "fr:Enedis", "power": "substation", "source": "Enedis - 2021-01", "substation": "minor_distribution", "voltage": "20000"}}, {"type": "node", "id": 9620958484, "lat": 43.5944056, "lon": 4.9920104, "tags": {"operator": "Enedis", "operator:wikidata": "Q3587594", "operator:wikipedia": "fr:Enedis", "power": "substation", "source": "Enedis - 2021-01", "substation": "minor_distribution", "voltage": "20000"}}, {"type": "node", "id": 9620958485, "lat": 43.5943078, "lon": 4.9941674, "tags": {"operator": "Enedis", "operator:wikidata": "Q3587594", "operator:wikipedia": "fr:Enedis", "power": "substation", "source": "Enedis - 2021-01", "substation": "minor_distribution", "voltage": "20000"}}, {"type": "node", "id": 9620958486, "lat": 43.5943057, "lon": 4.9940914, "tags": {"operator": "Enedis", "operator:wikidata": "Q3587594", "operator:wikipedia": "fr:Enedis", "power": "substation", "source": "Enedis - 2021-01", "substation": "minor_distribution", "voltage": "20000"}}, {"type": "node", "id": 9620958487, "lat": 43.594242, "lon": 4.9940742, "tags": {"operator": "Enedis", "operator:wikidata": "Q3587594", "operator:wikipedia": "fr:Enedis", "power": "substation", "source": "Enedis - 2021-01", "substation": "minor_distribution", "voltage": "20000"}}, {"type": "node", "id": 9620958488, "lat": 43.5949901, "lon": 4.9949333, "tags": {"operator": "Enedis", "operator:wikidata": "Q3587594", "operator:wikipedia": "fr:Enedis", "power": "substation", "source": "Enedis - 2021-01", "substation": "minor_distribution", "voltage": "20000"}}, {"type": "node", "id": 9620958489, "lat": 43.5949438, "lon": 4.9949813, "tags": {"operator": "Enedis", "operator:wikidata": "Q3587594", "operator:wikipedia": "fr:Enedis", "power": "substation", "source": "Enedis - 2021-01", "substation": "minor_distribution", "voltage": "20000"}}, {"type": "node", "id": 9621038351, "lat": 43.5962734, "lon": 5.0160971, "tags": {"operator": "Enedis", "operator:wikidata": "Q3587594", "operator:wikipedia": "fr:Enedis", "power": "substation", "source": "Enedis - 2021-01", "substation": "minor_distribution", "voltage": "20000"}}, {"type": "node", "id": 9621038352, "lat": 43.6022024, "lon": 5.0142347, "tags": {"operator": "Enedis", "operator:wikidata": "Q3587594", "operator:wikipedia": "fr:Enedis", "power": "substation", "source": "Enedis - 2021-01", "substation": "minor_distribution", "voltage": "20000"}}, {"type": "node", "id": 9621038353, "lat": 43.6010567, "lon": 5.0137778, "tags": {"operator": "Enedis", "operator:wikidata": "Q3587594", "operator:wikipedia": "fr:Enedis", "power": "substation", "source": "Enedis - 2021-01", "substation": "minor_distribution", "voltage": "20000"}}, {"type": "node", "id": 9622350388, "lat": 43.342906, "lon": 5.2557766, "tags": {"operator": "Enedis", "operator:wikidata": "Q3587594", "operator:wikipedia": "fr:Enedis", "power": "substation", "source": "Enedis - 2021-01", "substation": "minor_distribution", "voltage": "20000"}}, {"type": "node", "id": 9622350392, "lat": 43.3385693, "lon": 5.2566856, "tags": {"operator": "Enedis", "operator:wikidata": "Q3587594", "operator:wikipedia": "fr:Enedis", "power": "substation", "source": "Enedis - 2021-01", "substation": "minor_distribution", "voltage": "20000"}}, {"type": "node", "id": 9628954765, "lat": 43.6064322, "lon": 5.0002869, "tags": {"operator": "Enedis", "operator:wikidata": "Q3587594", "operator:wikipedia": "fr:Enedis", "power": "substation", "source": "Enedis - 2021-01", "substation": "minor_distribution", "voltage": "20000"}}, {"type": "node", "id": 9628954778, "lat": 43.6116611, "lon": 5.0080109, "tags": {"operator": "Enedis", "operator:wikidata": "Q3587594", "operator:wikipedia": "fr:Enedis", "power": "substation", "source": "Enedis - 2021-01", "substation": "minor_distribution", "voltage": "20000"}}, {"type": "node", "id": 9631342867, "lat": 43.5949095, "lon": 4.9878636, "tags": {"operator": "Enedis", "operator:wikidata": "Q3587594", "operator:wikipedia": "fr:Enedis", "power": "substation", "source": "Enedis - 2021-01", "substation": "minor_distribution", "voltage": "20000"}}, {"type": "node", "id": 9631342868, "lat": 43.5993092, "lon": 4.9871047, "tags": {"operator": "Enedis", "operator:wikidata": "Q3587594", "operator:wikipedia": "fr:Enedis", "power": "substation", "source": "Enedis - 2021-01", "substation": "minor_distribution", "voltage": "20000"}}, {"type": "node", "id": 9631471992, "lat": 43.5800641, "lon": 5.0262588, "tags": {"operator": "Enedis", "operator:wikidata": "Q3587594", "operator:wikipedia": "fr:Enedis", "power": "substation", "source": "Enedis - 2021-01", "substation": "minor_distribution", "voltage": "20000"}}, {"type": "node", "id": 9631471993, "lat": 43.5811072, "lon": 5.0297783, "tags": {"operator": "Enedis", "operator:wikidata": "Q3587594", "operator:wikipedia": "fr:Enedis", "power": "substation", "source": "Enedis - 2021-01", "substation": "minor_distribution", "voltage": "20000"}}, {"type": "node", "id": 9631471994, "lat": 43.5814959, "lon": 5.0341664, "tags": {"operator": "Enedis", "operator:wikidata": "Q3587594", "operator:wikipedia": "fr:Enedis", "power": "substation", "source": "Enedis - 2021-01", "substation": "minor_distribution", "voltage": "20000"}}, {"type": "node", "id": 9631471996, "lat": 43.5747971, "lon": 5.0236696, "tags": {"operator": "Enedis", "operator:wikidata": "Q3587594", "operator:wikipedia": "fr:Enedis", "power": "substation", "source": "Enedis - 2021-01", "substation": "minor_distribution", "voltage": "20000"}}, {"type": "node", "id": 9632268577, "lat": 43.2791128, "lon": 5.3034274, "tags": {"operator": "Enedis", "operator:wikidata": "Q3587594", "operator:wikipedia": "fr:Enedis", "power": "substation", "source": "Enedis - 2021-01", "substation": "minor_distribution", "voltage": "20000"}}, {"type": "node", "id": 9632268578, "lat": 43.2794171, "lon": 5.3059596, "tags": {"operator": "Enedis", "operator:wikidata": "Q3587594", "operator:wikipedia": "fr:Enedis", "power": "substation", "source": "Enedis - 2021-01", "substation": "minor_distribution", "voltage": "20000"}}, {"type": "node", "id": 9632268579, "lat": 43.2798615, "lon": 5.3038885, "tags": {"operator": "Enedis", "operator:wikidata": "Q3587594", "operator:wikipedia": "fr:Enedis", "power": "substation", "source": "Enedis - 2021-01", "substation": "minor_distribution", "voltage": "20000"}}, {"type": "node", "id": 9632268580, "lat": 43.2814266, "lon": 5.3071304, "tags": {"operator": "Enedis", "operator:wikidata": "Q3587594", "operator:wikipedia": "fr:Enedis", "power": "substation", "source": "Enedis - 2021-01", "substation": "minor_distribution", "voltage": "20000"}}, {"type": "node", "id": 9633350257, "lat": 43.2141529, "lon": 5.3412274, "tags": {"operator": "Enedis", "operator:wikidata": "Q3587594", "operator:wikipedia": "fr:Enedis", "power": "substation", "source": "Enedis - 2021-01", "substation": "minor_distribution", "voltage": "20000"}}, {"type": "node", "id": 9633511594, "lat": 43.4957347, "lon": 5.2116513, "tags": {"operator": "Enedis", "operator:wikidata": "Q3587594", "operator:wikipedia": "fr:Enedis", "power": "substation", "source": "Enedis - 2021-01", "substation": "minor_distribution", "voltage": "20000"}}, {"type": "node", "id": 9633511595, "lat": 43.495726, "lon": 5.2127784, "tags": {"operator": "Enedis", "operator:wikidata": "Q3587594", "operator:wikipedia": "fr:Enedis", "power": "substation", "source": "Enedis - 2021-01", "substation": "minor_distribution", "voltage": "20000"}}, {"type": "node", "id": 9634033793, "lat": 43.3413813, "lon": 5.3537915, "tags": {"operator": "Enedis", "operator:wikidata": "Q3587594", "operator:wikipedia": "fr:Enedis", "power": "substation", "source": "Enedis - 2021-01", "substation": "minor_distribution", "voltage": "20000"}}, {"type": "node", "id": 9634033798, "lat": 43.3439443, "lon": 5.3569822, "tags": {"operator": "Enedis", "operator:wikidata": "Q3587594", "operator:wikipedia": "fr:Enedis", "power": "substation", "source": "Enedis - 2021-01", "substation": "minor_distribution", "voltage": "20000"}}, {"type": "node", "id": 9638780559, "lat": 43.2161159, "lon": 5.3446352, "tags": {"operator": "Enedis", "operator:wikidata": "Q3587594", "operator:wikipedia": "fr:Enedis", "power": "substation", "source": "Enedis - 2021-01", "substation": "minor_distribution", "voltage": "20000"}}, {"type": "node", "id": 9638780560, "lat": 43.2161092, "lon": 5.344684, "tags": {"operator": "Enedis", "operator:wikidata": "Q3587594", "operator:wikipedia": "fr:Enedis", "power": "substation", "source": "Enedis - 2021-01", "substation": "minor_distribution", "voltage": "20000"}}, {"type": "node", "id": 9638780561, "lat": 43.2287122, "lon": 5.364382, "tags": {"operator": "Enedis", "operator:wikidata": "Q3587594", "operator:wikipedia": "fr:Enedis", "power": "substation", "source": "Enedis - 2021-01", "substation": "minor_distribution", "voltage": "20000"}}, {"type": "node", "id": 9645607870, "lat": 43.364253, "lon": 5.3210594, "tags": {"operator": "Enedis", "operator:wikidata": "Q3587594", "operator:wikipedia": "fr:Enedis", "power": "substation", "source": "Enedis - 2021-01", "substation": "minor_distribution", "voltage": "20000"}}, {"type": "node", "id": 9645791528, "lat": 43.3609625, "lon": 5.3305574, "tags": {"operator": "Enedis", "operator:wikidata": "Q3587594", "operator:wikipedia": "fr:Enedis", "power": "substation", "source": "Enedis - 2021-01", "substation": "minor_distribution", "voltage": "20000"}}, {"type": "node", "id": 9645791532, "lat": 43.3591421, "lon": 5.331367, "tags": {"operator": "Enedis", "operator:wikidata": "Q3587594", "operator:wikipedia": "fr:Enedis", "power": "substation", "source": "Enedis - 2021-01", "substation": "minor_distribution", "voltage": "20000"}}, {"type": "node", "id": 9645791537, "lat": 43.3608898, "lon": 5.3272222, "tags": {"operator": "Enedis", "operator:wikidata": "Q3587594", "operator:wikipedia": "fr:Enedis", "power": "substation", "source": "Enedis - 2021-01", "substation": "minor_distribution", "voltage": "20000"}}, {"type": "node", "id": 9646731385, "lat": 43.2834895, "lon": 5.3717427, "tags": {"operator": "Enedis", "operator:wikidata": "Q3587594", "operator:wikipedia": "fr:Enedis", "power": "substation", "source": "Enedis - 2021-01", "substation": "minor_distribution", "voltage": "20000"}}, {"type": "node", "id": 9648190115, "lat": 43.2776239, "lon": 5.3986847, "tags": {"operator": "Enedis", "operator:wikidata": "Q3587594", "operator:wikipedia": "fr:Enedis", "power": "substation", "source": "Enedis - 2021-01", "substation": "minor_distribution", "voltage": "20000"}}, {"type": "node", "id": 9648431234, "lat": 43.3614131, "lon": 5.3375735, "tags": {"operator": "Enedis", "operator:wikidata": "Q3587594", "operator:wikipedia": "fr:Enedis", "power": "substation", "source": "Enedis - 2021-01", "substation": "minor_distribution", "voltage": "20000"}}, {"type": "node", "id": 9648431235, "lat": 43.3614666, "lon": 5.3376819, "tags": {"operator": "Enedis", "operator:wikidata": "Q3587594", "operator:wikipedia": "fr:Enedis", "power": "substation", "source": "Enedis - 2021-01", "substation": "minor_distribution", "voltage": "20000"}}, {"type": "node", "id": 9649604141, "lat": 43.4312514, "lon": 5.2592815, "tags": {"operator": "Enedis", "operator:wikidata": "Q3587594", "operator:wikipedia": "fr:Enedis", "power": "substation", "source": "Enedis - 2021-01", "substation": "minor_distribution", "voltage": "20000"}}, {"type": "node", "id": 9651907625, "lat": 43.3560476, "lon": 5.3420522, "tags": {"operator": "Enedis", "operator:wikidata": "Q3587594", "operator:wikipedia": "fr:Enedis", "power": "substation", "source": "Enedis - 2021-01", "substation": "minor_distribution", "voltage": "20000"}}, {"type": "node", "id": 9651907631, "lat": 43.3520911, "lon": 5.3382437, "tags": {"operator": "Enedis", "operator:wikidata": "Q3587594", "operator:wikipedia": "fr:Enedis", "power": "substation", "source": "Enedis - 2021-01", "substation": "minor_distribution", "voltage": "20000"}}, {"type": "node", "id": 9651907632, "lat": 43.3505366, "lon": 5.3406722, "tags": {"operator": "Enedis", "operator:wikidata": "Q3587594", "operator:wikipedia": "fr:Enedis", "power": "substation", "source": "Enedis - 2021-01", "substation": "minor_distribution", "voltage": "20000"}}, {"type": "node", "id": 9653448861, "lat": 43.5938826, "lon": 4.9987566, "tags": {"operator": "Enedis", "operator:wikidata": "Q3587594", "operator:wikipedia": "fr:Enedis", "power": "substation", "source": "Enedis - 2021-01", "substation": "minor_distribution", "voltage": "20000"}}, {"type": "node", "id": 9653448862, "lat": 43.5927208, "lon": 5.001152, "tags": {"operator": "Enedis", "operator:wikidata": "Q3587594", "operator:wikipedia": "fr:Enedis", "power": "substation", "source": "Enedis - 2021-01", "substation": "minor_distribution", "voltage": "20000"}}, {"type": "node", "id": 9653448881, "lat": 43.5891139, "lon": 5.0014603, "tags": {"operator": "Enedis", "operator:wikidata": "Q3587594", "operator:wikipedia": "fr:Enedis", "power": "substation", "source": "Enedis - 2021-01", "substation": "minor_distribution", "voltage": "20000"}}, {"type": "node", "id": 9653465952, "lat": 43.593103, "lon": 5.0089058, "tags": {"operator": "Enedis", "operator:wikidata": "Q3587594", "operator:wikipedia": "fr:Enedis", "power": "substation", "source": "Enedis - 2021-01", "substation": "minor_distribution", "voltage": "20000"}}, {"type": "node", "id": 9654553029, "lat": 43.3420713, "lon": 5.3426824, "tags": {"operator": "Enedis", "operator:wikidata": "Q3587594", "operator:wikipedia": "fr:Enedis", "power": "substation", "source": "Enedis - 2021-01", "substation": "minor_distribution", "voltage": "20000"}}, {"type": "node", "id": 9654553031, "lat": 43.3385737, "lon": 5.347513, "tags": {"operator": "Enedis", "operator:wikidata": "Q3587594", "operator:wikipedia": "fr:Enedis", "power": "substation", "source": "Enedis - 2021-01", "substation": "minor_distribution", "voltage": "20000"}}, {"type": "node", "id": 9654553032, "lat": 43.3388363, "lon": 5.3472893, "tags": {"operator": "Enedis", "operator:wikidata": "Q3587594", "operator:wikipedia": "fr:Enedis", "power": "substation", "source": "Enedis - 2021-01", "substation": "minor_distribution", "voltage": "20000"}}, {"type": "node", "id": 9654553033, "lat": 43.3391976, "lon": 5.3462069, "tags": {"operator": "Enedis", "operator:wikidata": "Q3587594", "operator:wikipedia": "fr:Enedis", "power": "substation", "source": "Enedis - 2021-01", "substation": "minor_distribution", "voltage": "20000"}}, {"type": "node", "id": 9654553034, "lat": 43.3543831, "lon": 5.3348434, "tags": {"operator": "Enedis", "operator:wikidata": "Q3587594", "operator:wikipedia": "fr:Enedis", "power": "substation", "source": "Enedis - 2021-01", "substation": "minor_distribution", "voltage": "20000"}}, {"type": "node", "id": 9654553035, "lat": 43.3617339, "lon": 5.3193614, "tags": {"operator": "Enedis", "operator:wikidata": "Q3587594", "operator:wikipedia": "fr:Enedis", "power": "substation", "source": "Enedis - 2021-01", "substation": "minor_distribution", "voltage": "20000"}}, {"type": "node", "id": 9654553036, "lat": 43.3609963, "lon": 5.3198264, "tags": {"operator": "Enedis", "operator:wikidata": "Q3587594", "operator:wikipedia": "fr:Enedis", "power": "substation", "source": "Enedis - 2021-01", "substation": "minor_distribution", "voltage": "20000"}}, {"type": "node", "id": 9654553037, "lat": 43.3605405, "lon": 5.3183816, "tags": {"operator": "Enedis", "operator:wikidata": "Q3587594", "operator:wikipedia": "fr:Enedis", "power": "substation", "source": "Enedis - 2021-01", "substation": "minor_distribution", "voltage": "20000"}}, {"type": "node", "id": 9654553044, "lat": 43.3615598, "lon": 5.3180809, "tags": {"operator": "Enedis", "operator:wikidata": "Q3587594", "operator:wikipedia": "fr:Enedis", "power": "substation", "source": "Enedis - 2021-01", "substation": "minor_distribution", "voltage": "20000"}}, {"type": "node", "id": 9654553045, "lat": 43.3622524, "lon": 5.3164248, "tags": {"operator": "Enedis", "operator:wikidata": "Q3587594", "operator:wikipedia": "fr:Enedis", "power": "substation", "source": "Enedis - 2021-01", "substation": "minor_distribution", "voltage": "20000"}}, {"type": "node", "id": 9654553053, "lat": 43.3681142, "lon": 5.3134957, "tags": {"operator": "Enedis", "operator:wikidata": "Q3587594", "operator:wikipedia": "fr:Enedis", "power": "substation", "source": "Enedis - 2021-01", "substation": "minor_distribution", "voltage": "20000"}}, {"type": "node", "id": 9654553074, "lat": 43.3701247, "lon": 5.3026787, "tags": {"operator": "Enedis", "operator:wikidata": "Q3587594", "operator:wikipedia": "fr:Enedis", "power": "substation", "source": "Enedis - 2021-01", "substation": "minor_distribution", "voltage": "20000"}}, {"type": "node", "id": 9654553091, "lat": 43.3586858, "lon": 5.2934361, "tags": {"operator": "Enedis", "operator:wikidata": "Q3587594", "operator:wikipedia": "fr:Enedis", "power": "substation", "source": "Enedis - 2021-01", "substation": "minor_distribution", "voltage": "20000"}}, {"type": "node", "id": 9656139400, "lat": 43.4934659, "lon": 5.1717795, "tags": {"operator": "Enedis", "operator:wikidata": "Q3587594", "operator:wikipedia": "fr:Enedis", "power": "substation", "source": "Enedis - 2021-01", "substation": "minor_distribution", "voltage": "20000"}}, {"type": "node", "id": 9656139401, "lat": 43.4935826, "lon": 5.1717803, "tags": {"operator": "Enedis", "operator:wikidata": "Q3587594", "operator:wikipedia": "fr:Enedis", "power": "substation", "source": "Enedis - 2021-01", "substation": "minor_distribution", "voltage": "20000"}}, {"type": "node", "id": 9656139402, "lat": 43.4906906, "lon": 5.174689, "tags": {"operator": "Enedis", "operator:wikidata": "Q3587594", "operator:wikipedia": "fr:Enedis", "power": "substation", "source": "Enedis - 2021-01", "substation": "minor_distribution", "voltage": "20000"}}, {"type": "node", "id": 9656139403, "lat": 43.490699, "lon": 5.1737598, "tags": {"operator": "Enedis", "operator:wikidata": "Q3587594", "operator:wikipedia": "fr:Enedis", "power": "substation", "source": "Enedis - 2021-01", "substation": "minor_distribution", "voltage": "20000"}}, {"type": "node", "id": 9665866848, "lat": 43.3531079, "lon": 5.352377, "tags": {"operator": "Enedis", "operator:wikidata": "Q3587594", "operator:wikipedia": "fr:Enedis", "power": "substation", "source": "Enedis - 2021-01", "substation": "minor_distribution", "voltage": "20000"}}, {"type": "node", "id": 9665866850, "lat": 43.364914, "lon": 5.3370116, "tags": {"operator": "Enedis", "operator:wikidata": "Q3587594", "operator:wikipedia": "fr:Enedis", "power": "substation", "source": "Enedis - 2021-01", "substation": "minor_distribution", "voltage": "20000"}}, {"type": "node", "id": 9665866855, "lat": 43.3572611, "lon": 5.3219395, "tags": {"operator": "Enedis", "operator:wikidata": "Q3587594", "operator:wikipedia": "fr:Enedis", "power": "substation", "source": "Enedis - 2021-01", "substation": "minor_distribution", "voltage": "20000"}}, {"type": "node", "id": 9665866860, "lat": 43.3578054, "lon": 5.3242918, "tags": {"operator": "Enedis", "operator:wikidata": "Q3587594", "operator:wikipedia": "fr:Enedis", "power": "substation", "source": "Enedis - 2021-01", "substation": "minor_distribution", "voltage": "20000"}}, {"type": "node", "id": 9665866861, "lat": 43.3571957, "lon": 5.3241762, "tags": {"operator": "Enedis", "operator:wikidata": "Q3587594", "operator:wikipedia": "fr:Enedis", "power": "substation", "source": "Enedis - 2021-01", "substation": "minor_distribution", "voltage": "20000"}}, {"type": "node", "id": 9665866862, "lat": 43.356958, "lon": 5.3255548, "tags": {"operator": "Enedis", "operator:wikidata": "Q3587594", "operator:wikipedia": "fr:Enedis", "power": "substation", "source": "Enedis - 2021-01", "substation": "minor_distribution", "voltage": "20000"}}, {"type": "node", "id": 9665866863, "lat": 43.3567, "lon": 5.3261588, "tags": {"operator": "Enedis", "operator:wikidata": "Q3587594", "operator:wikipedia": "fr:Enedis", "power": "substation", "source": "Enedis - 2021-01", "substation": "minor_distribution", "voltage": "20000"}}, {"type": "node", "id": 9665866864, "lat": 43.3560494, "lon": 5.3268288, "tags": {"operator": "Enedis", "operator:wikidata": "Q3587594", "operator:wikipedia": "fr:Enedis", "power": "substation", "source": "Enedis - 2021-01", "substation": "minor_distribution", "voltage": "20000"}}, {"type": "node", "id": 9665866877, "lat": 43.355125, "lon": 5.315828, "tags": {"operator": "Enedis", "operator:wikidata": "Q3587594", "operator:wikipedia": "fr:Enedis", "power": "substation", "source": "Enedis - 2021-01", "substation": "minor_distribution", "voltage": "20000"}}, {"type": "node", "id": 9672368317, "lat": 43.7618792, "lon": 5.1488611, "tags": {"name": "Miel 84038", "operator": "Enedis", "operator:wikidata": "Q3587594", "operator:wikipedia": "fr:Enedis", "power": "substation", "ref:FR:gdo": "P0009", "substation": "minor_distribution", "voltage": "20000"}}, {"type": "node", "id": 9677928867, "lat": 43.3615242, "lon": 5.3072929, "tags": {"operator": "Enedis", "operator:wikidata": "Q3587594", "operator:wikipedia": "fr:Enedis", "power": "substation", "source": "Exploitants contributeurs de l'Agence ORE - 2022-02 - Enedis", "substation": "minor_distribution", "voltage": "20000"}}, {"type": "node", "id": 9682232523, "lat": 43.2304502, "lon": 5.3534174, "tags": {"power": "substation"}}, {"type": "node", "id": 9685619757, "lat": 43.4743973, "lon": 5.1668258, "tags": {"operator": "Enedis", "operator:wikidata": "Q3587594", "power": "substation", "source": "Exploitants contributeurs de l'Agence ORE - 2022-02 - Enedis", "substation": "minor_distribution", "voltage": "20000"}}, {"type": "node", "id": 9686378472, "lat": 43.2142311, "lon": 5.5351827, "tags": {"power": "substation"}}, {"type": "node", "id": 9686721881, "lat": 43.3767821, "lon": 5.344975, "tags": {"operator": "Enedis", "operator:wikidata": "Q3587594", "power": "substation", "source": "Exploitants contributeurs de l'Agence ORE - 2022-02 - Enedis", "substation": "minor_distribution", "voltage": "20000"}}, {"type": "node", "id": 9686721882, "lat": 43.3780768, "lon": 5.3454365, "tags": {"operator": "Enedis", "operator:wikidata": "Q3587594", "power": "substation", "source": "Exploitants contributeurs de l'Agence ORE - 2022-02 - Enedis", "substation": "minor_distribution", "voltage": "20000"}}, {"type": "node", "id": 9686721888, "lat": 43.3739872, "lon": 5.3523045, "tags": {"operator": "Enedis", "operator:wikidata": "Q3587594", "power": "substation", "source": "Exploitants contributeurs de l'Agence ORE - 2022-02 - Enedis", "substation": "minor_distribution", "voltage": "20000"}}, {"type": "node", "id": 9686721889, "lat": 43.3734745, "lon": 5.3538996, "tags": {"operator": "Enedis", "operator:wikidata": "Q3587594", "power": "substation", "source": "Exploitants contributeurs de l'Agence ORE - 2022-02 - Enedis", "substation": "minor_distribution", "voltage": "20000"}}, {"type": "node", "id": 9689642130, "lat": 43.3737496, "lon": 5.3567296, "tags": {"operator": "Enedis", "operator:wikidata": "Q3587594", "power": "substation", "source": "Exploitants contributeurs de l'Agence ORE - 2022-02 - Enedis", "substation": "minor_distribution", "voltage": "20000"}}, {"type": "node", "id": 9689642137, "lat": 43.3817605, "lon": 5.3495556, "tags": {"operator": "Enedis", "operator:wikidata": "Q3587594", "power": "substation", "source": "Exploitants contributeurs de l'Agence ORE - 2022-02 - Enedis", "substation": "minor_distribution", "voltage": "20000"}}, {"type": "node", "id": 9690234725, "lat": 43.3690801, "lon": 5.3307963, "tags": {"operator": "Enedis", "operator:wikidata": "Q3587594", "power": "substation", "source": "Exploitants contributeurs de l'Agence ORE - 2022-02 - Enedis", "substation": "minor_distribution", "voltage": "20000"}}, {"type": "node", "id": 9711592681, "lat": 43.4146343, "lon": 5.4679646, "tags": {"operator": "Enedis", "operator:wikidata": "Q3587594", "power": "substation", "source": "Exploitants contributeurs de l'Agence ORE - 2022-02 - Enedis", "substation": "minor_distribution", "voltage": "20000"}}, {"type": "node", "id": 9711592695, "lat": 43.4144565, "lon": 5.4601071, "tags": {"operator": "Enedis", "operator:wikidata": "Q3587594", "power": "substation", "source": "Exploitants contributeurs de l'Agence ORE - 2022-02 - Enedis", "substation": "minor_distribution", "voltage": "20000"}}, {"type": "node", "id": 9717825729, "lat": 43.428808, "lon": 5.420299, "tags": {"operator": "Enedis", "operator:wikidata": "Q3587594", "power": "substation", "source": "Exploitants contributeurs de l'Agence ORE - 2022-02 - Enedis", "substation": "minor_distribution", "voltage": "20000"}}, {"type": "node", "id": 9724940244, "lat": 43.419096, "lon": 5.4452691, "tags": {"operator": "Enedis", "operator:wikidata": "Q3587594", "power": "substation", "source": "Exploitants contributeurs de l'Agence ORE - 2022-02 - Enedis", "substation": "minor_distribution", "voltage": "20000"}}, {"type": "node", "id": 9724940279, "lat": 43.4163413, "lon": 5.4399698, "tags": {"operator": "Enedis", "operator:wikidata": "Q3587594", "power": "substation", "source": "Exploitants contributeurs de l'Agence ORE - 2022-02 - Enedis", "substation": "minor_distribution", "voltage": "20000"}}, {"type": "node", "id": 9724940284, "lat": 43.4143038, "lon": 5.4306833, "tags": {"operator": "Enedis", "operator:wikidata": "Q3587594", "power": "substation", "source": "Exploitants contributeurs de l'Agence ORE - 2022-02 - Enedis", "substation": "minor_distribution", "voltage": "20000"}}, {"type": "node", "id": 9737671898, "lat": 43.3454064, "lon": 5.3551566, "tags": {"operator": "Enedis", "operator:wikidata": "Q3587594", "power": "substation", "source": "Exploitants contributeurs de l'Agence ORE - 2022-02 - Enedis", "substation": "minor_distribution", "voltage": "20000"}}, {"type": "node", "id": 9737671899, "lat": 43.3425914, "lon": 5.3523486, "tags": {"operator": "Enedis", "operator:wikidata": "Q3587594", "power": "substation", "source": "Exploitants contributeurs de l'Agence ORE - 2022-02 - Enedis", "substation": "minor_distribution", "voltage": "20000"}}, {"type": "node", "id": 9772513454, "lat": 43.6037609, "lon": 5.0071554, "tags": {"operator": "Enedis", "operator:wikidata": "Q3587594", "power": "substation", "source": "Exploitants contributeurs de l'Agence ORE - 2022-02 - Enedis", "substation": "minor_distribution", "voltage": "20000"}}, {"type": "node", "id": 9772513471, "lat": 43.5999337, "lon": 5.0091107, "tags": {"operator": "Enedis", "operator:wikidata": "Q3587594", "power": "substation", "source": "Exploitants contributeurs de l'Agence ORE - 2022-02 - Enedis", "substation": "minor_distribution", "voltage": "20000"}}, {"type": "node", "id": 9772513472, "lat": 43.5994143, "lon": 5.0078919, "tags": {"operator": "Enedis", "operator:wikidata": "Q3587594", "power": "substation", "source": "Exploitants contributeurs de l'Agence ORE - 2022-02 - Enedis", "substation": "minor_distribution", "voltage": "20000"}}, {"type": "node", "id": 9772513473, "lat": 43.5987378, "lon": 5.0086236, "tags": {"operator": "Enedis", "operator:wikidata": "Q3587594", "power": "substation", "source": "Exploitants contributeurs de l'Agence ORE - 2022-02 - Enedis", "substation": "minor_distribution", "voltage": "20000"}}, {"type": "node", "id": 9772513719, "lat": 43.5805245, "lon": 4.9991773, "tags": {"operator": "Enedis", "operator:wikidata": "Q3587594", "power": "substation", "source": "Exploitants contributeurs de l'Agence ORE - 2022-02 - Enedis", "substation": "minor_distribution", "voltage": "20000"}}, {"type": "node", "id": 9772513775, "lat": 43.5761601, "lon": 4.9976264, "tags": {"operator": "Enedis", "operator:wikidata": "Q3587594", "power": "substation", "source": "Exploitants contributeurs de l'Agence ORE - 2022-02 - Enedis", "substation": "minor_distribution", "voltage": "20000"}}, {"type": "node", "id": 9774917834, "lat": 43.5849549, "lon": 5.0015433, "tags": {"operator": "Enedis", "operator:wikidata": "Q3587594", "power": "substation", "source": "Exploitants contributeurs de l'Agence ORE - 2022-07 - Enedis", "substation": "minor_distribution", "voltage": "20000"}}, {"type": "node", "id": 9776714580, "lat": 43.5527708, "lon": 4.9969713, "tags": {"operator": "Enedis", "operator:wikidata": "Q3587594", "power": "substation", "source": "Exploitants contributeurs de l'Agence ORE - 2022-02 - Enedis", "substation": "minor_distribution", "voltage": "20000"}}, {"type": "node", "id": 9776754339, "lat": 43.536865, "lon": 4.9978493, "tags": {"operator": "Enedis", "operator:wikidata": "Q3587594", "power": "substation", "source": "Exploitants contributeurs de l'Agence ORE - 2022-02 - Enedis", "substation": "minor_distribution", "voltage": "20000"}}, {"type": "node", "id": 9776754341, "lat": 43.5344056, "lon": 5.0042907, "tags": {"operator": "Enedis", "operator:wikidata": "Q3587594", "power": "substation", "source": "Exploitants contributeurs de l'Agence ORE - 2022-02 - Enedis", "substation": "minor_distribution", "voltage": "20000"}}, {"type": "node", "id": 9776754342, "lat": 43.5291786, "lon": 5.0031817, "tags": {"operator": "Enedis", "operator:wikidata": "Q3587594", "power": "substation", "source": "Exploitants contributeurs de l'Agence ORE - 2022-02 - Enedis", "substation": "minor_distribution", "voltage": "20000"}}, {"type": "node", "id": 9776754522, "lat": 43.5234324, "lon": 5.0059082, "tags": {"operator": "Enedis", "operator:wikidata": "Q3587594", "power": "substation", "source": "Exploitants contributeurs de l'Agence ORE - 2022-02 - Enedis", "substation": "minor_distribution", "voltage": "20000"}},