{"version": 0.6, "generator": "Overpass API 0.7.62.8 e802775f", "osm3s": {"timestamp_osm_base": "2025-11-17T18:00:28Z", "copyright": "The data included in this document is from www.openstreetmap.org. The data is made available under ODbL."}, "elements": [{"type": "node", "id": 372819642, "lat": 47.4444428, "lon": 9.1111714, "tags": {"power": "substation", "survey:date": "2021-07-01"}}, {"type": "node", "id": 380404550, "lat": 47.446843, "lon": 9.1205514, "tags": {"power": "substation"}}, {"type": "node", "id": 401864052, "lat": 47.6744913, "lon": 9.5892696, "tags": {"operator": "EnBW Regional AG", "power": "substation"}}, {"type": "node", "id": 413068271, "lat": 47.6742099, "lon": 9.5819446, "tags": {"name": "Dobel\u00e4cker", "operator": "EnBW Regional AG", "power": "substation"}}, {"type": "node", "id": 417083691, "lat": 47.6763266, "lon": 9.5917057, "tags": {"addr:city": "Tettnang", "addr:country": "DE", "addr:housenumber": "29", "addr:postcode": "88069", "addr:street": "Kaltenberger Stra\u00dfe", "name": "Kalchenstra\u00dfe", "operator": "EnBW Regional AG", "power": "substation"}}, {"type": "node", "id": 419627186, "lat": 47.4498891, "lon": 9.1365687, "tags": {"name": "SAK TS Niderfeld", "operator": "SAK", "power": "substation"}}, {"type": "node", "id": 439393539, "lat": 47.6328787, "lon": 9.5392407, "tags": {"name": "Mariabrunn R\u00f6ckenweg", "operator": "EnBW Regional AG", "power": "substation"}}, {"type": "node", "id": 448561861, "lat": 47.2895222, "lon": 9.664304, "tags": {"name": "Trafostation 8 Wanne", "operator": "Vorarlberger Energienetze GmbH", "power": "substation"}}, {"type": "node", "id": 448598161, "lat": 47.6118988, "lon": 9.627908, "tags": {"name": "Nitzenweiler", "operator": "EnBW Regional AG", "power": "substation"}}, {"type": "node", "id": 454385558, "lat": 47.6890115, "lon": 10.1286554, "tags": {"name": "Umspannstation Wenger Egg", "operator": "EnBW", "power": "substation"}}, {"type": "node", "id": 457060755, "lat": 47.670639, "lon": 9.585703, "tags": {"operator": "EnBW Regional AG", "power": "substation", "ref": "Rathaus"}}, {"type": "node", "id": 466244027, "lat": 47.6714785, "lon": 9.5883978, "tags": {"name": "Stadttor", "operator": "Netze BW GmbH", "operator:wikidata": "Q16854888", "operator:wikipedia": "de:Netze BW", "power": "substation"}}, {"type": "node", "id": 475986642, "lat": 47.3031175, "lon": 9.6524099, "tags": {"name": "Weiler Trafostation 5 Walgaustra\u00dfe", "operator": "Vorarlberger Energienetze GmbH", "power": "substation"}}, {"type": "node", "id": 534773796, "lat": 47.6755637, "lon": 9.5916095, "tags": {"name": "Obstk\u00fchlhaus", "operator": "Netze BW GmbH", "operator:wikidata": "Q16854888", "operator:wikipedia": "de:Netze BW", "power": "substation"}}, {"type": "node", "id": 588615365, "lat": 47.6838983, "lon": 9.7305471, "tags": {"name": "Siglisberg", "operator": "EnBW Regional AG", "power": "substation"}}, {"type": "node", "id": 598977417, "lat": 47.1609299, "lon": 9.5052839, "tags": {"operator": "Liechtensteinische Kraftwerke", "power": "substation"}}, {"type": "node", "id": 601602166, "lat": 47.5661426, "lon": 9.666981, "tags": {"name": "Gartenstra\u00dfe", "power": "substation"}}, {"type": "node", "id": 619332463, "lat": 47.6649835, "lon": 9.5912773, "tags": {"name": "St. Anna", "operator": "EnBW Regional AG", "power": "substation"}}, {"type": "node", "id": 680087811, "lat": 47.7670088, "lon": 9.6214059, "tags": {"addr:city": "Ravensburg", "addr:housenumber": "155", "addr:street": "Wangener Stra\u00dfe", "name": "Knollengraben 1", "operator": "TWS Netz GmbH", "power": "substation"}}, {"type": "node", "id": 680087950, "lat": 47.7686587, "lon": 9.6231694, "tags": {"addr:city": "Ravensburg", "addr:housenumber": "11/1", "addr:street": "Berliner Stra\u00dfe", "name": "Berlinerstra\u00dfe 1", "operator": "TWS Netz GmbH", "power": "substation"}}, {"type": "node", "id": 689067931, "lat": 47.6357128, "lon": 9.1829918, "tags": {"power": "substation"}}, {"type": "node", "id": 693279680, "lat": 47.684829, "lon": 9.4708988, "tags": {"name": "Umspannstelle Dekan-Rogg-Stra\u00dfe", "operator": "Technische Werke Friedrichshafen GmbH", "power": "substation", "substation": "minor_distribution"}}, {"type": "node", "id": 693279712, "lat": 47.6877988, "lon": 9.4730198, "tags": {"name": "Stat.Berger Halde", "operator": "Technische Werke Friedrichshafen GmbH", "power": "substation", "substation": "minor_distribution"}}, {"type": "node", "id": 693279713, "lat": 47.6891742, "lon": 9.4730942, "tags": {"name": "Berg Am Hang", "operator": "Technische Werke Friedrichshafen GmbH", "power": "substation"}}, {"type": "node", "id": 746684714, "lat": 47.6830507, "lon": 9.4658424, "tags": {"name": "Gr\u00f6tzelstra\u00dfe", "operator": "Technische Werke Friedrichshafen GmbH", "power": "substation", "substation": "minor_distribution"}}, {"type": "node", "id": 746684801, "lat": 47.6851585, "lon": 9.4671065, "tags": {"location": "indoor", "name": "Berg Harr\u00f6\u00dfenstra\u00dfe", "operator": "Technische Werke Friedrichshafen GmbH", "power": "substation", "substation": "minor_distribution"}}, {"type": "node", "id": 764519223, "lat": 47.6561672, "lon": 9.4578594, "tags": {"name": "Station Allg\u00e4uer-Stra\u00dfe", "operator": "Technische Werke Friedrichshafen GmbH", "power": "substation"}}, {"type": "node", "id": 893450390, "lat": 47.3983331, "lon": 9.575903, "tags": {"power": "substation"}}, {"type": "node", "id": 895840394, "lat": 47.3460471, "lon": 9.554865, "tags": {"power": "substation"}}, {"type": "node", "id": 897581827, "lat": 47.6337915, "lon": 9.6110164, "tags": {"name": "Reichen", "power": "substation"}}, {"type": "node", "id": 908738785, "lat": 47.6368689, "lon": 9.6313435, "tags": {"addr:city": "Tettnang", "addr:country": "DE", "addr:housenumber": "8", "addr:postcode": "88069", "addr:street": "Fischerweg", "addr:suburb": "Laimnau", "name": "Laimnau Kirche", "operator": "EnBW Regional Ag", "power": "substation"}}, {"type": "node", "id": 918741172, "lat": 47.6657446, "lon": 9.5885975, "tags": {"name": "Schule", "operator": "regionalwerk Bodensee", "operator:wikidata": "Q1463526", "power": "substation", "ref": "1036", "substation": "minor_distribution"}}, {"type": "node", "id": 936690856, "lat": 47.6636378, "lon": 9.5828364, "tags": {"name": "Manzenberg", "operator": "EnBW Regional AG", "power": "substation"}}, {"type": "node", "id": 1306018475, "lat": 47.626552, "lon": 9.5999933, "tags": {"name": "Gie\u00dfen", "operator": "regionalwerk Bodensee", "power": "substation", "ref": "3045", "substation": "minor_distribution"}}, {"type": "node", "id": 1309319871, "lat": 47.4701981, "lon": 9.8640747, "tags": {"line_attachment": "anchor", "location:transition": "yes", "power": "substation"}}, {"type": "node", "id": 1313362865, "lat": 47.5981927, "lon": 9.6164362, "tags": {"power": "substation"}}, {"type": "node", "id": 1375862906, "lat": 47.7326671, "lon": 10.1409734, "tags": {"name": "Ulmerthal", "operator": "EnBW", "power": "substation"}}, {"type": "node", "id": 1401209388, "lat": 47.7025878, "lon": 10.1448059, "tags": {"name": "S\u00e4gem\u00fchle", "operator": "EnBW", "power": "substation"}}, {"type": "node", "id": 1403159882, "lat": 47.5718611, "lon": 9.6140791, "tags": {"power": "substation"}}, {"type": "node", "id": 1403159903, "lat": 47.5616768, "lon": 9.6523576, "tags": {"name": "Wasserburg Fuggerstra\u00dfe 2", "operator": "Stadtwerke Lindau", "power": "substation"}}, {"type": "node", "id": 1414342159, "lat": 47.218085, "lon": 10.1446665, "tags": {"fixme": "position, operator", "power": "substation"}}, {"type": "node", "id": 1417479648, "lat": 47.6938649, "lon": 9.9549647, "tags": {"power": "substation"}}, {"type": "node", "id": 1426013498, "lat": 47.3086197, "lon": 9.6341611, "tags": {"name": "Klaus Trafostation 5 Erlenstra\u00dfe", "operator": "Vorarlberger Energienetze GmbH", "power": "substation"}}, {"type": "node", "id": 1610638859, "lat": 47.7700029, "lon": 9.7445502, "tags": {"operator": "ehem Umspannhaus Reichermoos EVS", "power": "substation", "voltage": "2000"}}, {"type": "node", "id": 1613917602, "lat": 47.5896687, "lon": 9.5968022, "tags": {"power": "substation", "source": "Regionalwerk"}}, {"type": "node", "id": 1689129757, "lat": 47.7055446, "lon": 9.9145776, "tags": {"name": "Alperts Ort", "operator": "Netze BW", "operator:wikidata": "Q16854888", "power": "substation"}}, {"type": "node", "id": 1689378874, "lat": 47.698381, "lon": 9.9553655, "tags": {"operator": "Netze BW", "operator:wikidata": "Q16854888", "power": "substation"}}, {"type": "node", "id": 1747977684, "lat": 47.5585351, "lon": 10.0976378, "tags": {"power": "substation"}}, {"type": "node", "id": 2421381187, "lat": 47.1563092, "lon": 9.8185281, "tags": {"name": "Bludenz Trafostation 23 Post", "operator": "Vorarlberger Energienetze GmbH", "power": "substation"}}, {"type": "node", "id": 2421501228, "lat": 47.1070549, "lon": 10.0764501, "tags": {"name": "Kl\u00f6sterle Trafostation 450/5 Glattingrat", "operator": "Vorarlberger Energienetze GmbH", "power": "substation"}}, {"type": "node", "id": 2754723793, "lat": 47.6088773, "lon": 10.0523012, "tags": {"name": "Pferrenberg", "operator": "Allg\u00e4uer \u00dcberlandwerke", "power": "substation", "ref": "Trafostation Nr. 1092"}}, {"type": "node", "id": 2914652003, "lat": 47.6620794, "lon": 9.5920022, "tags": {"name": "Kaplaneiweg", "operator": "regionalwerk Bodensee", "operator:wikidata": "Q1463526", "power": "substation", "ref": "1002"}}, {"type": "node", "id": 3054439977, "lat": 47.6571393, "lon": 9.5911792, "tags": {"name": "Lindenbuckel 3", "operator": "regionalwerk Bodensee", "operator:wikidata": "Q1463526", "power": "substation", "ref": "1005"}}, {"type": "node", "id": 3113417382, "lat": 47.6417767, "lon": 9.5669158, "tags": {"name": "Mor\u00e4ne \u00dcber", "operator": "regionalwerk Bodensee", "power": "substation", "ref": "1083"}}, {"type": "node", "id": 3166747048, "lat": 47.5338938, "lon": 9.1905769, "tags": {"name": "TS Berghalden", "power": "substation"}}, {"type": "node", "id": 3189188475, "lat": 47.5929173, "lon": 9.1348994, "tags": {"location": "indoor", "power": "substation", "ref": "TS Aufh\u00e4usern"}}, {"type": "node", "id": 3248145413, "lat": 47.1572594, "lon": 9.8292755, "tags": {"name": "Bludenz Trafostation 5 Unterstein", "operator": "Vorarlberger Energienetze GmbH", "power": "substation"}}, {"type": "node", "id": 3248370577, "lat": 47.1520726, "lon": 9.8267017, "tags": {"name": "Bludenz Trafostation 912 Bundesschulzentrum", "operator": "Vorarlberger Energienetze GmbH", "power": "substation"}}, {"type": "node", "id": 3248412745, "lat": 47.1519503, "lon": 9.8174391, "tags": {"name": "Bludenz Trafostation 17 Illbr\u00fccke", "operator": "Vorarlberger Energienetze GmbH", "power": "substation"}}, {"type": "node", "id": 3611740761, "lat": 47.6639475, "lon": 9.3607146, "tags": {"operator": "Netze BW GmbH", "operator:wikidata": "Q16854888", "operator:wikipedia": "de:Netze BW", "power": "substation", "ref": "IMMST-E-UST-042", "voltage": "high"}}, {"type": "node", "id": 3713874127, "lat": 47.6686386, "lon": 9.6010654, "tags": {"name": "1029 PW Riedweiher", "operator": "regionalwerk Bodensee", "operator:wikidata": "Q1463526", "power": "substation"}}, {"type": "node", "id": 3724642132, "lat": 47.3416191, "lon": 9.6988839, "tags": {"name": "G\u00f6tzis Trafostation 41 Alpe Wies", "operator": "Vorarlberger Energienetze GmbH", "power": "substation"}}, {"type": "node", "id": 3726168716, "lat": 47.6606459, "lon": 9.1100739, "tags": {"name": "EKT Schaltkabine Triboltingen", "power": "substation"}}, {"type": "node", "id": 3730503312, "lat": 47.6549761, "lon": 9.1376714, "tags": {"power": "substation"}}, {"type": "node", "id": 3731815906, "lat": 47.2712179, "lon": 9.6310821, "tags": {"name": "Rankweil Trafostation 25 HTL", "operator": "Vorarlberger Energienetze GmbH", "power": "substation"}}, {"type": "node", "id": 3930430714, "lat": 47.668187, "lon": 9.7368039, "tags": {"power": "substation"}}, {"type": "node", "id": 4810322591, "lat": 47.7109633, "lon": 9.1727055, "tags": {"frequency": "50", "location": "outdoor", "power": "substation", "ref": "LI5", "substation": "substation", "voltage": "20000"}}, {"type": "node", "id": 5754238954, "lat": 47.6964108, "lon": 9.6667732, "tags": {"man_made": "street_cabinet", "name": "Umspannstation Bodnegg Unterwagenbach BODGG-E-UST-056", "power": "substation", "substation": "minor_distribution"}}, {"type": "node", "id": 5793592251, "lat": 47.5573338, "lon": 10.0230159, "tags": {"name": "Auf der H\u00f6h", "power": "substation"}}, {"type": "node", "id": 5793593857, "lat": 47.5572439, "lon": 10.0204628, "tags": {"name": "Sandb\u00fchl", "power": "substation"}}, {"type": "node", "id": 5894304668, "lat": 47.5442399, "lon": 10.0820771, "tags": {"power": "substation", "ref": "Trafostation Schwandalpe"}}, {"type": "node", "id": 5918165493, "lat": 47.6713523, "lon": 9.1824724, "tags": {"power": "substation"}}, {"type": "node", "id": 5949258745, "lat": 47.737984, "lon": 9.1169198, "tags": {"building": "yes", "power": "substation", "ref": "DE 7"}}, {"type": "node", "id": 5990202456, "lat": 47.6918283, "lon": 9.1920782, "tags": {"power": "substation", "substation": "minor_distribution"}}, {"type": "node", "id": 5996057147, "lat": 47.6684396, "lon": 9.1771715, "tags": {"power": "substation"}}, {"type": "node", "id": 6050834234, "lat": 47.6656406, "lon": 9.2051983, "tags": {"power": "substation", "ref": "P 11"}}, {"type": "node", "id": 6320589594, "lat": 47.6635071, "lon": 9.1692167, "tags": {"building": "yes", "power": "substation", "ref": "A 12"}}, {"type": "node", "id": 6375712136, "lat": 47.6605285, "lon": 9.1774213, "tags": {"addr:city": "Konstanz", "addr:country": "DE", "addr:housenumber": "4c", "addr:postcode": "78462", "addr:street": "Marktst\u00e4tte", "power": "substation", "ref": "A 40"}}, {"type": "node", "id": 6433563284, "lat": 47.6904856, "lon": 9.1512511, "tags": {"power": "substation"}}, {"type": "node", "id": 7093424644, "lat": 47.6036597, "lon": 9.5522861, "tags": {"name": "Bildstock 3", "operator": "regionalwerk Bodensee", "power": "substation", "ref": "4047"}}, {"type": "node", "id": 7914247698, "lat": 47.4365604, "lon": 9.1337446, "tags": {"operator": "SAK", "power": "substation"}}, {"type": "node", "id": 8124421053, "lat": 47.3438769, "lon": 9.8554293, "tags": {"man_made": "street_cabinet", "operator": "illwerke vkw", "operator:wikidata": "Q97012080", "operator:wikipedia": "de:Illwerke vkw", "power": "substation", "substation": "minor_distribution", "utility": "power"}}, {"type": "node", "id": 8898855565, "lat": 47.1484546, "lon": 9.7598615, "tags": {"power": "substation"}}, {"type": "node", "id": 9060752830, "lat": 47.7118855, "lon": 9.1719529, "tags": {"power": "substation", "ref": "Li 10", "substation": "minor_distribution"}}, {"type": "node", "id": 9082843174, "lat": 47.3813298, "lon": 9.2692653, "tags": {"name": "Unterwerk Herisau", "operator": "SAK", "power": "substation", "voltage": "110000;20000"}}, {"type": "node", "id": 9170301847, "lat": 47.4393148, "lon": 9.6696395, "tags": {"name": "Grabher", "operator": "Vorarlberger Energienetze GmbH", "power": "substation", "ref": "915", "substation": "minor_distribution", "voltage": "10000;400"}}, {"type": "node", "id": 9170301848, "lat": 47.4393337, "lon": 9.6704728, "tags": {"name": "Grabher - Meyer", "operator": "Vorarlberger Energienetze GmbH", "power": "substation", "ref": "912", "substation": "minor_distribution", "voltage": "10000;400"}}, {"type": "node", "id": 9170301849, "lat": 47.4397866, "lon": 9.6608277, "tags": {"name": "Heimkehrer Siedlung", "operator": "Vorarlberger Energienetze GmbH", "power": "substation", "ref": "10", "substation": "minor_distribution", "voltage": "10000;400"}}, {"type": "node", "id": 9174798830, "lat": 47.4386219, "lon": 9.6478337, "tags": {"name": "Wasserwerk", "operator": "Vorarlberger Energienetze GmbH", "power": "substation", "ref": "907", "substation": "minor_distribution", "voltage": "10000;400"}}, {"type": "node", "id": 9176246338, "lat": 47.4477133, "lon": 9.6616936, "tags": {"name": "H\u00f6chster Stra\u00dfe", "operator": "Vorarlberger Energienetze GmbH", "power": "substation", "ref": "52", "substation": "minor_distribution", "voltage": "10000;400"}}, {"type": "node", "id": 9176246339, "lat": 47.4493501, "lon": 9.662784, "tags": {"name": "Fulterer", "operator": "Vorarlberger Energienetze GmbH", "power": "substation", "ref": "902", "substation": "minor_distribution", "voltage": "10000;400"}}, {"type": "node", "id": 9180812253, "lat": 47.4404448, "lon": 9.6729533, "tags": {"name": "Carini", "operator": "Vorarlberger Energienetze GmbH", "power": "substation", "ref": "918", "substation": "minor_distribution", "voltage": "10000;400"}}, {"type": "node", "id": 9180812254, "lat": 47.4400963, "lon": 9.6723027, "tags": {"name": "Kral", "operator": "Vorarlberger Energienetze GmbH", "power": "substation", "ref": "922", "substation": "minor_distribution", "voltage": "10000;400"}}, {"type": "node", "id": 9180812255, "lat": 47.4417133, "lon": 9.6706534, "tags": {"name": "Heizb\u00f6sch", "operator": "Vorarlberger Energienetze GmbH", "power": "substation", "ref": "919", "substation": "minor_distribution", "voltage": "10000;400"}}, {"type": "node", "id": 9180812260, "lat": 47.4432719, "lon": 9.6704766, "tags": {"name": "Gummibandweberei Alge", "operator": "Vorarlberger Energienetze GmbH", "power": "substation", "ref": "914", "substation": "minor_distribution", "voltage": "10000;400"}}, {"type": "node", "id": 9180812265, "lat": 47.4452131, "lon": 9.6687238, "tags": {"name": "Perzi", "operator": "Vorarlberger Energienetze GmbH", "power": "substation", "ref": "924", "substation": "minor_distribution", "voltage": "10000;400"}}, {"type": "node", "id": 9180812266, "lat": 47.4472907, "lon": 9.6680139, "tags": {"man_made": "street_cabinet", "name": "Bruggerwiesen", "operator": "Vorarlberger Energienetze GmbH", "power": "substation", "ref": "71", "substation": "minor_distribution", "utility": "power", "voltage": "10000;400"}}, {"type": "node", "id": 9796544175, "lat": 47.4339605, "lon": 9.6545195, "tags": {"name": "Metallverarbeitung Egger", "operator": "Vorarlberger Energienetze GmbH", "power": "substation", "ref": "917", "substation": "minor_distribution", "voltage": "10000;400"}}, {"type": "node", "id": 9797048777, "lat": 47.2530208, "lon": 9.6720695, "tags": {"name": "Pfarrhof", "operator": "Vorarlberger Energienetze GmbH", "power": "substation", "ref": "1", "substation": "minor_distribution"}}, {"type": "node", "id": 10082044003, "lat": 47.4301938, "lon": 9.6557716, "tags": {"name": "Stickereizentrum", "operator": "Vorarlberger Energienetze GmbH", "power": "substation", "ref": "30", "substation": "minor_distribution", "voltage": "10000;400"}}, {"type": "node", "id": 10174114815, "lat": 47.4178864, "lon": 9.654307, "tags": {"name": "Sch\u00fctzengartenstra\u00dfe", "operator": "Vorarlberger Energienetze GmbH", "power": "substation", "ref": "48", "substation": "minor_distribution", "voltage": "10000;400"}}, {"type": "node", "id": 10537844295, "lat": 47.3969344, "lon": 9.6707248, "tags": {"name": "First Chemie", "operator": "Vorarlberger Energienetze GmbH", "power": "substation", "ref": "450", "substation": "minor_distribution", "voltage": "10000;400"}}, {"type": "node", "id": 10649101479, "lat": 47.4286853, "lon": 9.669681, "tags": {"name": "Schwimmbad", "operator": "Vorarlberger Energienetze GmbH", "power": "substation", "ref": "910", "substation": "minor_distribution", "voltage": "10000;400"}}, {"type": "node", "id": 10656272272, "lat": 47.4250177, "lon": 9.6746168, "tags": {"name": "Vorachstra\u00dfe", "operator": "Vorarlberger Energienetze GmbH", "power": "substation", "ref": "63", "substation": "minor_distribution", "voltage": "10000;400"}}, {"type": "node", "id": 10735219639, "lat": 47.4258189, "lon": 9.6861692, "tags": {"name": "Biogasanlage K\u00f6nig", "operator": "Vorarlberger Energienetze GmbH", "power": "substation", "ref": "920", "substation": "minor_distribution", "voltage": "10000;400"}}, {"type": "node", "id": 10949344909, "lat": 47.2766655, "lon": 9.6576262, "tags": {"name": "Rankweil Trafostation 800 KW Rankweil", "operator": "Vorarlberger Energienetze GmbH", "power": "substation", "source": "survey 06.2023 and basemap ortphoto", "substation": "minor_distribution"}}, {"type": "node", "id": 11019580751, "lat": 47.6692217, "lon": 9.4326539, "tags": {"power": "substation"}}, {"type": "node", "id": 11068312466, "lat": 47.2444963, "lon": 9.9013028, "tags": {"power": "substation"}}, {"type": "node", "id": 11078300358, "lat": 47.3851223, "lon": 9.279963, "tags": {"name": "TS Platz", "operator": "SAK", "power": "substation"}}, {"type": "node", "id": 11102535425, "lat": 47.6688324, "lon": 9.3721218, "tags": {"operator": "Badenwerk AG", "power": "substation", "ref": "Immenstaad Tobelbach"}}, {"type": "node", "id": 11115104472, "lat": 47.7131357, "lon": 9.1693812, "tags": {"building": "service", "power": "substation", "ref": "LI8", "substation": "minor_distribution"}}, {"type": "node", "id": 11250766669, "lat": 47.4346234, "lon": 10.0277241, "tags": {"power": "substation", "substation": "minor_distribution"}}, {"type": "node", "id": 11251520209, "lat": 47.285341, "lon": 9.6509153, "tags": {"name": "Sulz Trafostation 6 Sch\u00f6ffenweg", "operator": "Vorarlberger Energienetze GmbH", "power": "substation", "source": "survey 10.2023 and Imagery", "substation": "minor_distribution"}}, {"type": "node", "id": 11384344479, "lat": 47.5488702, "lon": 9.6879601, "tags": {"building": "service", "operator": "Stadtwerke Lindau", "power": "substation", "ref": "Zwanzigerstr. 1", "substation": "minor_distribution"}}, {"type": "node", "id": 11916524553, "lat": 47.2374581, "lon": 9.6003226, "tags": {"power": "substation"}}, {"type": "node", "id": 11917589394, "lat": 47.2918615, "lon": 9.6136393, "tags": {"building": "transformer_tower", "check_date": "2024-06", "name": "Rankweil Trafostation 28 Riedstra\u00dfe", "power": "substation"}}, {"type": "node", "id": 12092285754, "lat": 47.3960954, "lon": 9.772421, "tags": {"building": "transformer_tower", "name": "Dornbirn Trafostation 96 Eschenau", "power": "substation", "source": "survey 07.2024 and Vogis 2022", "substation": "minor_distribution"}}, {"type": "node", "id": 12092320020, "lat": 47.115671, "lon": 9.7228224, "tags": {"name": "Nenzing Trafostation 908 Pumpstation Parpfienz", "power": "substation", "source": "survey 07.2024 and Vogis 2022", "substation": "minor_distribution"}}, {"type": "node", "id": 12104575077, "lat": 47.2011506, "lon": 10.1144448, "tags": {"name": "Lech Trafostation 43 Egg", "power": "substation", "source": "survey 08.2024 and Vogis 2022", "substation": "minor_distribution"}}, {"type": "node", "id": 12162039061, "lat": 47.6854283, "lon": 9.833968, "tags": {"man_made": "street_cabinet", "power": "substation", "substation": "minor_distribution"}}, {"type": "node", "id": 12242301896, "lat": 47.6279617, "lon": 9.1881044, "tags": {"frequency": "50", "location": "indoor", "name": "TS Tanklager", "operator": "Elektrizit\u00e4tsversorgung der Politischen Gemeinde Lengwil", "power": "substation", "ref": "005", "substation": "minor_distribution"}}, {"type": "node", "id": 12244646362, "lat": 47.1100858, "lon": 9.866249, "tags": {"power": "substation", "source": "survey 10.2024 and Vogis 2022", "substation": "minor_distribution"}}, {"type": "node", "id": 12331571113, "lat": 47.3048559, "lon": 9.6547494, "tags": {"name": "Weiler Trafostation 3 Fraxnerstra\u00dfe", "power": "substation", "source": "survey 11.2024 and Vogis 2022", "substation": "minor_distribution"}}, {"type": "node", "id": 12391520561, "lat": 47.3436641, "lon": 9.198475, "tags": {"power": "substation"}}, {"type": "node", "id": 12396586559, "lat": 47.6158986, "lon": 9.7125591, "tags": {"name": "Fliederstr. 16", "power": "substation", "source": "survey 12.2022", "substation": "minor_distribution"}}, {"type": "node", "id": 12479083954, "lat": 47.2328644, "lon": 9.8869469, "tags": {"power": "substation", "source": "survey 01.2025 and Vogis 2022", "substation": "minor_distribution"}}, {"type": "node", "id": 12705803961, "lat": 47.0651044, "lon": 9.8450901, "tags": {"name": "Tschagguns Trafostation 703 Pumpstation Gr\u00fcneck", "power": "substation", "source": "survey 03.2025 and Vogis 2022", "substation": "minor_distribution"}}, {"type": "node", "id": 12803687441, "lat": 47.251216, "lon": 9.6509394, "tags": {"name": "Tufers", "operator": "Vorarlberger Energienetze GmbH", "operator:wikidata": "Q113355023", "power": "substation", "ref": "5", "substation": "minor_distribution"}}, {"type": "node", "id": 12804972658, "lat": 47.2397741, "lon": 9.6772487, "tags": {"name": "Sch\u00e4ferhof", "operator": "Vorarlberger Energienetze GmbH", "operator:wikidata": "Q113355023", "power": "substation", "ref": "8", "substation": "minor_distribution"}}, {"type": "node", "id": 12824149193, "lat": 47.5401176, "lon": 9.7319475, "tags": {"power": "substation", "source": "survey 05.2025 and Vogis 2022", "substation": "minor_distribution"}}, {"type": "node", "id": 12831736982, "lat": 47.386396, "lon": 9.7185551, "tags": {"building": "service", "name": "Dornbirn Trafostation 975 Fahrzeugbau Wohlgenannt", "power": "substation", "source": "survey 05.2025 and Vogis 2022", "substation": "minor_distribution"}}, {"type": "node", "id": 12861199077, "lat": 47.5895117, "lon": 9.8424347, "tags": {"man_made": "street_cabinet", "manufacturer": "Lahmeyer", "model": "Compactstation", "operator": "e-netze allg\u00e4u", "power": "substation", "ref": "Scheidegg, Trafostation 26, Rickenbach", "utility": "power"}}, {"type": "node", "id": 12885913081, "lat": 47.7045785, "lon": 9.5510529, "tags": {"power": "substation"}}, {"type": "node", "id": 12889390492, "lat": 47.4908339, "lon": 9.7318125, "tags": {"power": "substation", "source": "survey 06.2025 and Vogis 2022", "substation": "minor_distribution"}}, {"type": "node", "id": 12889401081, "lat": 47.5026284, "lon": 9.7024949, "tags": {"power": "substation", "source": "survey 06.2025 and Vogis 2022", "substation": "minor_distribution"}}, {"type": "node", "id": 12889462591, "lat": 47.2879345, "lon": 9.6002269, "tags": {"name": "Rankweil Trafostation 47 Gro\u00dffeldweg", "power": "substation", "source": "survey 06.2025 and Vogis 2022", "substation": "minor_distribution"}}, {"type": "node", "id": 12919994443, "lat": 47.2060951, "lon": 10.1428445, "tags": {"name": "Lech Trafostation 45 Ebra", "power": "substation", "source": "survey 06.2025 and Vogis 2022", "substation": "minor_distribution"}}, {"type": "node", "id": 12980736226, "lat": 47.6877782, "lon": 9.3489173, "tags": {"power": "substation"}}, {"type": "node", "id": 12980771657, "lat": 47.674104, "lon": 9.3495894, "tags": {"power": "substation"}}, {"type": "node", "id": 12996882245, "lat": 47.5469085, "lon": 9.6889878, "tags": {"addr:city": "Lindau (Bodensee)", "addr:country": "DE", "addr:housenumber": "1", "addr:postcode": "88131", "addr:street": "Hintere Fischergasse", "name": "Hintere Fischergasse 1", "operator": "Stadtwerke Lindau (B) GmbH & Co. KG", "power": "substation", "substation": "minor_distribution"}}, {"type": "node", "id": 13078347429, "lat": 47.7014995, "lon": 9.3428267, "tags": {"contact:phone": "+49 800 3629477", "location": "outdoor", "manufacturer": "Wirt Trafostationen", "name": "Andreas-Strobel-Str. Ittendorf", "operator": "Netze BW GmbH", "power": "substation", "ref": "ITTDF-E-UST-016", "start_date": "2025", "substation": "minor_distribution"}}, {"type": "node", "id": 13087330959, "lat": 47.2072007, "lon": 10.1424506, "tags": {"name": "Lech Trafostation 26 Hotel Post", "power": "substation", "source": "survey 08.2025 and basemap imagery", "substation": "minor_distribution"}}, {"type": "node", "id": 13119045465, "lat": 47.0642193, "lon": 9.8445491, "tags": {"building": "service", "name": "Trafostation Tschagguns 400 Gr\u00fcneck", "power": "substation", "substation": "minor_distribution"}}, {"type": "node", "id": 13150755194, "lat": 47.3681239, "lon": 9.6774903, "tags": {"name": "Hohenems Trafostation 29 Konrad-Renn-Stra\u00dfe", "power": "substation", "source": "survey 10.2025 and Vogis 2022", "substation": "minor_distribution"}}, {"type": "node", "id": 13231519927, "lat": 47.5470976, "lon": 9.6815981, "tags": {"power": "substation"}}, {"type": "node", "id": 13246390832, "lat": 47.4572493, "lon": 9.7550144, "tags": {"name": "Wolfurt Trafostation 31 Quartier am Rickenbach", "power": "substation", "source": "survey 10.2025 and Vogis 2022", "substation": "minor_distribution"}}, {"type": "node", "id": 13296223041, "lat": 47.4489446, "lon": 9.106626, "tags": {"power": "substation", "substation": "minor_distribution"}}, {"type": "way", "id": 26524546, "bounds": {"minlat": 47.2796082, "minlon": 9.6150827, "maxlat": 47.2802008, "maxlon": 9.615927}, "nodes": [290722986, 290722843, 290722987, 1298744999, 1298744998, 1298744997, 3610951274, 290722845, 290722986], "geometry": [{"lat": 47.2802008, "lon": 9.6152704}, {"lat": 47.2796919, "lon": 9.6150827}, {"lat": 47.2796082, "lon": 9.6155759}, {"lat": 47.2798756, "lon": 9.6156745}, {"lat": 47.2798448, "lon": 9.615856}, {"lat": 47.2800374, "lon": 9.615927}, {"lat": 47.2800682, "lon": 9.6157455}, {"lat": 47.2801171, "lon": 9.6157635}, {"lat": 47.2802008, "lon": 9.6152704}], "tags": {"name": "Umspannwerk Brederis", "operator": "Vorarlberger Energienetze GmbH", "power": "substation", "substation": "transmission", "voltage": "110000"}}, {"type": "way", "id": 28033376, "bounds": {"minlat": 47.6783836, "minlon": 9.1566278, "maxlat": 47.6784214, "maxlon": 9.1566982}, "nodes": [307818475, 307818476, 307818481, 307818480, 307818475], "geometry": [{"lat": 47.6783836, "lon": 9.1566843}, {"lat": 47.6784011, "lon": 9.1566278}, {"lat": 47.6784214, "lon": 9.1566416}, {"lat": 47.6784039, "lon": 9.1566982}, {"lat": 47.6783836, "lon": 9.1566843}], "tags": {"addr:city": "Konstanz", "addr:country": "DE", "addr:housenumber": "1e", "addr:postcode": "78467", "addr:street": "Robert-Gerwig-Stra\u00dfe", "addr:suburb": "Industriegebiet", "building": "yes", "power": "substation", "substation": "minor_distribution"}}, {"type": "way", "id": 28277731, "bounds": {"minlat": 47.7300402, "minlon": 9.168837, "maxlat": 47.7300812, "maxlon": 9.1689011}, "nodes": [310526198, 6262193554, 310526199, 5993794673, 310526200, 310526201, 310526198], "geometry": [{"lat": 47.7300812, "lon": 9.1688754}, {"lat": 47.7300704, "lon": 9.1688882}, {"lat": 47.7300596, "lon": 9.1689011}, {"lat": 47.7300481, "lon": 9.1688784}, {"lat": 47.7300402, "lon": 9.1688626}, {"lat": 47.7300618, "lon": 9.168837}, {"lat": 47.7300812, "lon": 9.1688754}], "tags": {"addr:city": "Konstanz", "addr:country": "DE", "addr:housenumber": "103", "addr:postcode": "78465", "addr:street": "Am Flie\u00dfhorn", "building": "transformer_tower", "power": "substation", "ref": "OB 2", "substation": "minor_distribution"}}, {"type": "way", "id": 30778406, "bounds": {"minlat": 47.7024014, "minlon": 9.1411011, "maxlat": 47.7024237, "maxlon": 9.1411338}, "nodes": [340358929, 340358933, 340358938, 340358946, 340358929], "geometry": [{"lat": 47.7024096, "lon": 9.1411011}, {"lat": 47.7024237, "lon": 9.141114}, {"lat": 47.7024155, "lon": 9.1411338}, {"lat": 47.7024014, "lon": 9.1411209}, {"lat": 47.7024096, "lon": 9.1411011}], "tags": {"addr:city": "Konstanz", "addr:country": "DE", "addr:housenumber": "103", "addr:postcode": "78467", "addr:street": "Dettinger Stra\u00dfe", "addr:suburb": "Wollmatingen", "building": "service", "power": "substation", "ref": "W43", "source": "survey", "substation": "minor_distribution"}}, {"type": "way", "id": 30801059, "bounds": {"minlat": 47.7007103, "minlon": 9.1277993, "maxlat": 47.7016355, "maxlon": 9.1294247}, "nodes": [333707267, 341138998, 341139009, 341139004, 341138991, 333707268, 333707267], "geometry": [{"lat": 47.7010594, "lon": 9.1277993}, {"lat": 47.7007103, "lon": 9.1291003}, {"lat": 47.7007553, "lon": 9.1291227}, {"lat": 47.7009152, "lon": 9.1292586}, {"lat": 47.7013599, "lon": 9.1294247}, {"lat": 47.7016355, "lon": 9.1281291}, {"lat": 47.7010594, "lon": 9.1277993}], "tags": {"area": "yes", "barrier": "fence", "name": "Umspannwerk Konstanz-Wollmatingen", "operator": "EnBw", "power": "substation", "voltage": "110000"}}, {"type": "way", "id": 31131320, "bounds": {"minlat": 47.6521187, "minlon": 9.8005915, "maxlat": 47.6535062, "maxlon": 9.8020709}, "nodes": [346153956, 1429898945, 1429898944, 346153957, 346153959, 346153960, 346153956], "geometry": [{"lat": 47.6535062, "lon": 9.8009972}, {"lat": 47.6525559, "lon": 9.8006831}, {"lat": 47.6522106, "lon": 9.8005915}, {"lat": 47.6521187, "lon": 9.8010946}, {"lat": 47.6522584, "lon": 9.8018659}, {"lat": 47.6533769, "lon": 9.8020709}, {"lat": 47.6535062, "lon": 9.8009972}], "tags": {"access": "private", "frequency": "50", "name": "Obermooweiler", "note": "Hier beginnt die 380 kV-Verbindung zum \u00f6sterreichischen Netz (UW B\u00fcrs).\nSeit 2021 380KV Schaltanlage mit Kompensationsdrosselspule.", "operator": "Transnet BW", "power": "substation", "substation": "compensation", "voltage": "380000", "wikidata": "Q58106646"}}, {"type": "way", "id": 31131325, "bounds": {"minlat": 47.7438108, "minlon": 9.6440453, "maxlat": 47.745631, "maxlon": 9.6473385}, "nodes": [346153961, 2906847202, 2906846929, 346153963, 2906847086, 5418371827, 346153964, 2906847088, 2906847083, 2906847075, 346153965, 2906847082, 2906847077, 2906847079, 2906847084, 346153966, 2906847100, 2906846928, 1429898966, 346153967, 346153961], "geometry": [{"lat": 47.7455989, "lon": 9.6447939}, {"lat": 47.7448037, "lon": 9.6463105}, {"lat": 47.7448672, "lon": 9.6463871}, {"lat": 47.74436, "lon": 9.6473385}, {"lat": 47.7439722, "lon": 9.6468896}, {"lat": 47.7439284, "lon": 9.6465919}, {"lat": 47.7439089, "lon": 9.6464591}, {"lat": 47.7441812, "lon": 9.645926}, {"lat": 47.7439156, "lon": 9.6456261}, {"lat": 47.7438108, "lon": 9.6453734}, {"lat": 47.7438807, "lon": 9.6451575}, {"lat": 47.7439142, "lon": 9.64479}, {"lat": 47.743825, "lon": 9.6447753}, {"lat": 47.7438462, "lon": 9.6444489}, {"lat": 47.7439312, "lon": 9.6444615}, {"lat": 47.7439712, "lon": 9.6440453}, {"lat": 47.7446874, "lon": 9.6441835}, {"lat": 47.7447992, "lon": 9.6440698}, {"lat": 47.7455426, "lon": 9.6441883}, {"lat": 47.745631, "lon": 9.6442906}, {"lat": 47.7455989, "lon": 9.6447939}], "tags": {"barrier": "fence", "frequency": "50", "landuse": "industrial", "name": "380kV-Umspannwerk Gr\u00fcnkraut", "power": "substation", "substation": "transmission", "voltage": "380000;110000"}}, {"type": "way", "id": 32293834, "bounds": {"minlat": 47.221574, "minlon": 9.6417845, "maxlat": 47.2224752, "maxlon": 9.643436}, "nodes": [363285873, 363285874, 363285875, 363285876, 363285877, 2069775873, 363285873], "geometry": [{"lat": 47.2220236, "lon": 9.6417845}, {"lat": 47.2221369, "lon": 9.6418803}, {"lat": 47.2224752, "lon": 9.6427995}, {"lat": 47.2222256, "lon": 9.643436}, {"lat": 47.221574, "lon": 9.6428964}, {"lat": 47.2217901, "lon": 9.6423619}, {"lat": 47.2220236, "lon": 9.6417845}], "tags": {"name": "Umspannwerk Frastanz", "operator": "Vorarlberger Energienetze GmbH", "power": "substation", "substation": "transmission", "voltage": "110000"}}, {"type": "way", "id": 32821660, "bounds": {"minlat": 47.2516604, "minlon": 9.6173569, "maxlat": 47.252858, "maxlon": 9.6185377}, "nodes": [369812800, 369812801, 369812802, 5503477251, 369812803, 5503477250, 3691286057, 369812804, 3691286058, 3691286061, 3691286069, 3691286068, 3691286065, 3691286070, 3691286067, 3344713144, 3344713141, 3344713139, 3344713138, 3344713142, 3691286062, 369812800], "geometry": [{"lat": 47.2527149, "lon": 9.6183585}, {"lat": 47.252577, "lon": 9.6185377}, {"lat": 47.2516604, "lon": 9.6176562}, {"lat": 47.2516828, "lon": 9.6176045}, {"lat": 47.2517553, "lon": 9.617437}, {"lat": 47.251766, "lon": 9.6173948}, {"lat": 47.2517714, "lon": 9.6173569}, {"lat": 47.2524649, "lon": 9.6175418}, {"lat": 47.2524801, "lon": 9.6174963}, {"lat": 47.2526326, "lon": 9.6175093}, {"lat": 47.2528168, "lon": 9.617514}, {"lat": 47.2527798, "lon": 9.6177831}, {"lat": 47.2527456, "lon": 9.6178216}, {"lat": 47.252858, "lon": 9.6179061}, {"lat": 47.2527733, "lon": 9.6180095}, {"lat": 47.2527972, "lon": 9.6180544}, {"lat": 47.2526675, "lon": 9.6182056}, {"lat": 47.2526528, "lon": 9.6181782}, {"lat": 47.2526363, "lon": 9.6181974}, {"lat": 47.2526949, "lon": 9.6182528}, {"lat": 47.2526684, "lon": 9.618314}, {"lat": 47.2527149, "lon": 9.6183585}], "tags": {"frequency": "16.7", "landuse": "industrial", "location": "outdoor", "name": "Unterwerk Feldkirch", "operator": "\u00d6BB-Infrastruktur AG", "operator:short": "\u00d6BB Infra", "operator:wikidata": "Q56425426", "power": "substation", "ref": "Fk", "substation": "traction", "voltage": "132000;110000;15000"}}, {"type": "way", "id": 33118067, "bounds": {"minlat": 47.4102546, "minlon": 9.2620053, "maxlat": 47.4108235, "maxlon": 9.2632493}, "nodes": [373859320, 373859322, 1026505380, 1026505473, 1350137836, 1840694568, 1026505254, 1026505185, 1026505111, 1026505423, 1026505156, 1026505344, 373859324, 373859326, 373859320], "geometry": [{"lat": 47.4107085, "lon": 9.2620053}, {"lat": 47.4103014, "lon": 9.2620861}, {"lat": 47.4103095, "lon": 9.2621755}, {"lat": 47.4102546, "lon": 9.2621852}, {"lat": 47.4103069, "lon": 9.2627149}, {"lat": 47.4103102, "lon": 9.262748}, {"lat": 47.4103133, "lon": 9.2627796}, {"lat": 47.4103851, "lon": 9.2627627}, {"lat": 47.4104059, "lon": 9.2627668}, {"lat": 47.4104211, "lon": 9.2627739}, {"lat": 47.4104257, "lon": 9.2627917}, {"lat": 47.4104416, "lon": 9.262804}, {"lat": 47.4104855, "lon": 9.2632493}, {"lat": 47.4108235, "lon": 9.2632036}, {"lat": 47.4107085, "lon": 9.2620053}], "tags": {"barrier": "fence", "fixme": "name,operator", "power": "substation", "substation": "transmission"}}, {"type": "way", "id": 33231765, "bounds": {"minlat": 47.6828858, "minlon": 9.173458, "maxlat": 47.683186, "maxlon": 9.1739464}, "nodes": [376997940, 376997981, 563279160, 293618300, 376998079, 376997940], "geometry": [{"lat": 47.683186, "lon": 9.1738035}, {"lat": 47.6830319, "lon": 9.1739464}, {"lat": 47.6829469, "lon": 9.1737452}, {"lat": 47.6828858, "lon": 9.1736009}, {"lat": 47.6830399, "lon": 9.173458}, {"lat": 47.683186, "lon": 9.1738035}], "tags": {"area": "yes", "barrier": "fence", "operator": "Stadtwerke Konstanz", "operator:wikidata": "Q1266985", "power": "substation", "substation": "transition", "voltage": "110000"}}, {"type": "way", "id": 36788179, "bounds": {"minlat": 47.6945148, "minlon": 9.8498786, "maxlat": 47.6945633, "maxlon": 9.8499312}, "nodes": [427693717, 427693721, 427693723, 427693719, 427693717], "geometry": [{"lat": 47.6945633, "lon": 9.8498792}, {"lat": 47.694515, "lon": 9.8498786}, {"lat": 47.6945148, "lon": 9.8499307}, {"lat": 47.694563, "lon": 9.8499312}, {"lat": 47.6945633, "lon": 9.8498792}], "tags": {"building": "yes", "operator": "EnBW", "power": "substation", "substation": "minor_distribution"}}, {"type": "way", "id": 40503111, "bounds": {"minlat": 47.5969418, "minlon": 9.8867869, "maxlat": 47.597016, "maxlon": 9.8869008}, "nodes": [491047715, 491047716, 491047718, 491047719, 491047715], "geometry": [{"lat": 47.5969757, "lon": 9.8867869}, {"lat": 47.5969418, "lon": 9.8868593}, {"lat": 47.5969821, "lon": 9.8869008}, {"lat": 47.597016, "lon": 9.8868284}, {"lat": 47.5969757, "lon": 9.8867869}], "tags": {"building": "yes", "operator": "VKW", "power": "substation", "ref": "VKW Trafostation 5 Brunnenb\u00fchl", "source": "DOP 1.6 LVA Bayern selbst Lizenziert"}}, {"type": "way", "id": 40615031, "bounds": {"minlat": 47.5995428, "minlon": 9.8762136, "maxlat": 47.5995986, "maxlon": 9.8762866}, "nodes": [493242777, 493242778, 493242779, 493242780, 493242777], "geometry": [{"lat": 47.5995906, "lon": 9.8762136}, {"lat": 47.5995428, "lon": 9.876228}, {"lat": 47.5995508, "lon": 9.8762866}, {"lat": 47.5995986, "lon": 9.8762722}, {"lat": 47.5995906, "lon": 9.8762136}], "tags": {"building": "yes", "name": "VKW Trafostation", "operator": "VKW", "power": "substation", "source": "DOP 1.6 LVA Bayern selbst Lizenziert", "substation": "minor_distribution"}}, {"type": "way", "id": 40617810, "bounds": {"minlat": 47.6046979, "minlon": 9.8802855, "maxlat": 47.6047629, "maxlon": 9.8803646}, "nodes": [493325183, 493325185, 493325187, 493325189, 493325183], "geometry": [{"lat": 47.6047629, "lon": 9.8803317}, {"lat": 47.6047495, "lon": 9.8802855}, {"lat": 47.6046979, "lon": 9.8803183}, {"lat": 47.6047113, "lon": 9.8803646}, {"lat": 47.6047629, "lon": 9.8803317}], "tags": {"building": "yes", "operator": "VKW", "power": "substation", "ref": "Trafostation 4 -Spielermoos", "source": "DOP 1.6m LVA Bayern lizenziert von Edwin_ldbg", "substation": "minor_distribution"}}, {"type": "way", "id": 40641599, "bounds": {"minlat": 47.4716153, "minlon": 9.8520128, "maxlat": 47.4724233, "maxlon": 9.8536019}, "nodes": [493658810, 493658812, 3669251231, 3669251230, 4785218538, 3669251232, 3669251235, 493658814, 493658815, 493658810], "geometry": [{"lat": 47.4721045, "lon": 9.8520128}, {"lat": 47.4716153, "lon": 9.8522797}, {"lat": 47.4717195, "lon": 9.8526983}, {"lat": 47.4716469, "lon": 9.8528656}, {"lat": 47.4717931, "lon": 9.853457}, {"lat": 47.4718114, "lon": 9.853531}, {"lat": 47.471839, "lon": 9.8535865}, {"lat": 47.4718602, "lon": 9.8536019}, {"lat": 47.4724233, "lon": 9.8532946}, {"lat": 47.4721045, "lon": 9.8520128}], "tags": {"name": "Umspannwerk Vorderwald", "operator": "Vorarlberger Energienetze GmbH", "power": "substation", "substation": "transmission", "voltage": "110000"}}, {"type": "way", "id": 40644199, "bounds": {"minlat": 47.6074736, "minlon": 9.886238, "maxlat": 47.6075199, "maxlon": 9.8862783}, "nodes": [493672582, 493672583, 493672584, 493672585, 493672582], "geometry": [{"lat": 47.6074742, "lon": 9.886238}, {"lat": 47.6074736, "lon": 9.8862768}, {"lat": 47.6075194, "lon": 9.8862783}, {"lat": 47.6075199, "lon": 9.8862395}, {"lat": 47.6074742, "lon": 9.886238}], "tags": {"building": "yes", "operator": "VKW", "power": "substation", "ref": "Trafostation 49 -J\u00e4gerstra\u00dfe", "source": "DOP 1.6m LVA Bayern lizenziert von Edwin_ldbg", "substation": "minor_distribution"}}, {"type": "way", "id": 44836611, "bounds": {"minlat": 47.6020984, "minlon": 9.8961937, "maxlat": 47.6021701, "maxlon": 9.896287}, "nodes": [494247584, 494247585, 494247586, 568444797, 494247584], "geometry": [{"lat": 47.6021166, "lon": 9.896287}, {"lat": 47.6020984, "lon": 9.8962462}, {"lat": 47.6021519, "lon": 9.8961937}, {"lat": 47.6021701, "lon": 9.8962345}, {"lat": 47.6021166, "lon": 9.896287}], "tags": {"building": "yes", "operator": "VKW", "power": "substation", "ref": "Trafostation 47 -Maximilian Bentele Stra\u00dfe", "substation": "minor_distribution"}}, {"type": "way", "id": 54189831, "bounds": {"minlat": 47.6012871, "minlon": 9.891419, "maxlat": 47.6013138, "maxlon": 9.8914454}, "nodes": [683543210, 683543208, 683543213, 683543215, 683543210], "geometry": [{"lat": 47.6013138, "lon": 9.8914227}, {"lat": 47.6013123, "lon": 9.8914454}, {"lat": 47.6012871, "lon": 9.8914417}, {"lat": 47.6012886, "lon": 9.891419}, {"lat": 47.6013138, "lon": 9.8914227}], "tags": {"building": "yes", "name": "VKW Trafostation 8 Lebenshilfe", "operator": "VKW", "power": "substation", "ref": "Trafostation 5 - Brunnenb\u00fchl", "source": "DOP 1.6 LVA Bayern selbst Lizenziert", "substation": "minor_distribution"}}, {"type": "way", "id": 54436862, "bounds": {"minlat": 47.6103646, "minlon": 9.8847987, "maxlat": 47.6103869, "maxlon": 9.8849002}, "nodes": [685774313, 685774314, 685774312, 685774315, 685774313], "geometry": [{"lat": 47.6103842, "lon": 9.8847987}, {"lat": 47.6103869, "lon": 9.8848991}, {"lat": 47.6103672, "lon": 9.8849002}, {"lat": 47.6103646, "lon": 9.8847999}, {"lat": 47.6103842, "lon": 9.8847987}], "tags": {"name": "VKW Travostation 36 Schwesternheim", "operator": "VKW", "power": "substation"}}, {"type": "way", "id": 54436865, "bounds": {"minlat": 47.6106144, "minlon": 9.8894415, "maxlat": 47.6106745, "maxlon": 9.8895329}, "nodes": [685774365, 685774367, 3443658241, 685774366, 685774365], "geometry": [{"lat": 47.6106745, "lon": 9.8894552}, {"lat": 47.6106241, "lon": 9.8894415}, {"lat": 47.6106144, "lon": 9.8895191}, {"lat": 47.6106649, "lon": 9.8895329}, {"lat": 47.6106745, "lon": 9.8894552}], "tags": {"building": "yes", "name": "VKW Trafostation 25 S\u00e4ntisweg", "power": "substation"}}, {"type": "way", "id": 54565978, "bounds": {"minlat": 47.6098853, "minlon": 9.8931294, "maxlat": 47.6099212, "maxlon": 9.8932175}, "nodes": [687038475, 687038476, 687038479, 687038480, 687038475], "geometry": [{"lat": 47.6099212, "lon": 9.89313}, {"lat": 47.6098859, "lon": 9.8931294}, {"lat": 47.6098853, "lon": 9.8932169}, {"lat": 47.6099205, "lon": 9.8932175}, {"lat": 47.6099212, "lon": 9.89313}], "tags": {"building": "yes", "name": "VKW Trafostation 34 Nadenberg", "power": "substation"}}, {"type": "way", "id": 56141438, "bounds": {"minlat": 47.6113827, "minlon": 9.8999816, "maxlat": 47.6114265, "maxlon": 9.9000453}, "nodes": [704498343, 704498333, 704498341, 704498346, 704498343], "geometry": [{"lat": 47.6114089, "lon": 9.8999816}, {"lat": 47.6113827, "lon": 9.9000142}, {"lat": 47.6114003, "lon": 9.9000453}, {"lat": 47.6114265, "lon": 9.9000126}, {"lat": 47.6114089, "lon": 9.8999816}], "tags": {"building": "yes", "name": "VKW Trafostation Mauderer", "power": "substation"}}, {"type": "way", "id": 61108302, "bounds": {"minlat": 47.3114156, "minlon": 9.5900814, "maxlat": 47.3133192, "maxlon": 9.5937595}, "nodes": [380227631, 3573252293, 380227630, 764511097, 3435707851, 764511143, 1803258443, 764511128, 764511110, 764511145, 764511130, 966204572, 966204579, 764511086, 764511083, 380227631], "geometry": [{"lat": 47.3125724, "lon": 9.5900814}, {"lat": 47.3124024, "lon": 9.5902293}, {"lat": 47.3114156, "lon": 9.5910879}, {"lat": 47.3121537, "lon": 9.5929214}, {"lat": 47.3122303, "lon": 9.5930047}, {"lat": 47.3123021, "lon": 9.5930829}, {"lat": 47.3124691, "lon": 9.5929502}, {"lat": 47.3127779, "lon": 9.5937378}, {"lat": 47.3128522, "lon": 9.5937595}, {"lat": 47.3132891, "lon": 9.5933776}, {"lat": 47.3133107, "lon": 9.5932767}, {"lat": 47.3130855, "lon": 9.5927166}, {"lat": 47.3132988, "lon": 9.5925301}, {"lat": 47.3131268, "lon": 9.5921008}, {"lat": 47.3133192, "lon": 9.5919228}, {"lat": 47.3125724, "lon": 9.5900814}], "tags": {"addr:city": "Meiningen", "addr:country": "AT", "addr:housenumber": "20", "addr:postcode": "6812", "addr:street": "Lutta", "barrier": "fence", "landuse": "industrial", "name": "Umspannwerk Meiningen", "operator": "Vorarlberger Energienetze GmbH", "operator:wikidata": "Q113355023", "power": "substation", "substation": "transmission", "voltage": "380000;220000"}}, {"type": "way", "id": 71459481, "bounds": {"minlat": 47.5891108, "minlon": 9.8823535, "maxlat": 47.5891579, "maxlon": 9.8824231}, "nodes": [850191518, 850191551, 850191613, 850191587, 3911508963, 850191518], "geometry": [{"lat": 47.5891579, "lon": 9.8823904}, {"lat": 47.5891325, "lon": 9.8824231}, {"lat": 47.5891108, "lon": 9.8823862}, {"lat": 47.5891362, "lon": 9.8823535}, {"lat": 47.5891491, "lon": 9.8823752}, {"lat": 47.5891579, "lon": 9.8823904}], "tags": {"building": "transformer_tower", "name": "VKW Trafostation 6 Riederh\u00f6he", "operator": "VKW", "power": "substation", "substation": "minor_distribution"}}, {"type": "way", "id": 81865859, "bounds": {"minlat": 47.49779, "minlon": 9.6955955, "maxlat": 47.4978563, "maxlon": 9.6956959}, "nodes": [2120957358, 954534413, 954534416, 954534420, 2120957358], "geometry": [{"lat": 47.4978563, "lon": 9.6956267}, {"lat": 47.4978129, "lon": 9.6955955}, {"lat": 47.49779, "lon": 9.6956647}, {"lat": 47.4978334, "lon": 9.6956959}, {"lat": 47.4978563, "lon": 9.6956267}], "tags": {"building": "yes", "name": "Umspannwerk", "power": "substation", "source": "geoimage.at"}}, {"type": "way", "id": 83529203, "bounds": {"minlat": 47.4312048, "minlon": 9.7141477, "maxlat": 47.4340868, "maxlon": 9.718999}, "nodes": [972629368, 973484663, 972629369, 973484665, 973484669, 972629385, 972629388, 4609453417, 972629393, 4609453418, 972629395, 973484661, 972629396, 972629368], "geometry": [{"lat": 47.4338106, "lon": 9.716652}, {"lat": 47.4339805, "lon": 9.7164731}, {"lat": 47.4336994, "lon": 9.715855}, {"lat": 47.4330227, "lon": 9.7142706}, {"lat": 47.4327122, "lon": 9.7141477}, {"lat": 47.4321574, "lon": 9.7155073}, {"lat": 47.4316311, "lon": 9.7160087}, {"lat": 47.4315956, "lon": 9.7160865}, {"lat": 47.4312048, "lon": 9.716944}, {"lat": 47.4320331, "lon": 9.7187898}, {"lat": 47.432127, "lon": 9.718999}, {"lat": 47.4329739, "lon": 9.718557}, {"lat": 47.4340868, "lon": 9.7172935}, {"lat": 47.4338106, "lon": 9.716652}], "tags": {"barrier": "fence", "fence_type": "chain_link", "frequency": "50", "name": "Umspannwerk Werben - Dornbirn", "operator": "Vorarlberger Energienetze GmbH", "power": "substation", "substation": "transmission", "voltage": "220000;110000"}}, {"type": "way", "id": 83726045, "bounds": {"minlat": 47.6063191, "minlon": 9.7991296, "maxlat": 47.606474, "maxlon": 9.7993513}, "nodes": [975243367, 4804270857, 975184010, 975245029, 3800140213, 975187544, 3800140214, 3800140215, 975243367], "geometry": [{"lat": 47.606474, "lon": 9.7992355}, {"lat": 47.6064291, "lon": 9.7992886}, {"lat": 47.6063761, "lon": 9.7993513}, {"lat": 47.6063191, "lon": 9.7992454}, {"lat": 47.6063735, "lon": 9.7991811}, {"lat": 47.606417, "lon": 9.7991296}, {"lat": 47.606436, "lon": 9.7991649}, {"lat": 47.606455, "lon": 9.7992002}, {"lat": 47.606474, "lon": 9.7992355}], "tags": {"addr:city": "Sigmarszell", "addr:country": "DE", "addr:housenumber": "63", "addr:postcode": "88138", "addr:street": "Allg\u00e4ustra\u00dfe", "addr:suburb": "Umgangs", "building": "service", "power": "substation", "substation": "minor_distribution"}}, {"type": "way", "id": 83861269, "bounds": {"minlat": 47.3385219, "minlon": 9.5772181, "maxlat": 47.3398292, "maxlon": 9.5791577}, "nodes": [976120686, 976120687, 976120688, 976120689, 976120690, 1384945816, 1384945817, 976120691, 1384945827, 976120693, 2439894366, 1384945846, 976120686], "geometry": [{"lat": 47.3398292, "lon": 9.5773024}, {"lat": 47.3393343, "lon": 9.5772181}, {"lat": 47.3393233, "lon": 9.5773852}, {"lat": 47.3386471, "lon": 9.5772865}, {"lat": 47.3385219, "lon": 9.5790904}, {"lat": 47.3390029, "lon": 9.5791577}, {"lat": 47.3390151, "lon": 9.5790166}, {"lat": 47.3391742, "lon": 9.5790413}, {"lat": 47.3392338, "lon": 9.5790308}, {"lat": 47.3392726, "lon": 9.5783519}, {"lat": 47.339717, "lon": 9.5784332}, {"lat": 47.3397436, "lon": 9.578437}, {"lat": 47.3398292, "lon": 9.5773024}], "tags": {"name": "Montlingen", "power": "substation", "substation": "transmission", "voltage": "220000"}}, {"type": "way", "id": 86351876, "bounds": {"minlat": 47.5424821, "minlon": 9.7488553, "maxlat": 47.5428677, "maxlon": 9.7491894}, "nodes": [1003126496, 1003126627, 1806283047, 1003126359, 1003126288, 1003126020, 1003126433, 9731893779, 1003126496], "geometry": [{"lat": 47.542865, "lon": 9.7491042}, {"lat": 47.5428677, "lon": 9.7488648}, {"lat": 47.5428293, "lon": 9.7488638}, {"lat": 47.5424858, "lon": 9.7488553}, {"lat": 47.5424821, "lon": 9.7491871}, {"lat": 47.5425724, "lon": 9.7491894}, {"lat": 47.5425734, "lon": 9.749097}, {"lat": 47.5428239, "lon": 9.7491032}, {"lat": 47.542865, "lon": 9.7491042}], "tags": {"addr:city": "H\u00f6rbranz", "addr:country": "AT", "addr:housenumber": "7v", "addr:postcode": "6912", "addr:street": "Allg\u00e4ustra\u00dfe", "building": "yes", "name": "Umspannwerk H\u00f6rbranz", "operator": "Vorarlberger Energienetze GmbH", "operator:wikidata": "Q113355023", "power": "substation", "source": "GeoImage.at", "substation": "transmission", "voltage": "110000"}}, {"type": "way", "id": 87700318, "bounds": {"minlat": 47.2890931, "minlon": 9.6589667, "maxlat": 47.2891417, "maxlon": 9.6590494}, "nodes": [448536370, 1019865629, 1019865583, 1019865558, 448536370], "geometry": [{"lat": 47.2891016, "lon": 9.6590494}, {"lat": 47.2891417, "lon": 9.6590391}, {"lat": 47.2891332, "lon": 9.6589667}, {"lat": 47.2890931, "lon": 9.6589769}, {"lat": 47.2891016, "lon": 9.6590494}], "tags": {"building": "yes", "building:levels": "1", "name": "Trafostation 5 Im Lettacker", "operator": "Vorarlberger Energienetze GmbH", "power": "substation", "roof:shape": "gabled"}}, {"type": "way", "id": 89761689, "bounds": {"minlat": 47.5889355, "minlon": 9.9143472, "maxlat": 47.5896719, "maxlon": 9.9154309}, "nodes": [1040205041, 1040204784, 1040207153, 1040206086, 10876460459, 1040205041], "geometry": [{"lat": 47.5896719, "lon": 9.9150358}, {"lat": 47.589426, "lon": 9.9143472}, {"lat": 47.5889355, "lon": 9.9147383}, {"lat": 47.5891844, "lon": 9.9154309}, {"lat": 47.5894729, "lon": 9.9152812}, {"lat": 47.5896719, "lon": 9.9150358}], "tags": {"name": "Umspannwerk Weiler", "operator": "Elektrizit\u00e4tsnetze Allg\u00e4u GmbH", "power": "substation", "substation": "transmission", "voltage": "110000"}}, {"type": "way", "id": 91088455, "bounds": {"minlat": 47.447321, "minlon": 9.6597589, "maxlat": 47.4474339, "maxlon": 9.6599239}, "nodes": [1057593283, 1057593284, 1761000528, 1057593286, 1057593288, 1057593283], "geometry": [{"lat": 47.4474339, "lon": 9.6598505}, {"lat": 47.447388, "lon": 9.6599239}, {"lat": 47.4473346, "lon": 9.6598509}, {"lat": 47.447321, "lon": 9.6598323}, {"lat": 47.4473669, "lon": 9.6597589}, {"lat": 47.4474339, "lon": 9.6598505}], "tags": {"building": "service", "name": "Rheinbauleitung", "operator": "Vorarlberger Energienetze GmbH", "power": "substation", "ref": "904", "substation": "minor_distribution", "voltage": "10000;400"}}, {"type": "way", "id": 92798668, "bounds": {"minlat": 47.3963626, "minlon": 9.3012887, "maxlat": 47.3990209, "maxlon": 9.3041055}, "nodes": [1076242236, 9922615068, 9922615069, 1076242254, 9922615070, 1076242247, 9922615072, 9922615073, 1076242281, 1076242305, 9922615071, 9922615059, 1076242249, 1076242238, 10887405880, 1076242269, 1076242251, 9922615060, 9922615061, 1076242294, 9922615063, 9922615064, 2533809269, 2533809276, 9922615062, 1076242277, 2533809307, 9922615065, 2533809340, 2533809360, 2533809382, 2533809385, 2533809399, 2533809395, 2533809413, 2533809417, 2533809434, 9922615066, 1076242311, 1076242315, 10814325566, 9922615067, 1076242236], "geometry": [{"lat": 47.3985362, "lon": 9.3041055}, {"lat": 47.3982868, "lon": 9.3039842}, {"lat": 47.3982468, "lon": 9.3039647}, {"lat": 47.3978858, "lon": 9.3037942}, {"lat": 47.3979017, "lon": 9.3037242}, {"lat": 47.3979148, "lon": 9.3036519}, {"lat": 47.3978067, "lon": 9.3036009}, {"lat": 47.3977728, "lon": 9.3035849}, {"lat": 47.3965096, "lon": 9.3029892}, {"lat": 47.3963626, "lon": 9.3025698}, {"lat": 47.3965455, "lon": 9.3017197}, {"lat": 47.3965462, "lon": 9.3017161}, {"lat": 47.3965696, "lon": 9.3016728}, {"lat": 47.3970371, "lon": 9.3014059}, {"lat": 47.3970643, "lon": 9.3014202}, {"lat": 47.3970915, "lon": 9.3014344}, {"lat": 47.3971676, "lon": 9.3013518}, {"lat": 47.3972054, "lon": 9.3013225}, {"lat": 47.3972589, "lon": 9.301299}, {"lat": 47.3973099, "lon": 9.3012887}, {"lat": 47.3973629, "lon": 9.3012921}, {"lat": 47.3973615, "lon": 9.3013166}, {"lat": 47.3976865, "lon": 9.3013237}, {"lat": 47.397685, "lon": 9.301332}, {"lat": 47.3977124, "lon": 9.3013314}, {"lat": 47.3977177, "lon": 9.3013081}, {"lat": 47.397925, "lon": 9.3014082}, {"lat": 47.3979876, "lon": 9.3014375}, {"lat": 47.3979909, "lon": 9.3014227}, {"lat": 47.3981044, "lon": 9.3014742}, {"lat": 47.3982398, "lon": 9.3015309}, {"lat": 47.3982466, "lon": 9.3015006}, {"lat": 47.3982982, "lon": 9.3015257}, {"lat": 47.3982873, "lon": 9.3015751}, {"lat": 47.3983583, "lon": 9.3016104}, {"lat": 47.3983612, "lon": 9.3015936}, {"lat": 47.3985432, "lon": 9.3016799}, {"lat": 47.3985646, "lon": 9.3016896}, {"lat": 47.3985724, "lon": 9.3016558}, {"lat": 47.3990209, "lon": 9.301864}, {"lat": 47.3990118, "lon": 9.3019063}, {"lat": 47.3990035, "lon": 9.3019448}, {"lat": 47.3985362, "lon": 9.3041055}], "tags": {"name": "Winkeln", "power": "substation", "substation": "transmission", "voltage": "220000"}}, {"type": "way", "id": 92873516, "bounds": {"minlat": 47.4809656, "minlon": 9.4315372, "maxlat": 47.4828858, "maxlon": 9.4336774}, "nodes": [1076907321, 1076907421, 1076907410, 1076907513, 1076907476, 1076907259, 1076907565, 1076907376, 1076907323, 1076907461, 7182625045, 7182625052, 7182634692, 1076907321], "geometry": [{"lat": 47.4825363, "lon": 9.4315372}, {"lat": 47.4816413, "lon": 9.4318405}, {"lat": 47.4816571, "lon": 9.4319473}, {"lat": 47.4810397, "lon": 9.4321512}, {"lat": 47.4809656, "lon": 9.432343}, {"lat": 47.4811033, "lon": 9.4332364}, {"lat": 47.4814389, "lon": 9.4336774}, {"lat": 47.4828858, "lon": 9.4332054}, {"lat": 47.4828108, "lon": 9.4326804}, {"lat": 47.4826822, "lon": 9.4325218}, {"lat": 47.482645, "lon": 9.4322665}, {"lat": 47.4825903, "lon": 9.4319062}, {"lat": 47.4825525, "lon": 9.4316468}, {"lat": 47.4825363, "lon": 9.4315372}], "tags": {"barrier": "fence", "frequency": "50", "location": "outdoor", "name": "UW M\u00f6rschwil", "operator": "Swissgrid, Axpo", "power": "substation", "substation": "transmission", "voltage": "220000;110000"}}, {"type": "way", "id": 92873517, "bounds": {"minlat": 47.4717886, "minlon": 9.4572054, "maxlat": 47.4725258, "maxlon": 9.4585678}, "nodes": [1076907274, 1076907465, 1076907238, 1076907554, 1076907367, 10168603261, 1076907297, 1076907436, 1076907275, 1076907415, 1076907521, 1076907274], "geometry": [{"lat": 47.4717886, "lon": 9.4572561}, {"lat": 47.4719638, "lon": 9.4572054}, {"lat": 47.4723621, "lon": 9.4574111}, {"lat": 47.4724193, "lon": 9.4574693}, {"lat": 47.4725258, "lon": 9.4575949}, {"lat": 47.4724724, "lon": 9.45847}, {"lat": 47.4724183, "lon": 9.45852}, {"lat": 47.472334, "lon": 9.4585678}, {"lat": 47.4720823, "lon": 9.4585595}, {"lat": 47.4719512, "lon": 9.4584357}, {"lat": 47.4718836, "lon": 9.4575827}, {"lat": 47.4717886, "lon": 9.4572561}], "tags": {"power": "substation"}}, {"type": "way", "id": 93044006, "bounds": {"minlat": 47.4630742, "minlon": 9.6570239, "maxlat": 47.463862, "maxlon": 9.6579902}, "nodes": [1078525868, 1078525923, 1362637422, 1078525842, 1362637421, 1078525887, 1078525868], "geometry": [{"lat": 47.4632572, "lon": 9.6570239}, {"lat": 47.4636871, "lon": 9.6574599}, {"lat": 47.463862, "lon": 9.657732}, {"lat": 47.4637517, "lon": 9.6579723}, {"lat": 47.4636081, "lon": 9.6579902}, {"lat": 47.4630742, "lon": 9.6574515}, {"lat": 47.4632572, "lon": 9.6570239}], "tags": {"name": "Umspannwerk H\u00f6chst", "operator": "Vorarlberger Energienetze GmbH", "power": "substation", "substation": "transmission", "voltage": "110000"}}, {"type": "way", "id": 95417984, "bounds": {"minlat": 47.7238413, "minlon": 9.4533964, "maxlat": 47.723936, "maxlon": 9.4535536}, "nodes": [1106414178, 1106414133, 1106414245, 1106414413, 1106414178], "geometry": [{"lat": 47.723936, "lon": 9.4534346}, {"lat": 47.7238751, "lon": 9.4533964}, {"lat": 47.7238413, "lon": 9.4535155}, {"lat": 47.7239022, "lon": 9.4535536}, {"lat": 47.723936, "lon": 9.4534346}], "tags": {"building": "service", "power": "substation", "substation": "minor_distribution"}}, {"type": "way", "id": 95951694, "bounds": {"minlat": 47.5581852, "minlon": 10.0289616, "maxlat": 47.5582576, "maxlon": 10.0290179}, "nodes": [1111786422, 1111786781, 1111787067, 1111786459, 1111786422], "geometry": [{"lat": 47.5582576, "lon": 10.0289653}, {"lat": 47.5582563, "lon": 10.0290179}, {"lat": 47.5581852, "lon": 10.0290142}, {"lat": 47.5581865, "lon": 10.0289616}, {"lat": 47.5582576, "lon": 10.0289653}], "tags": {"building": "yes", "power": "substation"}}, {"type": "way", "id": 96159272, "bounds": {"minlat": 47.5512328, "minlon": 10.0222533, "maxlat": 47.5512864, "maxlon": 10.0223567}, "nodes": [1114303777, 1114303907, 1114303027, 1114303316, 1114303777], "geometry": [{"lat": 47.5512864, "lon": 10.0223405}, {"lat": 47.5512511, "lon": 10.0223567}, {"lat": 47.5512328, "lon": 10.0222696}, {"lat": 47.5512681, "lon": 10.0222533}, {"lat": 47.5512864, "lon": 10.0223405}], "tags": {"building": "yes", "name": "M\u00fchlhalde", "power": "substation", "source": "BING"}}, {"type": "way", "id": 96368094, "bounds": {"minlat": 47.5650816, "minlon": 10.012925, "maxlat": 47.5651343, "maxlon": 10.0130012}, "nodes": [1116795702, 1116795700, 1116795722, 1116795730, 1116795702], "geometry": [{"lat": 47.5651343, "lon": 10.0129663}, {"lat": 47.5651141, "lon": 10.012925}, {"lat": 47.5650816, "lon": 10.0129598}, {"lat": 47.5651018, "lon": 10.0130012}, {"lat": 47.5651343, "lon": 10.0129663}], "tags": {"power": "substation"}}, {"type": "way", "id": 98495459, "bounds": {"minlat": 47.4154828, "minlon": 9.6235854, "maxlat": 47.4159388, "maxlon": 9.6243815}, "nodes": [1139471724, 1139471081, 1139473198, 1139470107, 1139471371, 8206846181, 8206846180, 1139471724], "geometry": [{"lat": 47.4159388, "lon": 9.624074}, {"lat": 47.4157762, "lon": 9.6235854}, {"lat": 47.4156135, "lon": 9.6236784}, {"lat": 47.4154828, "lon": 9.6240572}, {"lat": 47.4155937, "lon": 9.6243815}, {"lat": 47.4157306, "lon": 9.624278}, {"lat": 47.4157157, "lon": 9.6242381}, {"lat": 47.4159388, "lon": 9.624074}], "tags": {"barrier": "fence", "power": "substation"}}, {"type": "way", "id": 100478972, "bounds": {"minlat": 47.303666, "minlon": 9.6218193, "maxlat": 47.3043388, "maxlon": 9.6222378}, "nodes": [1161534962, 2153149050, 1161534958, 1161534997, 1161534985, 4334244122, 1161534971, 1161535044, 1161535068, 1161535096, 1161534962], "geometry": [{"lat": 47.303667, "lon": 9.6218522}, {"lat": 47.3037342, "lon": 9.6218494}, {"lat": 47.3042594, "lon": 9.6218193}, {"lat": 47.3043388, "lon": 9.6219206}, {"lat": 47.3043226, "lon": 9.621948}, {"lat": 47.3043055, "lon": 9.621976}, {"lat": 47.3043136, "lon": 9.6222048}, {"lat": 47.3037132, "lon": 9.6222378}, {"lat": 47.3036857, "lon": 9.6222131}, {"lat": 47.303666, "lon": 9.622175}, {"lat": 47.303667, "lon": 9.6218522}], "tags": {"addr:city": "Weiler", "addr:country": "AT", "addr:housenumber": "4", "addr:postcode": "6837", "addr:street": "Herzogried", "barrier": "fence", "name": "Umspannwerk Weiler - Klaus", "operator": "Vorarlberger Energienetze GmbH", "power": "substation", "substation": "transmission", "voltage": "110000"}}, {"type": "way", "id": 101976746, "bounds": {"minlat": 47.1445654, "minlon": 9.8283508, "maxlat": 47.1451752, "maxlon": 9.8296048}, "nodes": [1177262481, 2959306927, 3004280459, 3004280458, 3004280457, 1177262449, 1177262521, 1177262604, 1177262432, 1177262620, 1177262446, 1177262516, 1177262481], "geometry": [{"lat": 47.1445654, "lon": 9.8288937}, {"lat": 47.1445837, "lon": 9.8289404}, {"lat": 47.1446622, "lon": 9.8291306}, {"lat": 47.1446434, "lon": 9.8291475}, {"lat": 47.1446241, "lon": 9.829165}, {"lat": 47.1448217, "lon": 9.8296048}, {"lat": 47.1449375, "lon": 9.8294899}, {"lat": 47.1449581, "lon": 9.8292434}, {"lat": 47.1450111, "lon": 9.8289666}, {"lat": 47.1450751, "lon": 9.8287243}, {"lat": 47.1451752, "lon": 9.8284097}, {"lat": 47.1451486, "lon": 9.8283508}, {"lat": 47.1445654, "lon": 9.8288937}], "tags": {"frequency": "16.7", "landuse": "industrial", "location": "outdoor", "name": "Unterwerk Bludenz", "operator": "\u00d6BB-Infrastruktur AG", "operator:short": "\u00d6BB Infra", "operator:wikidata": "Q56425426", "operator:wikipedia": "de:\u00d6BB Infra", "power": "substation", "ref": "Bl", "substation": "traction", "voltage": "110000;15000"}}, {"type": "way", "id": 101997887, "bounds": {"minlat": 47.140898, "minlon": 9.8079063, "maxlat": 47.1451117, "maxlon": 9.8130795}, "nodes": [1177490513, 1177490446, 1177490471, 1177490486, 1177490522, 2951754586, 1177490436, 2951754614, 1177490465, 1177490479, 2951754648, 2951754650, 2951754651, 3806533267, 2951754656, 3806533271, 3806533278, 2951754657, 3806533282, 1177490516, 3790873227, 1177490509, 1177490530, 1177490397, 3806533352, 2951754709, 1177490409, 3804042421, 3804042432, 8740377669, 1177490440, 1177490395, 1177490406, 3804042516, 1177490400, 3804042402, 2951754708, 3804042397, 1177490432, 1177490526, 1177490369, 1177490450, 3804042362, 2951754634, 1177490476, 1177490468, 3804435602, 1177490427, 1177490453, 2951754560, 2951754562, 2951754565, 3804435614, 1177490484, 1177490519, 1177490513], "geometry": [{"lat": 47.1414133, "lon": 9.8115434}, {"lat": 47.1412784, "lon": 9.8116656}, {"lat": 47.1416053, "lon": 9.8124309}, {"lat": 47.1417181, "lon": 9.8123437}, {"lat": 47.1418958, "lon": 9.812351}, {"lat": 47.1420128, "lon": 9.8125242}, {"lat": 47.1421789, "lon": 9.8128872}, {"lat": 47.1422634, "lon": 9.8130795}, {"lat": 47.1424457, "lon": 9.8128936}, {"lat": 47.1424821, "lon": 9.8129697}, {"lat": 47.1425052, "lon": 9.8129482}, {"lat": 47.1426592, "lon": 9.8128019}, {"lat": 47.142723, "lon": 9.812744}, {"lat": 47.142793, "lon": 9.8126765}, {"lat": 47.1428087, "lon": 9.8126613}, {"lat": 47.1428251, "lon": 9.8126459}, {"lat": 47.1428908, "lon": 9.8125844}, {"lat": 47.1429124, "lon": 9.8125642}, {"lat": 47.1429493, "lon": 9.8125293}, {"lat": 47.1429586, "lon": 9.8125204}, {"lat": 47.1430895, "lon": 9.8128262}, {"lat": 47.1431809, "lon": 9.8128636}, {"lat": 47.1437163, "lon": 9.8123744}, {"lat": 47.1438968, "lon": 9.8123053}, {"lat": 47.1439564, "lon": 9.8123973}, {"lat": 47.1439754, "lon": 9.8124266}, {"lat": 47.1440072, "lon": 9.8124729}, {"lat": 47.1441843, "lon": 9.812326}, {"lat": 47.1443687, "lon": 9.8127592}, {"lat": 47.1443961, "lon": 9.812742}, {"lat": 47.1444183, "lon": 9.8127281}, {"lat": 47.1445281, "lon": 9.8126478}, {"lat": 47.1451117, "lon": 9.812122}, {"lat": 47.1450484, "lon": 9.8119703}, {"lat": 47.1445042, "lon": 9.8107112}, {"lat": 47.1442532, "lon": 9.8106221}, {"lat": 47.144185, "lon": 9.8104705}, {"lat": 47.1440345, "lon": 9.8101236}, {"lat": 47.1438669, "lon": 9.8097183}, {"lat": 47.1435512, "lon": 9.8089852}, {"lat": 47.1432727, "lon": 9.8089471}, {"lat": 47.142964, "lon": 9.8092259}, {"lat": 47.1424273, "lon": 9.8079623}, {"lat": 47.1424036, "lon": 9.8079063}, {"lat": 47.1422238, "lon": 9.8080634}, {"lat": 47.140982, "lon": 9.8091841}, {"lat": 47.1409813, "lon": 9.8092547}, {"lat": 47.1409807, "lon": 9.8093246}, {"lat": 47.1409775, "lon": 9.8094189}, {"lat": 47.1410397, "lon": 9.8095803}, {"lat": 47.1410752, "lon": 9.809664}, {"lat": 47.1411441, "lon": 9.8096008}, {"lat": 47.1411481, "lon": 9.8095965}, {"lat": 47.1413022, "lon": 9.8099549}, {"lat": 47.140898, "lon": 9.8103258}, {"lat": 47.1414133, "lon": 9.8115434}], "tags": {"landuse": "industrial", "name": "Umspannwerk B\u00fcrs", "operator": "Vorarlberger Illwerke AG", "power": "substation", "substation": "transmission", "voltage": "380000;220000"}}, {"type": "way", "id": 102614597, "bounds": {"minlat": 47.7532145, "minlon": 9.5898084, "maxlat": 47.7541977, "maxlon": 9.5912412}, "nodes": [1184979404, 1184978775, 1184979676, 1184979520, 1184979345, 1184979189, 1184979031, 1184979404], "geometry": [{"lat": 47.7537657, "lon": 9.5912412}, {"lat": 47.7533793, "lon": 9.5908481}, {"lat": 47.7532145, "lon": 9.5904931}, {"lat": 47.7534105, "lon": 9.5900704}, {"lat": 47.7535359, "lon": 9.5898799}, {"lat": 47.7537704, "lon": 9.5898084}, {"lat": 47.7541977, "lon": 9.5902775}, {"lat": 47.7537657, "lon": 9.5912412}], "tags": {"barrier": "fence", "operator": "Netze BW GmbH", "operator:wikidata": "Q16854888", "power": "substation", "substation": "transmission", "voltage": "110000"}}, {"type": "way", "id": 102625864, "bounds": {"minlat": 47.6840281, "minlon": 9.5607685, "maxlat": 47.6847885, "maxlon": 9.5633637}, "nodes": [1185128589, 3880797022, 1185128840, 5379210410, 1185129055, 3880796959, 1185128867, 13295721285, 247089996, 12669164564, 1185128952, 12669164536, 12669164540, 1185128674, 1185128589], "geometry": [{"lat": 47.6846698, "lon": 9.5633576}, {"lat": 47.6845096, "lon": 9.5633637}, {"lat": 47.6840281, "lon": 9.5633604}, {"lat": 47.6840286, "lon": 9.5630019}, {"lat": 47.6840403, "lon": 9.5607688}, {"lat": 47.6843603, "lon": 9.5607685}, {"lat": 47.6843604, "lon": 9.5608462}, {"lat": 47.6845822, "lon": 9.560856}, {"lat": 47.6846116, "lon": 9.5608765}, {"lat": 47.6846384, "lon": 9.5608952}, {"lat": 47.6847885, "lon": 9.5609869}, {"lat": 47.6847873, "lon": 9.5611484}, {"lat": 47.6847826, "lon": 9.562588}, {"lat": 47.6847854, "lon": 9.5630084}, {"lat": 47.6846698, "lon": 9.5633576}], "tags": {"barrier": "fence", "frequency": "50", "location": "outdoor", "name": "Umspannwerk Buch", "operator": "EnBW", "power": "substation", "substation": "transmission", "voltage": "110000"}}, {"type": "way", "id": 102625868, "bounds": {"minlat": 47.671716, "minlon": 9.5266495, "maxlat": 47.6726535, "maxlon": 9.5285818}, "nodes": [1185129003, 1185128888, 1185128617, 1185128701, 1185128990, 1185129045, 1185128850, 1185128659, 1185128759, 1185129020, 1185129068, 1185129003], "geometry": [{"lat": 47.671716, "lon": 9.5271051}, {"lat": 47.6718478, "lon": 9.5269101}, {"lat": 47.6723013, "lon": 9.5266495}, {"lat": 47.6726535, "lon": 9.5279379}, {"lat": 47.6724514, "lon": 9.5283821}, {"lat": 47.6723848, "lon": 9.5284299}, {"lat": 47.672026, "lon": 9.5285818}, {"lat": 47.6719427, "lon": 9.5285216}, {"lat": 47.6717912, "lon": 9.5279478}, {"lat": 47.6717971, "lon": 9.5277444}, {"lat": 47.671881, "lon": 9.5276962}, {"lat": 47.671716, "lon": 9.5271051}], "tags": {"name": "Umspannwerk Lochbr\u00fccke", "power": "substation", "voltage": "110000"}}, {"type": "way", "id": 102625878, "bounds": {"minlat": 47.6183438, "minlon": 9.56497, "maxlat": 47.619093, "maxlon": 9.5661176}, "nodes": [413569642, 1185129019, 368734102, 1185128893, 1185128705, 1492276983, 1185128992, 1492276981, 12778330996, 1185129048, 413569642], "geometry": [{"lat": 47.6183438, "lon": 9.5654632}, {"lat": 47.6186206, "lon": 9.56497}, {"lat": 47.6189476, "lon": 9.5653612}, {"lat": 47.6189652, "lon": 9.565528}, {"lat": 47.6190611, "lon": 9.5657509}, {"lat": 47.6190599, "lon": 9.5658151}, {"lat": 47.619093, "lon": 9.5658527}, {"lat": 47.6190708, "lon": 9.5659036}, {"lat": 47.6190342, "lon": 9.5659505}, {"lat": 47.6189611, "lon": 9.5661176}, {"lat": 47.6183438, "lon": 9.5654632}], "tags": {"barrier": "fence", "frequency": "50", "location": "outdoor", "name": "Umspannwerk Langenargen", "operator": "Netze BW", "operator:wikidata": "Q16854888", "power": "substation", "substation": "distribution", "voltage": "110000"}}, {"type": "way", "id": 102640011, "bounds": {"minlat": 47.7158772, "minlon": 9.3805875, "maxlat": 47.7167363, "maxlon": 9.3818544}, "nodes": [1185386803, 10765374502, 1185386742, 1185386768, 1375242432, 1185386803], "geometry": [{"lat": 47.7164313, "lon": 9.3818544}, {"lat": 47.7158772, "lon": 9.3814384}, {"lat": 47.7161838, "lon": 9.3805875}, {"lat": 47.7167363, "lon": 9.3810253}, {"lat": 47.7164734, "lon": 9.381741}, {"lat": 47.7164313, "lon": 9.3818544}], "tags": {"barrier": "fence", "frequency": "50", "location": "outdoor", "name": "UW EnBW Markdorf", "operator": "EnBW", "power": "substation", "substation": "distribution", "voltage": "110000"}}, {"type": "way", "id": 102640012, "bounds": {"minlat": 47.6970895, "minlon": 9.2873197, "maxlat": 47.6977142, "maxlon": 9.2881174}, "nodes": [1185386838, 1185387053, 7977371172, 1185386755, 1185386800, 1185386838], "geometry": [{"lat": 47.6977142, "lon": 9.2874028}, {"lat": 47.697655, "lon": 9.2881174}, {"lat": 47.697595, "lon": 9.2881118}, {"lat": 47.6970895, "lon": 9.2880618}, {"lat": 47.6971054, "lon": 9.2873197}, {"lat": 47.6977142, "lon": 9.2874028}], "tags": {"barrier": "fence", "fence_type": "wire", "frequency": "50", "location": "outdoor", "name": "Umspannwerk Meersburg", "power": "substation", "substation": "distribution", "voltage": "110000"}}, {"type": "way", "id": 102699327, "bounds": {"minlat": 47.1511987, "minlon": 9.8158235, "maxlat": 47.1520137, "maxlon": 9.8167109}, "nodes": [1186148918, 3669250794, 2290381303, 3669250795, 2290381302, 2290381301, 3813321664, 1186148913, 2290381299, 2290381296, 1343794685, 2290381294, 3669250790, 2290381295, 1343794686, 2290381300, 2163022842, 3813321675, 3813321676, 1343794688, 3669250791, 3669250792, 3669250793, 1186148918], "geometry": [{"lat": 47.1519997, "lon": 9.8160801}, {"lat": 47.1520092, "lon": 9.8161103}, {"lat": 47.1520137, "lon": 9.816138}, {"lat": 47.1520109, "lon": 9.8161674}, {"lat": 47.1519989, "lon": 9.8161951}, {"lat": 47.1515234, "lon": 9.8166987}, {"lat": 47.1514931, "lon": 9.8166899}, {"lat": 47.1514522, "lon": 9.8166779}, {"lat": 47.1514163, "lon": 9.8167109}, {"lat": 47.1513199, "lon": 9.8164837}, {"lat": 47.1513573, "lon": 9.8164493}, {"lat": 47.1511987, "lon": 9.8160757}, {"lat": 47.1512329, "lon": 9.8160444}, {"lat": 47.1512305, "lon": 9.8160387}, {"lat": 47.1513651, "lon": 9.8159151}, {"lat": 47.1514761, "lon": 9.8161765}, {"lat": 47.1514868, "lon": 9.8162017}, {"lat": 47.1517097, "lon": 9.8159967}, {"lat": 47.1517235, "lon": 9.8159845}, {"lat": 47.1519001, "lon": 9.8158235}, {"lat": 47.1519189, "lon": 9.8158981}, {"lat": 47.1519298, "lon": 9.8159318}, {"lat": 47.1519428, "lon": 9.8159619}, {"lat": 47.1519997, "lon": 9.8160801}], "tags": {"name": "Umspannwerk B\u00fcrs", "operator": "Vorarlberger Energienetze GmbH", "power": "substation", "substation": "transmission", "voltage": "110000"}}, {"type": "way", "id": 107839266, "bounds": {"minlat": 47.6568364, "minlon": 9.5708814, "maxlat": 47.656867, "maxlon": 9.5709297}, "nodes": [1238611181, 1238611237, 1238611259, 1238611200, 1238611181], "geometry": [{"lat": 47.6568664, "lon": 9.5708814}, {"lat": 47.656867, "lon": 9.5709289}, {"lat": 47.656837, "lon": 9.5709297}, {"lat": 47.6568364, "lon": 9.5708823}, {"lat": 47.6568664, "lon": 9.5708814}], "tags": {"addr:city": "Tettnang", "addr:country": "DE", "addr:housenumber": "2", "addr:postcode": "88069", "addr:street": "Kathreinfelder Stra\u00dfe", "building": "yes", "name": "Kathreinfelder Stra\u00dfe", "operator": "regionalwerk Bodensee", "operator:wikidata": "Q1463526", "power": "substation", "ref": "1073"}}, {"type": "way", "id": 109304297, "bounds": {"minlat": 47.6668193, "minlon": 9.1818761, "maxlat": 47.666871, "maxlon": 9.1819373}, "nodes": [1251690565, 1251690612, 1251690543, 1251690574, 1251690565], "geometry": [{"lat": 47.6668613, "lon": 9.1818761}, {"lat": 47.666871, "lon": 9.1819129}, {"lat": 47.666829, "lon": 9.1819373}, {"lat": 47.6668193, "lon": 9.1819005}, {"lat": 47.6668613, "lon": 9.1818761}], "tags": {"addr:city": "Konstanz", "addr:country": "DE", "addr:housenumber": "2a", "addr:postcode": "78464", "addr:street": "Gl\u00e4rnischstra\u00dfe", "building": "yes", "name": "Stadtwerke Konstanz", "operator": "Stadtwerke Konstanz", "operator:wikidata": "Q1266985", "power": "substation"}}, {"type": "way", "id": 109448017, "bounds": {"minlat": 47.7005997, "minlon": 9.2681215, "maxlat": 47.700659, "maxlon": 9.2682088}, "nodes": [1253019088, 1253019147, 1253019221, 1253019135, 1253019088], "geometry": [{"lat": 47.7006338, "lon": 9.2682088}, {"lat": 47.7005997, "lon": 9.2681691}, {"lat": 47.7006249, "lon": 9.2681215}, {"lat": 47.700659, "lon": 9.2681612}, {"lat": 47.7006338, "lon": 9.2682088}], "tags": {"addr:city": "Meersburg", "addr:country": "DE", "addr:housenumber": "13", "addr:postcode": "88709", "addr:street": "Dr.-Zimmermann-Stra\u00dfe", "power": "substation"}}, {"type": "way", "id": 109860373, "bounds": {"minlat": 47.688968, "minlon": 9.9588111, "maxlat": 47.6890218, "maxlon": 9.9588907}, "nodes": [1256616972, 1256616947, 1256616961, 1256616964, 1256616972], "geometry": [{"lat": 47.6890218, "lon": 9.9588669}, {"lat": 47.689006, "lon": 9.9588111}, {"lat": 47.688968, "lon": 9.9588349}, {"lat": 47.6889838, "lon": 9.9588907}, {"lat": 47.6890218, "lon": 9.9588669}], "tags": {"power": "substation"}}, {"type": "way", "id": 110538397, "bounds": {"minlat": 47.6780354, "minlon": 9.8234217, "maxlat": 47.6781514, "maxlon": 9.8236264}, "nodes": [1262136831, 8257596773, 1262136784, 1262136852, 1262136831], "geometry": [{"lat": 47.6781514, "lon": 9.8235793}, {"lat": 47.678091, "lon": 9.8236264}, {"lat": 47.6780354, "lon": 9.8234686}, {"lat": 47.6780958, "lon": 9.8234217}, {"lat": 47.6781514, "lon": 9.8235793}], "tags": {"building": "service", "name": "NTW \u00dcbergabe", "operator": "Netze BW", "operator:wikidata": "Q16854888", "power": "substation", "source": "survey 12.2023", "substation": "minor_distribution"}}, {"type": "way", "id": 110559974, "bounds": {"minlat": 47.6692356, "minlon": 9.1927365, "maxlat": 47.6693252, "maxlon": 9.1928533}, "nodes": [1262322770, 1262322757, 1262322750, 1262322761, 1262322770], "geometry": [{"lat": 47.6693252, "lon": 9.1927724}, {"lat": 47.6693065, "lon": 9.1928533}, {"lat": 47.6692356, "lon": 9.1928176}, {"lat": 47.6692541, "lon": 9.1927365}, {"lat": 47.6693252, "lon": 9.1927724}], "tags": {"addr:city": "Konstanz", "addr:country": "DE", "addr:housenumber": "10b", "addr:postcode": "78464", "addr:street": "Hebelstra\u00dfe", "addr:suburb": "Petershausen-Ost", "building": "yes", "power": "substation"}}, {"type": "way", "id": 110878623, "bounds": {"minlat": 47.6673177, "minlon": 9.1861032, "maxlat": 47.667374, "maxlon": 9.1861466}, "nodes": [1264710087, 1264710191, 1264710172, 1264710108, 1264710087], "geometry": [{"lat": 47.6673729, "lon": 9.1861032}, {"lat": 47.667374, "lon": 9.1861433}, {"lat": 47.6673188, "lon": 9.1861466}, {"lat": 47.6673177, "lon": 9.1861066}, {"lat": 47.6673729, "lon": 9.1861032}], "tags": {"addr:city": "Konstanz", "addr:country": "DE", "addr:housenumber": "2", "addr:postcode": "78464", "addr:street": "Luziengang", "addr:suburb": "Petershausen-Ost", "building": "yes", "name": "Stadtwerke Konstanz", "operator": "Stadtwerke Konstanz", "operator:wikidata": "Q1266985", "power": "substation"}}, {"type": "way", "id": 111541740, "bounds": {"minlat": 47.6824527, "minlon": 9.1523107, "maxlat": 47.6825337, "maxlon": 9.1524255}, "nodes": [1520868335, 1270523716, 1270523840, 1270524008, 1520868335], "geometry": [{"lat": 47.6825085, "lon": 9.1524255}, {"lat": 47.6824527, "lon": 9.1523825}, {"lat": 47.6824779, "lon": 9.1523107}, {"lat": 47.6825337, "lon": 9.1523537}, {"lat": 47.6825085, "lon": 9.1524255}], "tags": {"addr:city": "Konstanz", "addr:country": "DE", "addr:housenumber": "14a", "addr:postcode": "78467", "addr:street": "Reutestra\u00dfe", "building": "yes", "operator": "Stadtwerke Konstanz", "operator:wikidata": "Q1266985", "power": "substation", "substation": "minor_distribution"}}, {"type": "way", "id": 111541755, "bounds": {"minlat": 47.6845978, "minlon": 9.1484981, "maxlat": 47.6846634, "maxlon": 9.1485864}, "nodes": [1270524178, 1270524057, 1270523915, 1270523754, 1526191507, 1293518934, 1270524178], "geometry": [{"lat": 47.6846634, "lon": 9.14853}, {"lat": 47.6846498, "lon": 9.1485864}, {"lat": 47.6845978, "lon": 9.1485589}, {"lat": 47.6846124, "lon": 9.1484981}, {"lat": 47.6846314, "lon": 9.1485082}, {"lat": 47.6846304, "lon": 9.1485123}, {"lat": 47.6846634, "lon": 9.14853}], "tags": {"addr:city": "Konstanz", "addr:country": "DE", "addr:housenumber": "1a", "addr:postcode": "78467", "addr:street": "Karlsruher Stra\u00dfe", "addr:suburb": "F\u00fcrstenberg", "building": "service", "description": "Stromverteiler Konstanz", "power": "substation"}}, {"type": "way", "id": 111644610, "bounds": {"minlat": 47.6822058, "minlon": 9.1554518, "maxlat": 47.6822808, "maxlon": 9.1555614}, "nodes": [1271434327, 1271434244, 1271434485, 1271434403, 1271434327], "geometry": [{"lat": 47.6822808, "lon": 9.1555104}, {"lat": 47.6822503, "lon": 9.1555614}, {"lat": 47.6822058, "lon": 9.1555029}, {"lat": 47.6822363, "lon": 9.1554518}, {"lat": 47.6822808, "lon": 9.1555104}], "tags": {"addr:city": "Konstanz", "addr:country": "DE", "addr:housenumber": "52", "addr:postcode": "78467", "addr:street": "Berchenstra\u00dfe", "building": "service", "operator": "Stadtwerke Konstanz", "operator:wikidata": "Q1266985", "power": "substation"}}, {"type": "way", "id": 111739846, "bounds": {"minlat": 47.6879138, "minlon": 9.1514453, "maxlat": 47.687968, "maxlon": 9.1516112}, "nodes": [1272314900, 1272314651, 1272314715, 1272314856, 1272314900], "geometry": [{"lat": 47.6879555, "lon": 9.1516112}, {"lat": 47.6879138, "lon": 9.1515909}, {"lat": 47.6879325, "lon": 9.1514453}, {"lat": 47.687968, "lon": 9.1514609}, {"lat": 47.6879555, "lon": 9.1516112}], "tags": {"addr:city": "Konstanz", "addr:country": "DE", "addr:housenumber": "8", "addr:postcode": "78467", "addr:street": "L\u00e4ngerbohlstra\u00dfe", "addr:suburb": "F\u00fcrstenberg", "building": "service", "description": "Stromverteiler Konstanz", "operator": "Stadtwerke Konstanz", "operator:wikidata": "Q1266985", "power": "substation"}}, {"type": "way", "id": 112016385, "bounds": {"minlat": 47.6762919, "minlon": 9.1550957, "maxlat": 47.6763529, "maxlon": 9.1551628}, "nodes": [1274493973, 1274493958, 1274493990, 1274494002, 1274493973], "geometry": [{"lat": 47.6763529, "lon": 9.1551317}, {"lat": 47.6763429, "lon": 9.1551628}, {"lat": 47.6762919, "lon": 9.1551268}, {"lat": 47.6763019, "lon": 9.1550957}, {"lat": 47.6763529, "lon": 9.1551317}], "tags": {"building": "yes", "building:levels": "1", "operator": "Stadtwerke Konstanz", "operator:wikidata": "Q1266985", "power": "substation", "roof:material": "metal", "roof:shape": "flat"}}, {"type": "way", "id": 112481848, "bounds": {"minlat": 47.6852632, "minlon": 9.1444652, "maxlat": 47.6852979, "maxlon": 9.1445214}, "nodes": [1278384979, 1278384988, 1278384995, 1278385088, 1278384979], "geometry": [{"lat": 47.6852979, "lon": 9.1444797}, {"lat": 47.6852856, "lon": 9.1445214}, {"lat": 47.6852632, "lon": 9.1445069}, {"lat": 47.6852755, "lon": 9.1444652}, {"lat": 47.6852979, "lon": 9.1444797}], "tags": {"addr:city": "Konstanz", "addr:country": "DE", "addr:housenumber": "4", "addr:postcode": "78467", "addr:street": "Mannheimer Stra\u00dfe", "addr:suburb": "Wollmatingen", "building": "yes", "power": "substation"}}, {"type": "way", "id": 114183609, "bounds": {"minlat": 47.6852462, "minlon": 9.156954, "maxlat": 47.6852975, "maxlon": 9.1570174}, "nodes": [1293741589, 1293741283, 1293741548, 1293741490, 1293741589], "geometry": [{"lat": 47.6852975, "lon": 9.156977}, {"lat": 47.6852873, "lon": 9.1570174}, {"lat": 47.6852462, "lon": 9.1569944}, {"lat": 47.6852564, "lon": 9.156954}, {"lat": 47.6852975, "lon": 9.156977}], "tags": {"addr:city": "Konstanz", "addr:country": "DE", "addr:housenumber": "8a", "addr:postcode": "78467", "addr:street": "Siebenb\u00fcrgener Weg", "addr:suburb": "F\u00fcrstenberg", "building": "yes", "power": "substation"}}, {"type": "way", "id": 114715432, "bounds": {"minlat": 47.2516014, "minlon": 9.5840164, "maxlat": 47.2525907, "maxlon": 9.5850529}, "nodes": [1298727150, 1298727149, 1298727152, 1298727151, 1298727150], "geometry": [{"lat": 47.252444, "lon": 9.5840164}, {"lat": 47.2525907, "lon": 9.5845938}, {"lat": 47.251745, "lon": 9.5850529}, {"lat": 47.2516014, "lon": 9.5844798}, {"lat": 47.252444, "lon": 9.5840164}], "tags": {"name": "Umspannwerk Gisingen", "operator": "Vorarlberger Energienetze GmbH", "power": "substation", "substation": "transmission", "voltage": "110000"}}, {"type": "way", "id": 114717356, "bounds": {"minlat": 47.6843366, "minlon": 9.1621584, "maxlat": 47.6843968, "maxlon": 9.1622244}, "nodes": [1298747606, 1298747746, 1298747424, 7355013405, 1298747536, 1298747606], "geometry": [{"lat": 47.6843968, "lon": 9.1622195}, {"lat": 47.6843389, "lon": 9.1622244}, {"lat": 47.6843366, "lon": 9.1621635}, {"lat": 47.6843425, "lon": 9.1621632}, {"lat": 47.684394, "lon": 9.1621584}, {"lat": 47.6843968, "lon": 9.1622195}], "tags": {"addr:city": "Konstanz", "addr:country": "DE", "addr:housenumber": "12", "addr:postcode": "78467", "addr:street": "Mondrauteweg", "addr:suburb": "F\u00fcrstenberg", "building": "yes", "operator": "Stadtwerke Konstanz", "operator:wikidata": "Q1266985", "power": "substation", "substation": "minor_distribution"}}, {"type": "way", "id": 114717365, "bounds": {"minlat": 47.6868254, "minlon": 9.1609792, "maxlat": 47.6868889, "maxlon": 9.1610843}, "nodes": [1298747623, 1298747906, 1298747435, 1298748021, 1298747623], "geometry": [{"lat": 47.6868521, "lon": 9.1609792}, {"lat": 47.6868889, "lon": 9.1610074}, {"lat": 47.6868623, "lon": 9.1610843}, {"lat": 47.6868254, "lon": 9.1610562}, {"lat": 47.6868521, "lon": 9.1609792}], "tags": {"addr:city": "Konstanz", "addr:country": "DE", "addr:housenumber": "29", "addr:postcode": "78467", "addr:street": "Buhlenweg", "addr:suburb": "F\u00fcrstenberg", "building": "yes", "operator": "Stadtwerke Konstanz", "operator:wikidata": "Q1266985", "power": "substation", "substation": "minor_distribution"}}, {"type": "way", "id": 114873634, "bounds": {"minlat": 47.4866223, "minlon": 9.7362767, "maxlat": 47.4874177, "maxlon": 9.7380032}, "nodes": [1300109785, 10580118034, 10580118065, 10580118064, 10580118067, 3471323220, 10580118068, 3471323200, 3471323197, 3471323195, 3471323190, 3471323189, 1300109770, 10597078462, 3471323151, 1300109789, 10574806912, 3471323125, 3471323129, 1300109798, 10574806911, 3471323157, 10580118033, 3471323161, 3471323160, 1300109813, 1300109785], "geometry": [{"lat": 47.4874177, "lon": 9.7365341}, {"lat": 47.4874157, "lon": 9.7365785}, {"lat": 47.4874138, "lon": 9.7366194}, {"lat": 47.4874055, "lon": 9.7368031}, {"lat": 47.4874046, "lon": 9.736824}, {"lat": 47.4873687, "lon": 9.7376146}, {"lat": 47.4872897, "lon": 9.7376078}, {"lat": 47.4872671, "lon": 9.7376059}, {"lat": 47.4872404, "lon": 9.7376036}, {"lat": 47.487232, "lon": 9.737802}, {"lat": 47.4872263, "lon": 9.7379264}, {"lat": 47.4872243, "lon": 9.7379767}, {"lat": 47.4872128, "lon": 9.7380032}, {"lat": 47.4869471, "lon": 9.7379773}, {"lat": 47.486912, "lon": 9.7379739}, {"lat": 47.4866223, "lon": 9.7379458}, {"lat": 47.4866242, "lon": 9.7379029}, {"lat": 47.4866595, "lon": 9.7371217}, {"lat": 47.486729, "lon": 9.7371302}, {"lat": 47.4867735, "lon": 9.7362767}, {"lat": 47.4869685, "lon": 9.7362986}, {"lat": 47.4869877, "lon": 9.7363008}, {"lat": 47.4870078, "lon": 9.7363031}, {"lat": 47.4870481, "lon": 9.7363076}, {"lat": 47.4870459, "lon": 9.7363531}, {"lat": 47.4872722, "lon": 9.7363765}, {"lat": 47.4874177, "lon": 9.7365341}], "tags": {"name": "Umspannwerk Rieden", "operator": "Vorarlberger Energienetze GmbH", "operator:wikidata": "Q113355023", "power": "substation", "substation": "transmission", "voltage": "110000"}}, {"type": "way", "id": 115210929, "bounds": {"minlat": 47.6810115, "minlon": 9.2083255, "maxlat": 47.6810445, "maxlon": 9.2084149}, "nodes": [1302645319, 1302645415, 1302645237, 1302645252, 1302645432, 1302645371, 1302645319], "geometry": [{"lat": 47.6810445, "lon": 9.2083263}, {"lat": 47.6810444, "lon": 9.2083318}, {"lat": 47.6810436, "lon": 9.2084087}, {"lat": 47.6810435, "lon": 9.2084149}, {"lat": 47.6810115, "lon": 9.2084142}, {"lat": 47.6810125, "lon": 9.2083255}, {"lat": 47.6810445, "lon": 9.2083263}], "tags": {"addr:city": "Konstanz", "addr:country": "DE", "addr:housenumber": "25a", "addr:postcode": "78464", "addr:street": "Felchengang", "building": "yes", "power": "substation"}}, {"type": "way", "id": 116018035, "bounds": {"minlat": 47.4010517, "minlon": 9.8769193, "maxlat": 47.4016801, "maxlon": 9.8780614}, "nodes": [1309319890, 1309319886, 1421902845, 1309319873, 1309319885, 1421902758, 1421902820, 1421902832, 1309319890], "geometry": [{"lat": 47.4014347, "lon": 9.877111}, {"lat": 47.4016801, "lon": 9.8778956}, {"lat": 47.4014373, "lon": 9.8780614}, {"lat": 47.4013413, "lon": 9.8780064}, {"lat": 47.4010517, "lon": 9.8770805}, {"lat": 47.4010833, "lon": 9.8770591}, {"lat": 47.4012872, "lon": 9.8769193}, {"lat": 47.4013631, "lon": 9.8771609}, {"lat": 47.4014347, "lon": 9.877111}], "tags": {"name": "Umspannwerk Andelsbuch", "operator": "Vorarlberger Energienetze GmbH", "power": "substation", "source": "geoimage.at", "substation": "transmission", "voltage": "110000", "wikidata": "Q21881556"}}, {"type": "way", "id": 116021711, "bounds": {"minlat": 47.5521779, "minlon": 9.720047, "maxlat": 47.5529988, "maxlon": 9.7208597}, "nodes": [1309364601, 10748297340, 10748297341, 10748297342, 10748297343, 10748297344, 1309364570, 1309364584, 9762410222, 1309364593, 1309364581, 989480178, 989478508, 9762410218, 9762410219, 1309364601], "geometry": [{"lat": 47.5529988, "lon": 9.7208384}, {"lat": 47.5528792, "lon": 9.7208173}, {"lat": 47.5527393, "lon": 9.7208003}, {"lat": 47.5526118, "lon": 9.7208097}, {"lat": 47.5524582, "lon": 9.7208232}, {"lat": 47.5523182, "lon": 9.7208384}, {"lat": 47.5521795, "lon": 9.7208597}, {"lat": 47.5521779, "lon": 9.7206029}, {"lat": 47.5524855, "lon": 9.7205954}, {"lat": 47.5524835, "lon": 9.7203592}, {"lat": 47.5523229, "lon": 9.7203621}, {"lat": 47.5523207, "lon": 9.7200476}, {"lat": 47.5525909, "lon": 9.720047}, {"lat": 47.552591, "lon": 9.7201974}, {"lat": 47.5529939, "lon": 9.7201898}, {"lat": 47.5529988, "lon": 9.7208384}], "tags": {"name": "Umspannwerk Lindau", "operator": "Stadtwerke Lindau", "power": "substation", "substation": "transmission", "voltage": "110000"}}, {"type": "way", "id": 116024069, "bounds": {"minlat": 47.5728099, "minlon": 10.023769, "maxlat": 47.5736504, "maxlon": 10.0252547}, "nodes": [1309386980, 1286967410, 7426726971, 1309387051, 1309387021, 1309387078, 1309387056, 1309387042, 1309386980], "geometry": [{"lat": 47.5736504, "lon": 10.0242087}, {"lat": 47.5736343, "lon": 10.0241967}, {"lat": 47.573621, "lon": 10.0241872}, {"lat": 47.5730505, "lon": 10.023769}, {"lat": 47.5728802, "lon": 10.0242795}, {"lat": 47.5729886, "lon": 10.0243589}, {"lat": 47.5728099, "lon": 10.0248944}, {"lat": 47.5733015, "lon": 10.0252547}, {"lat": 47.5736504, "lon": 10.0242087}], "tags": {"barrier": "fence", "fence_type": "chain_link", "landuse": "industrial", "name": "Umspannwerk Zell", "power": "substation", "substation": "transmission", "voltage": "110000"}}, {"type": "way", "id": 116135243, "bounds": {"minlat": 47.6789597, "minlon": 9.1713696, "maxlat": 47.6791751, "maxlon": 9.1718435}, "nodes": [1310387913, 1310387241, 7348061356, 7348061357, 1310387680, 7348061358, 7348061359, 7348061361, 7348061360, 1310387456, 1515540043, 1515540017, 1515540039, 1515540052, 1310387913], "geometry": [{"lat": 47.6790774, "lon": 9.1713696}, {"lat": 47.6791362, "lon": 9.1714082}, {"lat": 47.6791251, "lon": 9.1714455}, {"lat": 47.6791521, "lon": 9.1714633}, {"lat": 47.6790802, "lon": 9.1717047}, {"lat": 47.6791751, "lon": 9.171767}, {"lat": 47.6791523, "lon": 9.1718435}, {"lat": 47.6789625, "lon": 9.1717188}, {"lat": 47.678985, "lon": 9.1716433}, {"lat": 47.6789953, "lon": 9.1716501}, {"lat": 47.6790221, "lon": 9.1715601}, {"lat": 47.6789597, "lon": 9.1715192}, {"lat": 47.6789948, "lon": 9.1714014}, {"lat": 47.679056, "lon": 9.1714416}, {"lat": 47.6790774, "lon": 9.1713696}], "tags": {"addr:city": "Konstanz", "addr:country": "DE", "addr:housenumber": "68", "addr:postcode": "78467", "addr:street": "Wollmatinger Stra\u00dfe", "building": "industrial", "frequency": "50", "name": "Umspannwerk Konstanz-Ergatshausen", "operator": "SW-Konstanz", "power": "substation", "substation": "distribution", "voltage": "110000"}}, {"type": "way", "id": 116612979, "bounds": {"minlat": 47.715663, "minlon": 9.1747651, "maxlat": 47.7157192, "maxlon": 9.1748513}, "nodes": [1314211866, 1314211859, 1314211861, 1314211871, 1314211866], "geometry": [{"lat": 47.715663, "lon": 9.1747806}, {"lat": 47.7157083, "lon": 9.1747651}, {"lat": 47.7157192, "lon": 9.1748358}, {"lat": 47.715674, "lon": 9.1748513}, {"lat": 47.715663, "lon": 9.1747806}], "tags": {"addr:city": "Konstanz", "addr:country": "DE", "addr:housenumber": "54", "addr:postcode": "78465", "addr:street": "Blumenstra\u00dfe", "addr:suburb": "Litzelstetten", "building": "yes", "power": "substation", "substation": "minor_distribution"}}, {"type": "way", "id": 116613174, "bounds": {"minlat": 47.7167488, "minlon": 9.1694112, "maxlat": 47.7167823, "maxlon": 9.1694484}, "nodes": [1314214429, 6269670230, 1314214459, 1314214483, 1314214431, 1314214429], "geometry": [{"lat": 47.7167823, "lon": 9.1694393}, {"lat": 47.7167672, "lon": 9.1694439}, {"lat": 47.7167527, "lon": 9.1694484}, {"lat": 47.7167488, "lon": 9.1694203}, {"lat": 47.7167783, "lon": 9.1694112}, {"lat": 47.7167823, "lon": 9.1694393}], "tags": {"addr:city": "Konstanz", "addr:country": "DE", "addr:housenumber": "7a", "addr:postcode": "78465", "addr:street": "Marienweg", "addr:suburb": "Litzelstetten", "building": "yes", "power": "substation", "ref": "LI 9", "substation": "yes"}}, {"type": "way", "id": 116637289, "bounds": {"minlat": 47.3157345, "minlon": 9.5762403, "maxlat": 47.3164638, "maxlon": 9.5771687}, "nodes": [1314430793, 1314430435, 1314430250, 1314430746, 1314430793], "geometry": [{"lat": 47.3164638, "lon": 9.5766861}, {"lat": 47.3162715, "lon": 9.5771687}, {"lat": 47.3157345, "lon": 9.576734}, {"lat": 47.3159243, "lon": 9.5762403}, {"lat": 47.3164638, "lon": 9.5766861}], "tags": {"barrier": "fence", "fixme": "name,operator", "power": "substation", "substation": "transmission"}}, {"type": "way", "id": 117091067, "bounds": {"minlat": 47.6781035, "minlon": 9.1684557, "maxlat": 47.6781734, "maxlon": 9.1685489}, "nodes": [1319029844, 1319029729, 1319029592, 1319029522, 1319029844], "geometry": [{"lat": 47.6781212, "lon": 9.1684557}, {"lat": 47.6781734, "lon": 9.1684905}, {"lat": 47.6781557, "lon": 9.1685489}, {"lat": 47.6781035, "lon": 9.168514}, {"lat": 47.6781212, "lon": 9.1684557}], "tags": {"addr:city": "Konstanz", "addr:country": "DE", "addr:housenumber": "16", "addr:postcode": "78467", "addr:street": "Moosstra\u00dfe", "addr:suburb": "F\u00fcrstenberg", "building": "yes", "power": "substation"}}, {"type": "way", "id": 117515349, "bounds": {"minlat": 47.7386634, "minlon": 9.1538376, "maxlat": 47.7387044, "maxlon": 9.1539009}, "nodes": [1323769825, 1323769833, 1323769820, 1323769822, 1323769825], "geometry": [{"lat": 47.7386857, "lon": 9.1538376}, {"lat": 47.7386634, "lon": 9.1538604}, {"lat": 47.7386821, "lon": 9.1539009}, {"lat": 47.7387044, "lon": 9.1538781}, {"lat": 47.7386857, "lon": 9.1538376}], "tags": {"addr:city": "Konstanz", "addr:country": "DE", "addr:housenumber": "1e", "addr:postcode": "78465", "addr:street": "Steinrennen", "addr:suburb": "Dingelsdorf", "building": "yes", "power": "substation"}}, {"type": "way", "id": 117688988, "bounds": {"minlat": 47.6674598, "minlon": 9.2104663, "maxlat": 47.667502, "maxlon": 9.2105342}, "nodes": [1325353058, 1325353028, 1325353046, 1325353018, 1325353058], "geometry": [{"lat": 47.6674877, "lon": 9.2104663}, {"lat": 47.6674598, "lon": 9.2104837}, {"lat": 47.6674742, "lon": 9.2105342}, {"lat": 47.667502, "lon": 9.2105167}, {"lat": 47.6674877, "lon": 9.2104663}], "tags": {"addr:city": "Konstanz", "addr:country": "DE", "addr:housenumber": "99", "addr:postcode": "78464", "addr:street": "Eichhornstra\u00dfe", "addr:suburb": "Staad", "building": "yes", "power": "substation", "ref": "P 50"}}, {"type": "way", "id": 117764150, "bounds": {"minlat": 47.7322085, "minlon": 9.1159004, "maxlat": 47.7322834, "maxlon": 9.1160114}, "nodes": [1326040640, 1326040628, 1326040654, 1326040643, 1326040640], "geometry": [{"lat": 47.7322609, "lon": 9.1159004}, {"lat": 47.7322834, "lon": 9.1159342}, {"lat": 47.732231, "lon": 9.1160114}, {"lat": 47.7322085, "lon": 9.1159777}, {"lat": 47.7322609, "lon": 9.1159004}], "tags": {"addr:city": "Konstanz", "addr:country": "DE", "addr:housenumber": "6a", "addr:postcode": "78465", "addr:street": "Weiherstra\u00dfe", "addr:suburb": "Dettingen", "building": "yes", "power": "substation", "substation": "minor_distribution"}}, {"type": "way", "id": 118007354, "bounds": {"minlat": 47.7352003, "minlon": 9.1191376, "maxlat": 47.7352296, "maxlon": 9.1191797}, "nodes": [1328222026, 1328222121, 1328222346, 1328222429, 1328222026], "geometry": [{"lat": 47.7352113, "lon": 9.1191376}, {"lat": 47.7352003, "lon": 9.1191584}, {"lat": 47.7352185, "lon": 9.1191797}, {"lat": 47.7352296, "lon": 9.1191588}, {"lat": 47.7352113, "lon": 9.1191376}], "tags": {"addr:city": "Konstanz", "addr:country": "DE", "addr:housenumber": "1a", "addr:postcode": "78465", "addr:street": "Sankt-Verena-Weg", "addr:suburb": "Dettingen", "building": "house", "name": "Transformatoren-H\u00e4uschen", "operator": "Stadtwerke", "power": "substation"}}, {"type": "way", "id": 118994600, "bounds": {"minlat": 47.502704, "minlon": 9.7439225, "maxlat": 47.502772, "maxlon": 9.7440303}, "nodes": [1337666163, 1337665821, 1337666032, 1337666219, 1337666163], "geometry": [{"lat": 47.502772, "lon": 9.7439563}, {"lat": 47.502734, "lon": 9.7439225}, {"lat": 47.502704, "lon": 9.7439965}, {"lat": 47.5027421, "lon": 9.7440303}, {"lat": 47.502772, "lon": 9.7439563}], "tags": {"addr:city": "Bregenz", "addr:country": "AT", "addr:housenumber": "1", "addr:postcode": "6900", "addr:street": "Weiherstra\u00dfe", "building": "service", "name": "Bregenz Trafostation 3 Weiherstra\u00dfe", "power": "substation", "source": "survey 11.2024 and Vogis 2022", "substation": "minor_distribution"}}, {"type": "way", "id": 119057969, "bounds": {"minlat": 47.1730321, "minlon": 9.4838335, "maxlat": 47.1738761, "maxlon": 9.4847495}, "nodes": [1338510073, 1338510078, 1338510105, 1338510100, 1338510099, 1338510095, 1338510073], "geometry": [{"lat": 47.1730321, "lon": 9.4840255}, {"lat": 47.1731456, "lon": 9.4847495}, {"lat": 47.1738761, "lon": 9.4846535}, {"lat": 47.1737711, "lon": 9.4840505}, {"lat": 47.1735967, "lon": 9.4841131}, {"lat": 47.1735541, "lon": 9.4838335}, {"lat": 47.1730321, "lon": 9.4840255}], "tags": {"barrier": "fence", "name": "Unterwerk Buchs", "power": "substation", "substation": "transmission"}}, {"type": "way", "id": 119181625, "bounds": {"minlat": 47.0391512, "minlon": 9.4530434, "maxlat": 47.0402735, "maxlon": 9.4548512}, "nodes": [1339854821, 1339854930, 1339854389, 1339854667, 1339854896, 1339854821], "geometry": [{"lat": 47.0399372, "lon": 9.4530434}, {"lat": 47.0401035, "lon": 9.4532687}, {"lat": 47.0402735, "lon": 9.4536334}, {"lat": 47.039535, "lon": 9.4548512}, {"lat": 47.0391512, "lon": 9.4543415}, {"lat": 47.0399372, "lon": 9.4530434}], "tags": {"access": "no", "barrier": "fence", "est_name": "Sargans", "frequency": "16.7", "operator": "SBB", "operator:wikidata": "Q83835", "power": "substation", "substation": "traction", "voltage": "132000;66000;15000"}}, {"type": "way", "id": 119440646, "bounds": {"minlat": 47.4828206, "minlon": 9.682761, "maxlat": 47.4828916, "maxlon": 9.6828646}, "nodes": [1342124658, 1342124942, 1342124939, 1342124848, 1342124658], "geometry": [{"lat": 47.4828501, "lon": 9.682761}, {"lat": 47.4828916, "lon": 9.682811}, {"lat": 47.4828622, "lon": 9.6828646}, {"lat": 47.4828206, "lon": 9.6828147}, {"lat": 47.4828501, "lon": 9.682761}], "tags": {"building": "service", "fixme": "end of the name", "name": "Hard Tradostation 12 ???", "power": "substation", "source": "survey 09.2025 and Vogis 2022", "substation": "minor_distribution"}}, {"type": "way", "id": 119687430, "bounds": {"minlat": 47.1908876, "minlon": 9.7127996, "maxlat": 47.1915838, "maxlon": 9.7136983}, "nodes": [1343856763, 1343856762, 3023225045, 1343856760, 1343856753, 3023223603, 3019194039, 3019194053, 3023223630, 1343856761, 1343856763], "geometry": [{"lat": 47.1915838, "lon": 9.713311}, {"lat": 47.1914195, "lon": 9.713563}, {"lat": 47.1913035, "lon": 9.7136371}, {"lat": 47.1911543, "lon": 9.7136983}, {"lat": 47.1908876, "lon": 9.7133266}, {"lat": 47.1910414, "lon": 9.7130903}, {"lat": 47.1910218, "lon": 9.713063}, {"lat": 47.1911625, "lon": 9.7128454}, {"lat": 47.1911825, "lon": 9.7128734}, {"lat": 47.1912306, "lon": 9.7127996}, {"lat": 47.1915838, "lon": 9.713311}], "tags": {"barrier": "fence", "name": "Umspannwerk Nenzing", "operator": "Vorarlberger Energienetze GmbH", "power": "substation", "substation": "transmission", "voltage": "110000"}}, {"type": "way", "id": 120403433, "bounds": {"minlat": 47.4107679, "minlon": 9.2638912, "maxlat": 47.4116549, "maxlon": 9.2662496}, "nodes": [1350138619, 1350138972, 1350138856, 1350138737, 1840694584, 1350138590, 1086906141, 1350138685, 1350138603, 1350138346, 1350137972, 1840694579, 1350138619], "geometry": [{"lat": 47.4114238, "lon": 9.2638912}, {"lat": 47.4116549, "lon": 9.2640532}, {"lat": 47.4115659, "lon": 9.2644732}, {"lat": 47.4114951, "lon": 9.2651135},