{"version": 0.6, "generator": "Overpass API 0.7.62.8 e802775f", "osm3s": {"timestamp_osm_base": "2025-11-17T18:05:36Z", "copyright": "The data included in this document is from www.openstreetmap.org. The data is made available under ODbL."}, "elements": [{"type": "node", "id": 31659461, "lat": 53.4853709, "lon": 9.1470569, "tags": {"frequency": "50", "man_made": "street_cabinet", "name": "Bremerv\u00f6rde Alte Stra\u00dfe 4 / Parkplatz", "operator": "EWE", "operator:wikidata": "Q1276459", "power": "substation", "ref": "51219", "substation": "minor_distribution", "utility": "power", "voltage": "20000"}}, {"type": "node", "id": 264273235, "lat": 53.5193701, "lon": 8.0926203, "tags": {"name": "CVJM/Marktstra\u00dfe", "operator": "GEW Wilhelmshaven GmbH", "phone": "+49 4421 404777", "power": "substation", "ref": "188 E"}}, {"type": "node", "id": 264277888, "lat": 53.5197064, "lon": 8.1028485, "tags": {"name": "Bordumplatz", "operator": "GEW Wilhelmshaven", "operator:short": "GEW", "operator:wikidata": "Q124462847", "power": "substation", "ref": "42E"}}, {"type": "node", "id": 268218346, "lat": 53.2964082, "lon": 8.8346516, "tags": {"frequency": "50", "man_made": "street_cabinet", "name": "Hambergen Bremer Stra\u00dfe", "operator": "EWE", "power": "substation", "ref": "64275", "street_cabinet": "power", "substation": "minor_distribution", "voltage": "20000"}}, {"type": "node", "id": 268253680, "lat": 53.2247855, "lon": 8.806188, "tags": {"frequency": "50", "name": "Trafostation Erntefestplatz", "operator": "Osterholzer Stadtwerke", "power": "substation", "substation": "minor_distribution", "voltage": "20000"}}, {"type": "node", "id": 272864157, "lat": 53.3206808, "lon": 8.8693321, "tags": {"frequency": "50", "man_made": "street_cabinet", "name": "Vollersode-Wallh\u00f6fen Am Funkturm", "operator": "EWE", "power": "substation", "ref": "64778", "street_cabinet": "power", "substation": "minor_distribution", "voltage": "20000"}}, {"type": "node", "id": 275374392, "lat": 53.2824777, "lon": 8.8290266, "tags": {"frequency": "50", "man_made": "street_cabinet", "name": "Hambergen Sandstra\u00dfe", "operator": "EWE", "operator:wikidata": "Q1276459", "power": "substation", "ref": "64268", "street_cabinet": "power", "substation": "minor_distribution", "voltage": "20000"}}, {"type": "node", "id": 286072006, "lat": 53.0358478, "lon": 8.6336115, "tags": {"ele": "9.74", "frequency": "50", "name": "DEL Elbinger Stra\u00dfe", "power": "substation", "ref": "EWE 03995", "substation": "minor_distribution", "voltage": "20000"}}, {"type": "node", "id": 286072461, "lat": 53.0382274, "lon": 8.6315847, "tags": {"ele": "5.89", "frequency": "50", "name": "DEL Am Tierpark", "power": "substation", "ref": "EWE 03623", "substation": "minor_distribution", "voltage": "20000"}}, {"type": "node", "id": 286366129, "lat": 53.0336233, "lon": 8.6311567, "tags": {"ele": "14.55", "frequency": "50", "name": "G\u00f6rlitzer Stra\u00dfe", "power": "substation", "ref": "EWE 05759", "substation": "minor_distribution", "voltage": "20000"}}, {"type": "node", "id": 286369074, "lat": 53.0205558, "lon": 8.6279443, "tags": {"ele": "8.3", "man_made": "street_cabinet", "name": "DEL Yorckstra\u00dfe", "operator": "EWE Netz", "power": "substation", "ref": "DS 14", "street_cabinet": "power", "substation": "minor_distribution", "voltage": "20000"}}, {"type": "node", "id": 286369283, "lat": 53.0247462, "lon": 8.6289177, "tags": {"ele": "5.89", "frequency": "50", "name": "Gneisenauweg", "power": "substation", "ref": "EWE 7546", "substation": "minor_distribution", "voltage": "20000"}}, {"type": "node", "id": 286369908, "lat": 53.020864, "lon": 8.6419922, "tags": {"ele": "6.85", "frequency": "50", "name": "Annenheide Burk", "power": "substation", "ref": "EWE 8242", "substation": "minor_distribution", "voltage": "20000"}}, {"type": "node", "id": 286371332, "lat": 53.0224864, "lon": 8.6464591, "tags": {"ele": "8.3", "frequency": "50", "name": "Delmenhorst Annenheider Stra\u00dfe", "power": "substation", "ref": "EWE 16558", "substation": "minor_distribution", "voltage": "20000"}}, {"type": "node", "id": 286371540, "lat": 53.0187565, "lon": 8.646222, "tags": {"ele": "7.34", "frequency": "50", "name": "DEL Annenweg L\u00f6schteich", "power": "substation", "ref": "EWE 12272", "substation": "minor_distribution", "voltage": "20000"}}, {"type": "node", "id": 286372795, "lat": 53.0233695, "lon": 8.6395559, "tags": {"colour": "green", "ele": "6.61", "frequency": "50", "man_made": "street_cabinet", "name": "DEL Brendelweg St\u00f6rmer", "operator": "EWE Netz", "power": "substation", "ref": "DS 23", "source:name": "image", "source:number": "image", "street_cabinet": "power", "substation": "minor_distribution", "voltage": "20000"}}, {"type": "node", "id": 286372963, "lat": 53.0254153, "lon": 8.6376592, "tags": {"ele": "4.69", "frequency": "50", "name": "J\u00fctlandstra\u00dfe", "power": "substation", "ref": "EWE 26934", "substation": "minor_distribution", "voltage": "20000"}}, {"type": "node", "id": 286373063, "lat": 53.03262, "lon": 8.6400554, "tags": {"ele": "5.41", "frequency": "50", "name": "D\u00fcsternortstra\u00dfe", "power": "substation", "ref": "EWE 06699", "substation": "minor_distribution", "voltage": "20000"}}, {"type": "node", "id": 286374750, "lat": 53.0745839, "lon": 8.6429728, "tags": {"ele": "5.17", "frequency": "50", "name": "Bungerhof Schule", "operator": "EWE", "power": "substation", "ref": "EWE 12281", "substation": "minor_distribution", "voltage": "20000"}}, {"type": "node", "id": 286374782, "lat": 53.0673418, "lon": 8.6353233, "tags": {"ele": "3.01", "frequency": "50", "name": "Am Sassengraben", "operator": "EWE", "power": "substation", "ref": "EWE 07044", "substation": "minor_distribution", "voltage": "20000"}}, {"type": "node", "id": 286374884, "lat": 53.0617343, "lon": 8.6306105, "tags": {"ele": "6.61", "frequency": "50", "name": "HANSA NORD", "operator": "EWE", "power": "substation", "ref": "EWE 25891", "substation": "minor_distribution", "voltage": "20000"}}, {"type": "node", "id": 286375271, "lat": 53.0662371, "lon": 8.6282158, "tags": {"ele": "1.57", "frequency": "50", "name": "DEL Lessingstra\u00dfe Nr. 73", "operator": "EWE", "power": "substation", "ref": "EWE 08206", "substation": "minor_distribution", "voltage": "20000"}}, {"type": "node", "id": 286375419, "lat": 53.0462833, "lon": 8.6371078, "tags": {"ele": "5.65", "frequency": "50", "name": "Friedrich-Ebert-Allee", "power": "substation", "ref": "EWE 27568", "substation": "minor_distribution", "voltage": "20000"}}, {"type": "node", "id": 286376301, "lat": 53.0707422, "lon": 8.6370591, "tags": {"ele": "-1.32", "frequency": "50", "name": "Dehmelstra\u00dfe", "operator": "EWE", "power": "substation", "ref": "EWE 8309", "substation": "minor_distribution", "voltage": "20000"}}, {"type": "node", "id": 286376435, "lat": 53.0439117, "lon": 8.6376396, "tags": {"ele": "14.79", "frequency": "50", "name": "ISA Cramerstra\u00dfe", "power": "substation", "ref": "EWE 00007", "substation": "minor_distribution", "voltage": "20000"}}, {"type": "node", "id": 286376450, "lat": 53.0439339, "lon": 8.6376272, "tags": {"ele": "10.94", "frequency": "50", "name": "25881", "power": "substation", "substation": "minor_distribution", "voltage": "20000"}}, {"type": "node", "id": 286580474, "lat": 53.0357318, "lon": 8.6271231, "tags": {"ele": "3.25", "frequency": "50", "name": "DEL Am Moorkamp", "power": "substation", "ref": "EWE 20258", "substation": "minor_distribution", "voltage": "20000"}}, {"type": "node", "id": 286581402, "lat": 53.0217051, "lon": 8.6099011, "tags": {"ele": "6.85", "man_made": "street_cabinet", "name": "Del Adelheider M\u00fc", "operator": "EWE Netz", "power": "substation", "ref": "EWE 17629", "street_cabinet": "power", "substation": "minor_distribution", "voltage": "20000"}}, {"type": "node", "id": 286586075, "lat": 53.008466, "lon": 8.6083865, "tags": {"ele": "-0.35", "man_made": "street_cabinet", "name": "Adelheide 2", "operator": "EWE Netz", "power": "substation", "ref": "EWE 44", "street_cabinet": "power", "substation": "minor_distribution", "voltage": "20000"}}, {"type": "node", "id": 286597094, "lat": 53.0237678, "lon": 8.6136332, "tags": {"ele": "5.17", "frequency": "50", "name": "DEL Schule Adelheide", "power": "substation", "ref": "DS 14", "substation": "minor_distribution", "voltage": "20000"}}, {"type": "node", "id": 286599550, "lat": 53.0332568, "lon": 8.618325, "tags": {"ele": "8.06", "frequency": "50", "name": "DEL Im Delmegrund 19", "operator": "EWE Netz", "power": "substation", "ref": "DS 11", "substation": "minor_distribution", "voltage": "20000"}}, {"type": "node", "id": 286600253, "lat": 53.0324286, "lon": 8.6228642, "tags": {"ele": "4.93", "frequency": "50", "name": "Brendelweg", "power": "substation", "ref": "EWE 25502", "substation": "minor_distribution", "voltage": "20000"}}, {"type": "node", "id": 286601820, "lat": 53.0288067, "lon": 8.629794, "tags": {"ele": "5.89", "frequency": "50", "name": "DEL F\u00f6rsterstra\u00dfe", "operator": "EWE Netz", "power": "substation", "ref": "EWE 05572", "substation": "minor_distribution", "voltage": "20000"}}, {"type": "node", "id": 286603528, "lat": 53.0279648, "lon": 8.6280871, "tags": {"ele": "8.3", "frequency": "50", "name": "Rethkampplatz U14", "power": "substation", "ref": "EWE 04098", "substation": "minor_distribution", "voltage": "20000"}}, {"type": "node", "id": 286603685, "lat": 53.0275328, "lon": 8.6275984, "tags": {"ele": "9.02", "frequency": "50", "name": "DEL Schulzentrum S\u00fcd", "power": "substation", "ref": "EWE 09524", "substation": "minor_distribution", "voltage": "20000"}}, {"type": "node", "id": 286606152, "lat": 53.0179814, "lon": 8.6516016, "tags": {"ele": "7.82", "frequency": "50", "name": "DEL Feldhusstra\u00dfe", "power": "substation", "ref": "EWE 26646", "substation": "minor_distribution", "voltage": "20000"}}, {"type": "node", "id": 286606747, "lat": 53.0160451, "lon": 8.6578758, "tags": {"ele": "8.06", "frequency": "50", "name": "DEL Steller Stra\u00dfe Hoch-Tief", "power": "substation", "ref": "EWE 26654", "substation": "minor_distribution", "voltage": "20000"}}, {"type": "node", "id": 286606815, "lat": 53.0161432, "lon": 8.6576784, "tags": {"ele": "9.98", "frequency": "50", "name": "Del. Steller Stra\u00dfe M\u00fcllsortieranlage", "power": "substation", "ref": "EWE 19752", "substation": "minor_distribution", "voltage": "20000"}}, {"type": "node", "id": 286606901, "lat": 53.0168162, "lon": 8.6564606, "tags": {"ele": "12.86", "frequency": "50", "name": "DEL Steller Stra\u00dfe Kunststoffwerk", "note": "Trafo 1 & 2", "power": "substation", "ref": "EWE 09454", "substation": "minor_distribution", "voltage": "20000"}}, {"type": "node", "id": 286606905, "lat": 53.0166409, "lon": 8.6568126, "tags": {"ele": "12.86", "frequency": "50", "name": "DEL Steller Stra\u00dfe Kunststoffwerk", "note": "Trafo 3", "power": "substation", "ref": "EWE 09454", "substation": "minor_distribution", "voltage": "20000"}}, {"type": "node", "id": 286607991, "lat": 53.0276924, "lon": 8.6611374, "tags": {"ele": "6.61", "frequency": "50", "name": "Hasport ISA", "power": "substation", "ref": "EWE 11920", "substation": "minor_distribution", "voltage": "20000"}}, {"type": "node", "id": 286610259, "lat": 53.0592253, "lon": 8.6535874, "tags": {"ele": "12.62", "frequency": "50", "name": "DEL Kastanienplatz", "operator": "EWE", "operator:wikidata": "Q1276459", "power": "substation", "ref": "EWE 11041", "substation": "minor_distribution", "voltage": "20000"}}, {"type": "node", "id": 286611412, "lat": 53.0657191, "lon": 8.6536389, "tags": {"ele": "0.85", "frequency": "50", "name": "DEL Eibenstra\u00dfe", "operator": "EWE", "power": "substation", "ref": "EWE 20230", "substation": "minor_distribution", "voltage": "20000"}}, {"type": "node", "id": 286611591, "lat": 53.0766157, "lon": 8.6644793, "tags": {"ele": "-0.84", "name": "Hasbergen", "power": "substation", "ref": "EWE 02713"}}, {"type": "node", "id": 286612711, "lat": 53.0735115, "lon": 8.6581707, "tags": {"ele": "4.69", "frequency": "50", "name": "Hasbergen Delmestra\u00dfe", "operator": "EWE", "power": "substation", "ref": "EWE 25053", "substation": "minor_distribution", "voltage": "20000"}}, {"type": "node", "id": 286613278, "lat": 53.0625172, "lon": 8.6485608, "tags": {"ele": "6.85", "frequency": "50", "name": "Nordenhamer Stra\u00dfe 142", "operator": "EWE", "operator:wikidata": "Q1276459", "power": "substation", "ref": "EWE 26731", "substation": "minor_distribution", "voltage": "20000"}}, {"type": "node", "id": 286613844, "lat": 53.060551, "lon": 8.6414595, "tags": {"ele": "2.77", "frequency": "50", "name": "Birkenstra\u00dfe", "operator": "EWE", "operator:wikidata": "Q1276459", "power": "substation", "ref": "EWE 25540", "substation": "minor_distribution", "voltage": "20000"}}, {"type": "node", "id": 286614386, "lat": 53.0459921, "lon": 8.6340952, "tags": {"ele": "4.69", "frequency": "50", "name": "Arthur-Fitger-Stra\u00dfe", "power": "substation", "ref": "EWE 27567", "substation": "minor_distribution", "voltage": "20000"}}, {"type": "node", "id": 287459783, "lat": 53.0658343, "lon": 8.3351503, "tags": {"power": "substation"}}, {"type": "node", "id": 288328525, "lat": 53.0534169, "lon": 8.6505673, "tags": {"ele": "5.17", "frequency": "50", "name": "DEL Asternstra\u00dfe", "operator": "EWE", "operator:wikidata": "Q1276459", "power": "substation", "ref": "EWE 26957", "substation": "minor_distribution", "voltage": "20000"}}, {"type": "node", "id": 288333651, "lat": 53.0781808, "lon": 8.645073, "tags": {"ele": "3.97", "name": "Weyhausen Siedlung", "power": "substation", "ref": "EWE 12360"}}, {"type": "node", "id": 288334359, "lat": 53.0853678, "lon": 8.6505661, "tags": {"ele": "-2.04", "name": "Neuendeel Am Fludderdeich", "power": "substation", "ref": "EWE 12334"}}, {"type": "node", "id": 288336328, "lat": 53.0729049, "lon": 8.6258515, "tags": {"ele": "5.41", "frequency": "50", "name": "Friedensstra\u00dfe", "operator": "EWE", "power": "substation", "ref": "EWE 25887", "substation": "minor_distribution", "voltage": "20000"}}, {"type": "node", "id": 288337686, "lat": 53.0652886, "lon": 8.6229795, "tags": {"ele": "4.93", "frequency": "50", "name": "Dwostra\u00dfe", "operator": "EWE", "power": "substation", "ref": "EWE 04841", "substation": "minor_distribution", "voltage": "20000"}}, {"type": "node", "id": 288337785, "lat": 53.0640807, "lon": 8.6190566, "tags": {"ele": "6.85", "frequency": "50", "name": "DEL Wilhelm-Raabe-Stra\u00dfe", "operator": "EWE", "power": "substation", "ref": "EWE 26065", "substation": "minor_distribution", "voltage": "20000"}}, {"type": "node", "id": 288338326, "lat": 53.0621322, "lon": 8.6176758, "tags": {"ele": "5.65", "frequency": "50", "name": "Dwostra\u00dfe", "operator": "EWE", "power": "substation", "ref": "EWE 02041", "substation": "minor_distribution", "voltage": "20000"}}, {"type": "node", "id": 288339837, "lat": 53.0623694, "lon": 8.6271086, "tags": {"ele": "6.85", "frequency": "50", "name": "DEL Sch\u00f6nemoorer Stra\u00dfe", "operator": "EWE", "power": "substation", "ref": "EWE 26982", "substation": "minor_distribution", "voltage": "20000"}}, {"type": "node", "id": 288340750, "lat": 53.0380635, "lon": 8.6456738, "tags": {"ele": "9.98", "frequency": "50", "name": "DEL Hasporter Damm Bahnhof", "power": "substation", "ref": "EWE 27522", "substation": "minor_distribution", "voltage": "20000"}}, {"type": "node", "id": 291000606, "lat": 53.0565594, "lon": 8.2007811, "tags": {"power": "substation"}}, {"type": "node", "id": 291109582, "lat": 53.0567115, "lon": 8.1771118, "tags": {"power": "substation"}}, {"type": "node", "id": 292753821, "lat": 53.0520879, "lon": 8.2012943, "tags": {"power": "substation"}}, {"type": "node", "id": 296360928, "lat": 53.1584154, "lon": 8.342951, "tags": {"power": "substation"}}, {"type": "node", "id": 298269359, "lat": 53.2394305, "lon": 8.5947429, "tags": {"name": "Schwanewede Vosshall", "operator": "EWE", "power": "substation", "ref": "64704"}}, {"type": "node", "id": 299537179, "lat": 53.1833677, "lon": 8.7555192, "tags": {"frequency": "50", "name": "Trafostation", "operator": "Osterholzer Stadtwerke", "power": "substation", "ref": "2808", "source": "survey", "substation": "minor_distribution", "voltage": "20000"}}, {"type": "node", "id": 300449974, "lat": 53.1915694, "lon": 8.6505365, "tags": {"frequency": "50", "location": "kiosk", "name": "Leuchtenburg Albrechts Park", "power": "substation", "ref": "64697", "substation": "minor_distribution", "voltage": "20000"}}, {"type": "node", "id": 300534142, "lat": 53.0994777, "lon": 8.3710079, "tags": {"power": "substation"}}, {"type": "node", "id": 301780231, "lat": 53.0842444, "lon": 8.3259221, "tags": {"power": "substation", "substation": "minor_distribution"}}, {"type": "node", "id": 304215779, "lat": 53.0449149, "lon": 8.6776502, "tags": {"ele": "0.37", "name": "DEL Stickgraser Allee", "power": "substation", "ref": "EWE 27763"}}, {"type": "node", "id": 309945665, "lat": 53.1273363, "lon": 8.0932296, "tags": {"frequency": "50", "operator": "EWE Netz", "operator:wikidata": "Q42825991", "power": "substation", "substation": "minor_distribution", "voltage": "20000"}}, {"type": "node", "id": 321702457, "lat": 52.968897, "lon": 8.4936034, "tags": {"colour": "green", "frequency": "50", "man_made": "street_cabinet", "name": "Uhlhorn Depot", "operator": "EWE Netz", "power": "substation", "ref": "DP 91", "street_cabinet": "power", "substation": "minor_distribution", "voltage": "20000"}}, {"type": "node", "id": 365412180, "lat": 52.8285138, "lon": 9.0052164, "tags": {"power": "substation", "substation": "minor_distribution"}}, {"type": "node", "id": 369308055, "lat": 53.1152478, "lon": 8.0652981, "tags": {"frequency": "50", "operator": "EWE Netz", "power": "substation", "substation": "minor_distribution", "voltage": "20000"}}, {"type": "node", "id": 391093750, "lat": 53.0195839, "lon": 8.6914945, "tags": {"ele": "5.65", "name": "Schulstra\u00dfe Baumarkt", "operator": "E.ON", "power": "substation"}}, {"type": "node", "id": 392582516, "lat": 53.3305843, "lon": 8.0651442, "tags": {"operator": "EWE", "operator:wikidata": "Q1276459", "power": "substation", "ref": "Conneforde Dorfstra\u00dfe 6", "source": "survey"}}, {"type": "node", "id": 392922159, "lat": 53.2587903, "lon": 8.9573173, "tags": {"frequency": "50", "location": "kiosk", "name": "Neu St. J\u00fcrgen Jan-Weber-Stra\u00dfe", "operator": "EWE", "power": "substation", "ref": "411/124/112", "substation": "minor_distribution", "voltage": "20000"}}, {"type": "node", "id": 395287140, "lat": 53.1877657, "lon": 8.75599, "tags": {"frequency": "50", "operator": "Osterholzer Stadtwerke", "power": "substation", "ref": "2822", "source": "survey", "substation": "minor_distribution", "voltage": "20000"}}, {"type": "node", "id": 395295855, "lat": 53.188657, "lon": 8.7605333, "tags": {"frequency": "50", "operator": "Osterholzer Stadtwerke", "power": "substation", "ref": "2809", "source": "survey", "substation": "minor_distribution", "voltage": "20000"}}, {"type": "node", "id": 395311927, "lat": 53.1905873, "lon": 8.7632319, "tags": {"frequency": "50", "operator": "Osterholzer Stadtwerke", "power": "substation", "ref": "2811", "source": "survey", "substation": "minor_distribution", "voltage": "20000"}}, {"type": "node", "id": 395338066, "lat": 53.1999422, "lon": 8.7648834, "tags": {"frequency": "50", "name": "Buchtstra\u00dfe 54/M\u00fchlenstelle", "operator": "Osterholzer Stadtwerke", "power": "substation", "source": "survey", "substation": "minor_distribution", "voltage": "20000"}}, {"type": "node", "id": 423590454, "lat": 53.4667462, "lon": 8.3706339, "tags": {"location": "outdoor", "power": "substation", "substation": "minor_distribution"}}, {"type": "node", "id": 445049846, "lat": 53.5176227, "lon": 8.0949739, "tags": {"name": "Kreuz-/Tischlerstra\u00dfe", "operator": "GEW_Wilhelmshaven_GmbH", "power": "substation", "ref": "323E", "source": "survey"}}, {"type": "node", "id": 445313109, "lat": 53.5198876, "lon": 8.1109616, "tags": {"name": "Leffers/Marktstra\u00dfe", "operator": "GEW_Wilhelmshaven_GmbH", "power": "substation", "ref": "219 A"}}, {"type": "node", "id": 445313110, "lat": 53.519954, "lon": 8.1109702, "tags": {"name": "Marktstra\u00dfe 74", "operator": "GEW_Wilhelmshaven_GmbH", "power": "substation", "ref": "RA 0531"}}, {"type": "node", "id": 445313111, "lat": 53.5194794, "lon": 8.1087901, "tags": {"name": "Bahnhofstra\u00dfe/Metzer Weg", "operator": "GEW_Wilhelmshaven_GmbH", "power": "substation", "ref": "66E"}}, {"type": "node", "id": 445313112, "lat": 53.5197499, "lon": 8.1047475, "tags": {"name": "Markt-/Mitscherlichstra\u00dfe", "operator": "GEW Wilhelmshaven", "operator:short": "GEW", "operator:wikidata": "Q124462847", "power": "substation", "ref": "412E"}}, {"type": "node", "id": 445389835, "lat": 53.5170358, "lon": 8.0908196, "tags": {"name": "Banter Weg/Alter Banter Weg", "operator": "GEW_Wilhelmshaven_GmbH", "power": "substation", "ref": "538E", "source": "survey"}}, {"type": "node", "id": 447553137, "lat": 53.3318664, "lon": 8.1605829, "tags": {"power": "substation"}}, {"type": "node", "id": 458382674, "lat": 53.2237933, "lon": 8.7895894, "tags": {"FIXME": "name", "frequency": "50", "name": "Trafostation", "operator": "Osterholzer Stadtwerke", "power": "substation", "substation": "minor_distribution", "voltage": "20000"}}, {"type": "node", "id": 521745490, "lat": 53.2022388, "lon": 8.8660069, "tags": {"man_made": "street_cabinet", "power": "substation", "street_cabinet": "power", "substation": "minor_distribution"}}, {"type": "node", "id": 527872806, "lat": 53.1417602, "lon": 8.2016641, "tags": {"man_made": "street_cabinet", "operator": "EWE", "operator:wikidata": "Q1276459", "operator:wikipedia": "de:EWE (Versorgungsunternehmen)", "power": "substation", "source": "survey", "substation": "minor_distribution", "utility": "power"}}, {"type": "node", "id": 531381142, "lat": 53.1058916, "lon": 8.4727213, "tags": {"name": "Hermann Allmers Stra\u00dfe DY23", "operator": "EWE_Netz", "power": "substation", "ref": "25864", "source": "survey"}}, {"type": "node", "id": 531381231, "lat": 53.1096544, "lon": 8.4663791, "tags": {"name": "Auf der Nordheide", "operator": "EWE_Netz", "power": "substation", "ref": "DY22", "source": "survey"}}, {"type": "node", "id": 531402452, "lat": 53.1097406, "lon": 8.4616749, "tags": {"name": "St\u00f6verskamp DY22", "operator": "EWE_Netz", "power": "substation", "ref": "25867", "source": "survey"}}, {"type": "node", "id": 536686245, "lat": 53.1447362, "lon": 8.2249506, "tags": {"operator": "EWE Netz", "operator:wikidata": "Q42825991", "operator:wikipedia": "de:EWE Netz", "power": "substation", "source": "survey", "substation": "minor_distribution"}}, {"type": "node", "id": 536781217, "lat": 53.143458, "lon": 8.2135856, "tags": {"frequency": "50", "man_made": "street_cabinet", "name": "Staulinie 2", "operator": "EWE Netz", "operator:wikidata": "Q42825991", "operator:wikipedia": "de:EWE Netz", "power": "substation", "ref": "OE15", "source": "survey", "substation": "minor_distribution", "utility": "power"}}, {"type": "node", "id": 543958115, "lat": 53.1321336, "lon": 8.2322697, "tags": {"power": "substation"}}, {"type": "node", "id": 552915749, "lat": 53.2085345, "lon": 8.522955, "tags": {"power": "substation", "ref": "1240"}}, {"type": "node", "id": 569239202, "lat": 53.093176, "lon": 8.6960241, "tags": {"power": "substation", "ref": "2577", "source": "survey", "substation": "distribution"}}, {"type": "node", "id": 569239242, "lat": 53.0910487, "lon": 8.7016467, "tags": {"power": "substation", "source": "survey"}}, {"type": "node", "id": 650087541, "lat": 53.0593701, "lon": 8.063585, "tags": {"frequency": "50", "operator": "EWE Netz", "power": "substation", "ref": "C 52 (Korsorsstr. 614)", "substation": "minor_distribution", "voltage": "20000"}}, {"type": "node", "id": 650087552, "lat": 53.0865833, "lon": 8.0531381, "tags": {"frequency": "50", "operator": "EWE Netz", "power": "substation", "ref": "WJ 99 (Langendamm 8a)", "substation": "minor_distribution", "voltage": "20000"}}, {"type": "node", "id": 653288403, "lat": 53.1405228, "lon": 8.1959431, "tags": {"fixme": "position", "name": "Rummelweg 18", "operator": "EWE", "operator:wikidata": "Q1276459", "operator:wikipedia": "de:EWE (Versorgungsunternehmen)", "power": "substation", "source": "survey"}}, {"type": "node", "id": 653288416, "lat": 53.1395575, "lon": 8.1936686, "tags": {"fixme": "position", "name": "Tannenstra\u00dfe 13-15", "operator": "EWE", "operator:wikidata": "Q1276459", "operator:wikipedia": "de:EWE (Versorgungsunternehmen)", "power": "substation", "source": "survey"}}, {"type": "node", "id": 653288430, "lat": 53.142342, "lon": 8.1980997, "tags": {"man_made": "street_cabinet", "name": "Zeughausstra\u00dfe 74", "operator": "EWE", "operator:wikidata": "Q1276459", "operator:wikipedia": "de:EWE (Versorgungsunternehmen)", "power": "substation", "source": "survey", "substation": "minor_distribution", "utility": "power"}}, {"type": "node", "id": 660610231, "lat": 53.1395217, "lon": 8.2018115, "tags": {"description": "Ratsherr-Schulze-Stra\u00dfe 19", "operator": "EWE", "operator:wikidata": "Q1276459", "power": "substation", "source": "survey"}}, {"type": "node", "id": 664141803, "lat": 53.132368, "lon": 8.1036541, "tags": {"frequency": "50", "name": "Wildenlohslinie 30", "operator": "EWE Netz", "power": "substation", "source": "survey", "substation": "minor_distribution", "voltage": "20000"}}, {"type": "node", "id": 673932620, "lat": 53.1561719, "lon": 8.0905276, "tags": {"operator": "EWE", "power": "substation", "ref": "WH 21"}}, {"type": "node", "id": 717668134, "lat": 53.1196327, "lon": 8.1917987, "tags": {"name": "Tegelkamp 1", "operator": "EWE", "operator:wikidata": "Q1276459", "power": "substation", "ref": "M01", "source": "survey"}}, {"type": "node", "id": 750818259, "lat": 52.8176922, "lon": 8.0795184, "tags": {"power": "substation"}}, {"type": "node", "id": 750818444, "lat": 52.8127993, "lon": 8.0702738, "tags": {"power": "substation"}}, {"type": "node", "id": 750818511, "lat": 52.8167925, "lon": 8.0826913, "tags": {"power": "substation"}}, {"type": "node", "id": 750818634, "lat": 52.819788, "lon": 8.0797634, "tags": {"power": "substation"}}, {"type": "node", "id": 750818831, "lat": 52.8102015, "lon": 8.064337, "tags": {"frequency": "50", "location": "outdoor", "name": "Sev. Cappelner Str. 18a", "operator": "EWE Netz", "operator:wikidata": "Q42825991", "power": "substation", "ref": "ck30", "substation": "minor_distribution", "voltage": "20000;400"}}, {"type": "node", "id": 775645515, "lat": 52.8063619, "lon": 8.9089476, "tags": {"operator": "EON", "power": "substation"}}, {"type": "node", "id": 845677849, "lat": 53.1930663, "lon": 8.0665994, "tags": {"addr:city": "Bad Zwischenahn", "addr:housenumber": "13", "addr:postcode": "26160", "addr:street": "Richtmoorstra\u00dfe", "addr:suburb": "Aschhausen", "operator": "EWE Netz", "power": "substation", "ref": "OL 42", "substation": "minor_distribution"}}, {"type": "node", "id": 878404323, "lat": 52.8172602, "lon": 8.0877898, "tags": {"power": "substation"}}, {"type": "node", "id": 891069963, "lat": 52.8077472, "lon": 8.0970145, "tags": {"operator": "EWE", "operator:wikidata": "Q1276459", "power": "substation", "ref": "Brookstr. Z2"}}, {"type": "node", "id": 929808761, "lat": 52.8242634, "lon": 8.7004491, "tags": {"name": "MN03443 Wedehorn DGKW 2", "operator": "E_ON Avacon", "power": "substation"}}, {"type": "node", "id": 937894026, "lat": 53.4862487, "lon": 9.14434, "tags": {"frequency": "50", "man_made": "street_cabinet", "name": "Bremerv\u00f6rde Brunnenstra\u00dfe 4 / VB-Parkplatz", "operator": "EWE", "operator:wikidata": "Q1276459", "power": "substation", "ref": "22011", "substation": "minor_distribution", "utility": "power", "voltage": "20000"}}, {"type": "node", "id": 958057176, "lat": 53.2426679, "lon": 8.218861, "tags": {"power": "substation"}}, {"type": "node", "id": 984690896, "lat": 52.8058499, "lon": 8.1909558, "tags": {"operator": "EWE NETZ", "power": "substation"}}, {"type": "node", "id": 984690966, "lat": 52.8042683, "lon": 8.1913712, "tags": {"operator": "EWE Netz", "power": "substation"}}, {"type": "node", "id": 1060066127, "lat": 53.2329937, "lon": 8.7903385, "tags": {"FIXME": "name", "frequency": "50", "name": "Trafostation", "operator": "Osterholzer Stadtwerke", "power": "substation", "substation": "minor_distribution", "voltage": "20000"}}, {"type": "node", "id": 1072543949, "lat": 53.484558, "lon": 9.1703897, "tags": {"frequency": "50", "location": "kiosk", "name": "Walkm\u00fchlenstra\u00dfe", "operator": "Stadtwerke Bremerv\u00f6rde GmbH", "power": "substation", "ref": "65", "substation": "minor_distribution", "voltage": "20000"}}, {"type": "node", "id": 1107450146, "lat": 53.109429, "lon": 8.0537919, "tags": {"frequency": "50", "operator": "EWE Netz", "power": "substation", "ref": "WJ 42", "substation": "minor_distribution", "voltage": "20000"}}, {"type": "node", "id": 1107482037, "lat": 53.1061299, "lon": 8.0865319, "tags": {"frequency": "50", "operator": "EWE Netz", "power": "substation", "substation": "minor_distribution", "voltage": "20000"}}, {"type": "node", "id": 1128093130, "lat": 53.1282452, "lon": 8.0641048, "tags": {"frequency": "50", "operator": "EWE Netz", "power": "substation", "ref": "WJ 43", "substation": "minor_distribution", "voltage": "20000"}}, {"type": "node", "id": 1195537021, "lat": 52.8188694, "lon": 9.0432477, "tags": {"power": "substation"}}, {"type": "node", "id": 1223657102, "lat": 53.1830077, "lon": 8.9898781, "tags": {"frequency": "50", "location": "kiosk", "name": "Grasberg Heckenweg", "power": "substation", "ref": "64140", "substation": "minor_distribution", "voltage": "20000"}}, {"type": "node", "id": 1245822160, "lat": 53.1067662, "lon": 8.114089, "tags": {"frequency": "50", "operator": "EWE Netz", "power": "substation", "ref": "C 41", "substation": "minor_distribution", "voltage": "20000"}}, {"type": "node", "id": 1245822235, "lat": 53.1113801, "lon": 8.1112832, "tags": {"frequency": "50", "operator": "EWE Netz", "operator:wikidata": "Q42825991", "power": "substation", "ref": "C 41", "substation": "minor_distribution", "voltage": "20000"}}, {"type": "node", "id": 1261836778, "lat": 53.2036679, "lon": 8.7489123, "tags": {"frequency": "50", "note": "Trafos\u00e4ule mit unterirdischer Stromleitung", "operator": "Osterholzer Stadtwerke", "power": "substation", "substation": "minor_distribution", "voltage": "20000"}}, {"type": "node", "id": 1279663693, "lat": 53.1991724, "lon": 8.8570353, "tags": {"frequency": "50", "location": "kiosk", "name": "Waakhausen Feuerwehr", "operator": "EWE", "power": "substation", "ref": "51163", "substation": "minor_distribution", "voltage": "20000"}}, {"type": "node", "id": 1279663699, "lat": 53.194217, "lon": 8.8413285, "tags": {"frequency": "50", "location": "kiosk", "name": "Waakhausen Viehland", "operator": "EWE", "power": "substation", "ref": "51164", "substation": "minor_distribution", "voltage": "20000"}}, {"type": "node", "id": 1279663703, "lat": 53.1943729, "lon": 8.9400063, "tags": {"frequency": "50", "location": "kiosk", "name": "Worphausen Kleine Wende", "operator": "EWE", "power": "substation", "ref": "64377", "substation": "minor_distribution", "voltage": "20000"}}, {"type": "node", "id": 1279663708, "lat": 53.2137428, "lon": 8.8987431, "tags": {"frequency": "50", "location": "kiosk", "name": "Worpswede Osterholzer Stra\u00dfe", "operator": "EWE", "power": "substation", "ref": "411/", "substation": "minor_distribution", "voltage": "20000"}}, {"type": "node", "id": 1279663711, "lat": 53.2073676, "lon": 8.8816176, "tags": {"frequency": "50", "location": "kiosk", "name": "Waakhausen Semkenfahrt", "operator": "EWE", "power": "substation", "ref": "51161", "substation": "minor_distribution", "voltage": "20000"}}, {"type": "node", "id": 1279663715, "lat": 53.1906721, "lon": 8.8216304, "tags": {"frequency": "50", "location": "kiosk", "name": "Sankt J\u00fcrgen Moorhausen", "operator": "EWE", "power": "substation", "ref": "51165", "substation": "minor_distribution", "voltage": "20000"}}, {"type": "node", "id": 1279663718, "lat": 53.2241272, "lon": 8.7980833, "tags": {"frequency": "50", "name": "Trafo-Station Extra-Markt", "operator": "Osterholzer Stadtwerke", "power": "substation", "substation": "minor_distribution", "voltage": "20000"}}, {"type": "node", "id": 1279663721, "lat": 53.1864451, "lon": 8.9195462, "tags": {"frequency": "50", "location": "kiosk", "name": "L\u00fcninghauser Stra\u00dfe Nr. 114a", "operator": "EWE", "power": "substation", "ref": "22832", "substation": "minor_distribution", "voltage": "20000"}}, {"type": "node", "id": 1279663724, "lat": 53.1841549, "lon": 8.8444423, "tags": {"frequency": "50", "location": "kiosk", "name": "Sankt J\u00fcrgen Mittelbauer", "operator": "EWE", "power": "substation", "ref": "51586", "substation": "minor_distribution", "voltage": "20000"}}, {"type": "node", "id": 1279663730, "lat": 53.2022251, "lon": 8.8660878, "tags": {"frequency": "50", "location": "kiosk", "name": "Waakhausen Waakhauserstra\u00dfe", "operator": "EWE", "power": "substation", "ref": "51162", "substation": "minor_distribution", "voltage": "20000"}}, {"type": "node", "id": 1279663731, "lat": 53.17287, "lon": 8.9002399, "tags": {"frequency": "50", "location": "kiosk", "name": "Frankenburg Hauptstra\u00dfe", "operator": "EWE", "power": "substation", "ref": "51583", "substation": "minor_distribution", "voltage": "20000"}}, {"type": "node", "id": 1280659899, "lat": 53.2085497, "lon": 8.7510827, "tags": {"frequency": "50", "name": "Trafostation Scharmbeckstoteler Stra\u00dfe 39", "operator": "Osterholzer Stadtwerke", "power": "substation", "substation": "minor_distribution", "voltage": "20000"}}, {"type": "node", "id": 1280659925, "lat": 53.1860049, "lon": 8.8122425, "tags": {"frequency": "50", "location": "kiosk", "name": "Sankt J\u00fcrgen Niederende", "operator": "EWE", "power": "substation", "ref": "51580", "substation": "minor_distribution", "voltage": "20000"}}, {"type": "node", "id": 1280659971, "lat": 53.2151291, "lon": 8.7509512, "tags": {"frequency": "50", "name": "Trafostation Scharmbeckstoteler Stra\u00dfe 124a", "operator": "Osterholzer Stadtwerke", "power": "substation", "substation": "minor_distribution", "voltage": "20000"}}, {"type": "node", "id": 1280659974, "lat": 53.2459313, "lon": 8.7792785, "tags": {"frequency": "50", "location": "indoor", "name": "Trafostation Westerbeck", "operator": "Stadtwerke", "power": "substation", "substation": "distribution", "voltage": "20000"}}, {"type": "node", "id": 1280659979, "lat": 53.2039343, "lon": 8.819948, "tags": {"frequency": "50", "location": "kiosk", "name": "OHZ Tietjens H\u00fctte", "operator": "EWE", "power": "substation", "ref": "64418", "substation": "minor_distribution", "voltage": "20000"}}, {"type": "node", "id": 1280659990, "lat": 53.2335572, "lon": 8.753551, "tags": {"FIXME": "check exact position", "frequency": "50", "location": "kiosk", "name": "Trafostation H\u00f6rdorfer Weg", "operator": "Stadtwerke", "power": "substation", "substation": "distribution", "voltage": "20000"}}, {"type": "node", "id": 1280660004, "lat": 53.2258261, "lon": 8.7596337, "tags": {"frequency": "50", "name": "Trafostation Halenbeck", "operator": "Osterholzer Stadtwerke", "power": "substation", "substation": "minor_distribution", "voltage": "20000"}}, {"type": "node", "id": 1280672840, "lat": 53.1875959, "lon": 8.7319741, "tags": {"frequency": "50", "operator": "Osterholzer Stadtwerke", "power": "substation", "substation": "minor_distribution", "voltage": "20000"}}, {"type": "node", "id": 1280672841, "lat": 53.2017902, "lon": 8.7351204, "tags": {"frequency": "50", "operator": "Osterholzer Stadtwerke", "power": "substation", "ref": "2939", "substation": "minor_distribution", "voltage": "20000"}}, {"type": "node", "id": 1280672842, "lat": 53.2004541, "lon": 8.7233352, "tags": {"name": "Dornsloh", "operator": "Gemeindewerke", "power": "substation", "ref": "2942"}}, {"type": "node", "id": 1280679259, "lat": 53.2383928, "lon": 8.7633756, "tags": {"name": "Buschhausen Am Kohlgarten", "operator": "Osterholzer Stadtwerke", "power": "substation", "ref": "50292"}}, {"type": "node", "id": 1280679284, "lat": 53.2535895, "lon": 8.7843694, "tags": {"frequency": "50", "man_made": "street_cabinet", "name": "Frei\u00dfenb\u00fcttel Kattenhorner Weg", "operator": "EWE Netz", "operator:wikidata": "Q42825991", "power": "substation", "ref": "50608", "substation": "distribution", "utility": "power", "voltage": "20000"}}, {"type": "node", "id": 1280679288, "lat": 53.2458928, "lon": 8.7792355, "tags": {"frequency": "50", "location": "indoor", "name": "OHZ-Westerbeck Lange Reihe", "operator": "EWE", "power": "substation", "substation": "distribution", "voltage": "20000"}}, {"type": "node", "id": 1282074765, "lat": 53.2228428, "lon": 8.7856455, "tags": {"frequency": "50", "name": "Trafostation An der Handloge", "operator": "Osterholzer Stadtwerke", "power": "substation", "substation": "minor_distribution", "voltage": "20000"}}, {"type": "node", "id": 1282074791, "lat": 53.2268347, "lon": 8.7862222, "tags": {"frequency": "50", "location": "indoor", "name": "Trafostation Gymnasium", "operator": "Osterholzer Stadtwerke", "power": "substation", "substation": "minor_distribution", "voltage": "20000"}}, {"type": "node", "id": 1283294814, "lat": 53.2290585, "lon": 8.7870832, "tags": {"frequency": "50", "name": "Trafostation Hinter der Wurth", "operator": "Osterholzer Stadtwerke", "power": "substation", "substation": "minor_distribution", "voltage": "20000"}}, {"type": "node", "id": 1283295322, "lat": 53.2315718, "lon": 8.7887758, "tags": {"frequency": "50", "name": "Trafostation Am Wasserturm", "operator": "Osterholzer Stadtwerke", "power": "substation", "substation": "minor_distribution", "voltage": "20000"}}, {"type": "node", "id": 1283295658, "lat": 53.2264557, "lon": 8.7890329, "tags": {"frequency": "50", "name": "Trafostation Barkhof", "operator": "Osterholzer Stadtwerke", "power": "substation", "substation": "minor_distribution", "voltage": "20000"}}, {"type": "node", "id": 1283295800, "lat": 53.2275445, "lon": 8.7905267, "tags": {"frequency": "50", "name": "Trafostation Am Wei\u00dfen Sande", "operator": "Osterholzer Stadtwerke", "power": "substation", "substation": "minor_distribution", "voltage": "20000"}}, {"type": "node", "id": 1283295835, "lat": 53.2282628, "lon": 8.7871365, "tags": {"frequency": "50", "location": "indoor", "name": "Trafostation Haus am Markt", "operator": "Osterholzer Stadtwerke", "power": "substation", "substation": "minor_distribution", "voltage": "20000"}}, {"type": "node", "id": 1283295909, "lat": 53.2302949, "lon": 8.7830518, "tags": {"frequency": "50", "name": "Trafostation Katrepel", "operator": "Osterholzer Stadtwerke", "power": "substation", "substation": "minor_distribution", "voltage": "20000"}}, {"type": "node", "id": 1285128199, "lat": 53.2366058, "lon": 8.7971679, "tags": {"frequency": "50", "name": "Trafostation Knorrenkamp", "operator": "Osterholzer Stadtwerke", "power": "substation", "substation": "distribution", "voltage": "20000"}}, {"type": "node", "id": 1285128210, "lat": 53.2250203, "lon": 8.7969748, "tags": {"frequency": "50", "name": "Trafostation Pappstra\u00dfe", "operator": "Osterholzer Stadtwerke", "power": "substation", "substation": "minor_distribution", "voltage": "20000"}}, {"type": "node", "id": 1285128320, "lat": 53.2378707, "lon": 8.7917874, "tags": {"frequency": "50", "name": "Trafostation K\u00e4the-Kollwitz-Stra\u00dfe", "operator": "Osterholzer Stadtwerke", "power": "substation", "substation": "distribution", "voltage": "20000"}}, {"type": "node", "id": 1285128491, "lat": 53.2335106, "lon": 8.7988551, "tags": {"frequency": "50", "name": "Trafostation Am Osterholze", "operator": "Osterholzer Stadtwerke", "power": "substation", "substation": "minor_distribution", "voltage": "20000"}}, {"type": "node", "id": 1286665459, "lat": 53.2483917, "lon": 8.8168794, "tags": {"frequency": "50", "name": "Trafostation Unter den Linden", "operator": "Osterholzer Stadtwerke", "operator:wikidata": "Q1740682", "power": "substation", "substation": "minor_distribution", "voltage": "20000"}}, {"type": "node", "id": 1286665471, "lat": 53.2279908, "lon": 8.7951026, "tags": {"frequency": "50", "name": "Trafostation Rathaus", "operator": "Osterholzer Stadtwerke", "power": "substation", "substation": "minor_distribution", "voltage": "20000"}}, {"type": "node", "id": 1286665476, "lat": 53.2513627, "lon": 8.8125742, "tags": {"frequency": "50", "man_made": "street_cabinet", "name": "Trafostation Siemensstra\u00dfe", "operator": "Osterholzer Stadtwerke", "operator:wikidata": "Q1740682", "power": "substation", "street_cabinet": "power", "substation": "minor_distribution", "voltage": "20000"}}, {"type": "node", "id": 1286665497, "lat": 53.2446157, "lon": 8.8113454, "tags": {"frequency": "50", "name": "Trafostation Im Dorfe", "operator": "Osterholzer Stadtwerke", "power": "substation", "substation": "minor_distribution", "voltage": "20000"}}, {"type": "node", "id": 1286665505, "lat": 53.2253542, "lon": 8.8125799, "tags": {"frequency": "50", "name": "Trafostation Amtslinde", "operator": "Osterholzer Stadtwerke", "power": "substation", "substation": "minor_distribution", "voltage": "20000"}}, {"type": "node", "id": 1286665515, "lat": 53.2338286, "lon": 8.8102544, "tags": {"frequency": "50", "name": "Trafostation Albert-Schweitzer-Stra\u00dfe", "operator": "Osterholzer Stadtwerke", "power": "substation", "substation": "minor_distribution", "voltage": "20000"}}, {"type": "node", "id": 1286665521, "lat": 53.2561985, "lon": 8.8145703, "tags": {"frequency": "50", "man_made": "street_cabinet", "name": "Trafostation Myhle", "operator": "Osterholzer Stadtwerke", "operator:wikidata": "Q1740682", "power": "substation", "street_cabinet": "power", "substation": "minor_distribution", "voltage": "20000"}}, {"type": "node", "id": 1286670818, "lat": 53.2598223, "lon": 8.8141671, "tags": {"frequency": "50", "man_made": "street_cabinet", "name": "Trafostation Zum Heuweg", "operator": "Osterholzer Stadtwerke", "power": "substation", "ref": "4/0796", "street_cabinet": "power", "substation": "minor_distribution", "voltage": "20000"}}, {"type": "node", "id": 1286856825, "lat": 53.2301761, "lon": 8.7689033, "tags": {"frequency": "50", "name": "Trafostation Mensingstra\u00dfe", "operator": "Osterholzer Stadtwerke", "power": "substation", "substation": "minor_distribution", "voltage": "20000"}}, {"type": "node", "id": 1286856877, "lat": 53.2328556, "lon": 8.7869056, "tags": {"frequency": "50", "name": "Trafostation Dobben", "operator": "Osterholzer Stadtwerke", "power": "substation", "substation": "minor_distribution", "voltage": "20000"}}, {"type": "node", "id": 1286856895, "lat": 53.2349987, "lon": 8.7809084, "tags": {"frequency": "50", "name": "Trafostation Sandbeckstra\u00dfe", "operator": "Osterholzer Stadtwerke", "power": "substation", "substation": "distribution", "voltage": "20000"}}, {"type": "node", "id": 1286856907, "lat": 53.2290059, "lon": 8.7773895, "tags": {"frequency": "50", "name": "Trafostation Amselstra\u00dfe", "operator": "Osterholzer Stadtwerke", "power": "substation", "substation": "minor_distribution", "voltage": "20000"}}, {"type": "node", "id": 1289357316, "lat": 53.2156391, "lon": 8.7841053, "tags": {"frequency": "50", "name": "Trafostation Wienbeck", "operator": "Osterholzer Stadtwerke", "power": "substation", "substation": "minor_distribution", "voltage": "20000"}}, {"type": "node", "id": 1289357435, "lat": 53.217352, "lon": 8.7824162, "tags": {"frequency": "50", "name": "Trafostation Dresdener Stra\u00dfe", "operator": "Osterholzer Stadtwerke", "power": "substation", "substation": "minor_distribution", "voltage": "20000"}}, {"type": "node", "id": 1289357460, "lat": 53.2180457, "lon": 8.7944933, "tags": {"frequency": "50", "name": "Trafostation Bremer Stra\u00dfe 43", "operator": "Osterholzer Stadtwerke", "power": "substation", "substation": "minor_distribution", "voltage": "20000"}}, {"type": "node", "id": 1289357643, "lat": 53.2184618, "lon": 8.7920289, "tags": {"frequency": "50", "name": "Trafostation Lange Stra\u00dfe 89", "operator": "Osterholzer Stadtwerke", "power": "substation", "substation": "minor_distribution", "voltage": "20000"}}, {"type": "node", "id": 1289357650, "lat": 53.2182288, "lon": 8.7793853, "tags": {"frequency": "50", "name": "Trafostation Mozartstra\u00dfe I", "operator": "Osterholzer Stadtwerke", "power": "substation", "substation": "minor_distribution", "voltage": "20000"}}, {"type": "node", "id": 1289357745, "lat": 53.2163529, "lon": 8.7896528, "tags": {"frequency": "50", "name": "Trafostation Theresienstra\u00dfe", "operator": "Osterholzer Stadtwerke", "power": "substation", "substation": "minor_distribution", "voltage": "20000"}}, {"type": "node", "id": 1291996378, "lat": 53.2400619, "lon": 8.8151066, "tags": {"frequency": "50", "name": "Trafostation Horster Feld", "operator": "Osterholzer Stadtwerke", "power": "substation", "substation": "minor_distribution", "voltage": "20000"}}, {"type": "node", "id": 1291996511, "lat": 53.2246253, "lon": 8.8109489, "tags": {"frequency": "50", "name": "Trafostation W.R.P.", "operator": "Osterholzer Stadtwerke", "power": "substation", "substation": "minor_distribution", "voltage": "20000"}}, {"type": "node", "id": 1291996605, "lat": 53.2295067, "lon": 8.8120647, "tags": {"frequency": "50", "name": "Trafostation Kantstra\u00dfe", "operator": "Osterholzer Stadtwerke", "power": "substation", "substation": "minor_distribution", "voltage": "20000"}}, {"type": "node", "id": 1293754732, "lat": 53.2730663, "lon": 8.7602777, "tags": {"frequency": "50", "location": "kiosk", "name": "OHZ-H\u00fclseberg Dorfstra\u00dfe", "operator": "Osterholzer Stadtwerke", "power": "substation", "ref": "51372", "substation": "minor_distribution", "voltage": "20000"}}, {"type": "node", "id": 1293754735, "lat": 53.286204, "lon": 8.8262155, "tags": {"frequency": "50", "man_made": "street_cabinet", "name": "Hambergen Gr\u00fcne Grund", "operator": "EWE", "operator:wikidata": "Q1276459", "power": "substation", "ref": "64269", "street_cabinet": "power", "substation": "minor_distribution", "voltage": "20000"}}, {"type": "node", "id": 1293754736, "lat": 53.291245, "lon": 8.8174179, "tags": {"frequency": "50", "man_made": "street_cabinet", "name": "Hambergen Am Jantzen Park", "operator": "EWE", "power": "substation", "ref": "64238", "street_cabinet": "power", "substation": "minor_distribution", "voltage": "20000"}}, {"type": "node", "id": 1293754738, "lat": 53.3073363, "lon": 8.7615988, "tags": {"frequency": "50", "location": "kiosk", "name": "OHZ-Ohlenstedt Im Pesch", "operator": "Osterholzer Stadtwerke", "power": "substation", "ref": "51193", "substation": "minor_distribution", "voltage": "20000"}}, {"type": "node", "id": 1293754739, "lat": 53.2942628, "lon": 8.8181176, "tags": {"frequency": "50", "man_made": "street_cabinet", "name": "Hambergen Papenb\u00fcttel", "operator": "EWE", "power": "substation", "ref": "64251", "street_cabinet": "power", "substation": "minor_distribution", "voltage": "20000"}}, {"type": "node", "id": 1293754740, "lat": 53.299748, "lon": 8.757338, "tags": {"frequency": "50", "location": "kiosk", "name": "OHZ-Ohlenstedt Alt Ohlenstedt", "operator": "Osterholzer Stadtwerke", "power": "substation", "ref": "51195", "substation": "minor_distribution", "voltage": "20000"}}, {"type": "node", "id": 1293754743, "lat": 53.2628181, "lon": 8.7898159, "tags": {"frequency": "50", "man_made": "street_cabinet", "name": "Frei\u00dfenb\u00fcttel An der Wasserm\u00fchle", "operator": "EWE Netz", "operator:wikidata": "Q42825991", "power": "substation", "ref": "64490", "substation": "distribution", "utility": "power", "voltage": "20000"}}, {"type": "node", "id": 1293754745, "lat": 53.2955259, "lon": 8.7872896, "tags": {"frequency": "50", "location": "kiosk", "name": "OHZ-Ohlenstedt Vorwohlde", "operator": "Osterholzer Stadtwerke", "power": "substation", "ref": "21679", "substation": "minor_distribution", "voltage": "20000"}}, {"type": "node", "id": 1293754746, "lat": 53.3190362, "lon": 8.8797456, "tags": {"frequency": "50", "location": "kiosk", "name": "Vollersode-Wallh\u00f6fen Denkmal", "operator": "EWE", "power": "substation", "ref": "64770", "substation": "minor_distribution", "voltage": "20000"}}, {"type": "node", "id": 1293754747, "lat": 53.2909885, "lon": 8.8040605, "tags": {"frequency": "50", "man_made": "street_cabinet", "name": "Hambergen Bahn", "operator": "EWE", "power": "substation", "ref": "64243", "street_cabinet": "power", "substation": "minor_distribution", "voltage": "20000"}}, {"type": "node", "id": 1293754750, "lat": 53.2803251, "lon": 8.7563585, "tags": {"frequency": "50", "location": "kiosk", "name": "OHZ-H\u00fclseberg Hagenberg", "operator": "Osterholzer Stadtwerke", "power": "substation", "substation": "minor_distribution", "voltage": "20000"}}, {"type": "node", "id": 1293754752, "lat": 53.3090698, "lon": 8.8345626, "tags": {"frequency": "50", "man_made": "street_cabinet", "name": "Hambergen Ackerkamp", "operator": "EWE", "power": "substation", "ref": "64237", "street_cabinet": "power", "substation": "minor_distribution", "voltage": "20000"}}, {"type": "node", "id": 1293754763, "lat": 53.2879847, "lon": 8.8154502, "tags": {"frequency": "50", "man_made": "street_cabinet", "name": "Hambergen Im Bruch", "operator": "EWE", "power": "substation", "ref": "64249", "street_cabinet": "power", "substation": "minor_distribution", "voltage": "20000"}}, {"type": "node", "id": 1296654742, "lat": 53.2222069, "lon": 8.7793742, "tags": {"frequency": "50", "name": "Trafostation Mozartstra\u00dfe II", "operator": "Osterholzer Stadtwerke", "power": "substation", "substation": "minor_distribution", "voltage": "20000"}}, {"type": "node", "id": 1296654784, "lat": 53.2313816, "lon": 8.7766602, "tags": {"frequency": "50", "name": "Trafostation Am Pumpelberg I", "operator": "Osterholzer Stadtwerke", "power": "substation", "substation": "minor_distribution", "voltage": "20000"}}, {"type": "node", "id": 1296654900, "lat": 53.2327318, "lon": 8.776848, "tags": {"frequency": "50", "name": "Trafo-Station Lidl-Markt", "operator": "Osterholzer Stadtwerke", "power": "substation", "substation": "minor_distribution", "voltage": "20000"}}, {"type": "node", "id": 1296654927, "lat": 53.2083122, "lon": 8.7693673, "tags": {"frequency": "50", "name": "Trafostation Auf der Heide 10", "operator": "Osterholzer Stadtwerke", "power": "substation", "substation": "minor_distribution", "voltage": "20000"}}, {"type": "node", "id": 1296655112, "lat": 53.2063057, "lon": 8.759596, "tags": {"frequency": "50", "name": "Trafostation Brockenacker 52", "operator": "Osterholzer Stadtwerke", "power": "substation", "substation": "minor_distribution", "voltage": "20000"}}, {"type": "node", "id": 1296655288, "lat": 53.2073371, "lon": 8.7662373, "tags": {"frequency": "50", "name": "Trafostation Auf der Heide 25-27", "operator": "Osterholzer Stadtwerke", "power": "substation", "substation": "minor_distribution", "voltage": "20000"}}, {"type": "node", "id": 1296655598, "lat": 53.2035767, "lon": 8.7564766, "tags": {"frequency": "50", "location": "kiosk", "name": "Trafostation Hauptstra\u00dfe 52", "operator": "Stadtwerke", "power": "substation", "substation": "distribution", "voltage": "20000"}}, {"type": "node", "id": 1297570290, "lat": 53.2413547, "lon": 8.762606, "tags": {"name": "OHZ Bargten Lange Reihe", "operator": "Osterholzer Stadtwerke", "power": "substation", "ref": "64517"}}, {"type": "node", "id": 1297570300, "lat": 53.2765693, "lon": 8.8258723, "tags": {"operator": "EWE", "operator:wikidata": "Q1276459", "power": "substation", "ref": "403/124/292"}}, {"type": "node", "id": 1297570320, "lat": 53.2547579, "lon": 8.8413218, "tags": {"frequency": "50", "location": "kiosk", "name": "Sandhausen Altendamm", "operator": "EWE", "power": "substation", "ref": "51733", "substation": "minor_distribution", "voltage": "20000"}}, {"type": "node", "id": 1297570391, "lat": 53.2628297, "lon": 8.8129633, "tags": {"frequency": "50", "man_made": "street_cabinet", "name": "Trafostation Hinterm M\u00fchlenberg", "note:de": "Schild am Verteilerh\u00e4uschen \"Osterholzer Stadtwerke | RA53 | Sandh. Hinterm M\u00fchlenberg | 64488\"", "operator": "EWE", "operator:wikidata": "Q1276459", "power": "substation", "ref": "4/0795", "street_cabinet": "power", "substation": "distribution", "voltage": "20000"}}, {"type": "node", "id": 1297570407, "lat": 53.2266842, "lon": 8.7644507, "tags": {"frequency": "50", "location": "kiosk", "name": "Trafostation Hinter dem Gartel", "operator": "Stadtwerke", "power": "substation", "substation": "distribution", "voltage": "20000"}}, {"type": "node", "id": 1297570410, "lat": 53.2616063, "lon": 8.8220528, "tags": {"frequency": "50", "location": "kiosk", "name": "Sandhausen Sandhausener Stra\u00dfe", "operator": "EWE", "power": "substation", "ref": "51734", "substation": "minor_distribution", "voltage": "20000"}}, {"type": "node", "id": 1297570411, "lat": 53.2347228, "lon": 8.8147445, "tags": {"frequency": "50", "name": "Trafostation Am Binnenfeld", "operator": "Osterholzer Stadtwerke", "operator:wikidata": "Q124463159", "power": "substation", "substation": "minor_distribution", "voltage": "20000"}}, {"type": "node", "id": 1297570427, "lat": 53.2335173, "lon": 8.7679433, "tags": {"frequency": "50", "name": "Trafostation Bargten", "operator": "Osterholzer Stadtwerke", "power": "substation", "substation": "minor_distribution", "voltage": "20000"}}, {"type": "node", "id": 1297570446, "lat": 53.2729677, "lon": 8.819294, "tags": {"frequency": "50", "man_made": "street_cabinet", "name": "Hambergen Gartenstra\u00dfe", "operator": "EWE", "operator:wikidata": "Q1276459", "power": "substation", "ref": "64265", "street_cabinet": "power", "substation": "minor_distribution", "voltage": "20000"}}, {"type": "node", "id": 1297570448, "lat": 53.266314, "lon": 8.8203108, "tags": {"frequency": "50", "man_made": "street_cabinet", "name": "Sandhausen Hinterm Torfwerk", "operator": "Osterholzer Stadtwerke", "operator:wikidata": "Q1740682", "power": "substation", "ref": "64503", "street_cabinet": "power", "substation": "minor_distribution", "voltage": "20000"}}, {"type": "node", "id": 1297570459, "lat": 53.2446031, "lon": 8.7982348, "tags": {"frequency": "50", "location": "kiosk", "name": "Trafostation Wiste", "operator": "Stadtwerke", "power": "substation", "substation": "distribution", "voltage": "20000"}}, {"type": "node", "id": 1297570463, "lat": 53.2658825, "lon": 8.8136463, "tags": {"frequency": "50", "man_made": "street_cabinet", "name": "Trafostation Sandhausener Ring", "operator": "EWE", "operator:wikidata": "Q1276459", "power": "substation", "ref": "4/0793", "street_cabinet": "power", "substation": "minor_distribution", "voltage": "20000"}}, {"type": "node", "id": 1297570498, "lat": 53.2428888, "lon": 8.8151006, "tags": {"frequency": "50", "name": "Trafostation Neuendammer Stra\u00dfe / Feuerwehr", "operator": "Osterholzer Stadtwerke", "power": "substation", "substation": "minor_distribution", "voltage": "20000"}}, {"type": "node", "id": 1297590021, "lat": 53.2745728, "lon": 8.8241337, "tags": {"frequency": "50", "man_made": "street_cabinet", "name": "Hambergen Heidreeg", "operator": "EWE", "operator:wikidata": "Q1276459", "power": "substation", "ref": "64267", "street_cabinet": "power", "substation": "minor_distribution", "voltage": "20000"}}, {"type": "node", "id": 1298753237, "lat": 53.2384858, "lon": 8.8021917, "tags": {"frequency": "50", "name": "Trafostation Beermann / Bahn", "operator": "Osterholzer Stadtwerke", "power": "substation", "substation": "minor_distribution", "voltage": "20000"}}, {"type": "node", "id": 1298753242, "lat": 53.2644133, "lon": 8.9153462, "tags": {"frequency": "50", "location": "kiosk", "name": "Teufelsmoor Hamme", "operator": "EWE", "power": "substation", "ref": "51817", "substation": "minor_distribution", "voltage": "20000"}}, {"type": "node", "id": 1298753260, "lat": 53.2497194, "lon": 8.8199931, "tags": {"frequency": "50", "name": "Trafostation Stubbenkuhle", "operator": "Osterholzer Stadtwerke", "operator:wikidata": "Q1740682", "power": "substation", "substation": "minor_distribution", "voltage": "20000"}}, {"type": "node", "id": 1298753276, "lat": 53.2650968, "lon": 8.9028513, "tags": {"frequency": "50", "location": "kiosk", "name": "Teufelsmoor Teufelsmoorstra\u00dfe", "operator": "EWE", "power": "substation", "ref": "407/124/136", "substation": "minor_distribution", "voltage": "20000"}}, {"type": "node", "id": 1298753283, "lat": 53.2535445, "lon": 8.8787737, "tags": {"frequency": "50", "location": "kiosk", "name": "Teufelsmoor Teufelsmoorstra\u00dfe 11", "operator": "EWE", "power": "substation", "ref": "51820", "substation": "minor_distribution", "voltage": "20000"}}, {"type": "node", "id": 1300468084, "lat": 53.2268154, "lon": 8.7101415, "tags": {"name": "Heilshorn Holtj\u00f6gen", "operator": "EWE", "power": "substation", "ref": "50525"}}, {"type": "node", "id": 1300468101, "lat": 53.2374212, "lon": 8.7183115, "tags": {"frequency": "50", "location": "kiosk", "name": "Heilshorn Alt Heilshorn", "operator": "EWE", "power": "substation", "ref": "50292", "substation": "minor_distribution", "voltage": "20000"}}, {"type": "node", "id": 1300468112, "lat": 53.2303159, "lon": 8.6374268, "tags": {"name": "Eggestedt Habichthorster Weg", "operator": "EWE", "power": "substation", "ref": "50386"}}, {"type": "node", "id": 1300468113, "lat": 53.2314797, "lon": 8.5825211, "tags": {"name": "Schwanewede Lycker Weg", "operator": "EWE", "power": "substation", "ref": "64591"}}, {"type": "node", "id": 1300468115, "lat": 53.2293176, "lon": 8.6988387, "tags": {"frequency": "50", "location": "kiosk", "name": "Heilshorn Industriepark 1", "operator": "EWE", "power": "substation", "ref": "64520", "substation": "minor_distribution", "voltage": "20000"}}, {"type": "node", "id": 1300468129, "lat": 53.2303441, "lon": 8.6926835, "tags": {"frequency": "50", "location": "kiosk", "name": "Brundorf Gewerbegebiet", "operator": "EWE", "power": "substation", "ref": "50165", "substation": "minor_distribution", "voltage": "20000"}}, {"type": "node", "id": 1300468137, "lat": 53.2322342, "lon": 8.7645257, "tags": {"frequency": "50", "name": "Trafostation Vrampe", "operator": "Osterholzer Stadtwerke", "power": "substation", "substation": "minor_distribution", "voltage": "20000"}}, {"type": "node", "id": 1300468139, "lat": 53.2291534, "lon": 8.6599037, "tags": {"name": "Brundorf Auf der Loge", "operator": "EWE", "power": "substation", "ref": "50938"}}, {"type": "node", "id": 1300468142, "lat": 53.2282541, "lon": 8.6023971, "tags": {"name": "Schwanewede Langenberg", "operator": "EWE", "power": "substation", "ref": "50285"}}, {"type": "node", "id": 1300468143, "lat": 53.2303318, "lon": 8.6722015, "tags": {"name": "Brundorf Lesumer Kirchweg", "operator": "EWE", "power": "substation", "ref": "50936"}}, {"type": "node", "id": 1300468146, "lat": 53.2308504, "lon": 8.7315749, "tags": {"frequency": "50", "location": "kiosk", "name": "Heilshorn Feldhorst", "operator": "EWE", "power": "substation", "ref": "50290", "substation": "minor_distribution", "voltage": "20000"}}, {"type": "node", "id": 1300468148, "lat": 53.2301616, "lon": 8.5196081, "tags": {"name": "Neuenkirchen Dethard-Iken-Ring", "operator": "EWE", "power": "substation", "ref": "64591"}}, {"type": "node", "id": 1300475526, "lat": 53.2348042, "lon": 8.5272457, "tags": {"name": "Neuenkirchen Vorbrucher Stra\u00dfe", "operator": "EWE", "power": "substation", "ref": "64680", "substation": "minor_distribution"}}, {"type": "node", "id": 1300475529, "lat": 53.2288195, "lon": 8.5235228, "tags": {"name": "Neuenkirchen Elbinger Stra\u00dfe", "operator": "EWE", "power": "substation", "ref": "64670"}}, {"type": "node", "id": 1300475539, "lat": 53.2345413, "lon": 8.521613, "tags": {"name": "Neuenkirchen Ahnten", "operator": "EWE", "power": "substation", "ref": "64651"}}, {"type": "node", "id": 1300475542, "lat": 53.2293141, "lon": 8.515467, "tags": {"name": "Neuenkirchen H\u00f6rnstra\u00dfe", "operator": "EWE", "power": "substation", "ref": "64654"}}, {"type": "node", "id": 1300475556, "lat": 53.2288584, "lon": 8.5372879, "tags": {"name": "Neuenkirchen Gewerbe", "operator": "EWE", "power": "substation", "ref": "64712"}}, {"type": "node", "id": 1300475557, "lat": 53.2311384, "lon": 8.5116691, "tags": {"name": "Neuenkirchen Paschberg", "operator": "EWE", "power": "substation", "ref": "64658"}}, {"type": "node", "id": 1300475563, "lat": 53.2323007, "lon": 8.537084, "tags": {"name": "Neuenkirchen Furthweg", "operator": "EWE", "power": "substation", "ref": "64699"}}, {"type": "node", "id": 1300475567, "lat": 53.2315365, "lon": 8.526956, "tags": {"name": "Neuenkirchen Klusshof", "operator": "EWE", "power": "substation", "ref": "64671", "substation": "minor_distribution"}}, {"type": "node", "id": 1300475568, "lat": 53.229327, "lon": 8.5095126, "tags": {"name": "Neuenkirchen Nedderwarder Weg", "operator": "EWE", "power": "substation", "ref": "64656"}}, {"type": "node", "id": 1300475570, "lat": 53.2340597, "lon": 8.5167105, "tags": {"name": "Neuenkirchen Rathaus", "operator": "EWE", "power": "substation", "ref": "64659"}}, {"type": "node", "id": 1300537922, "lat": 53.2313334, "lon": 8.5896568, "tags": {"name": "Schwanewede Molkereiweg", "operator": "EWE", "power": "substation", "ref": "64708"}}, {"type": "node", "id": 1300537958, "lat": 53.2411032, "lon": 8.5820504, "tags": {"name": "Schwanewede Brink", "operator": "EWE", "power": "substation", "ref": "64706"}}, {"type": "node", "id": 1300537975, "lat": 53.2431341, "lon": 8.5903102, "tags": {"name": "Schwanewede Damm", "operator": "EWE", "power": "substation", "ref": "64703"}}, {"type": "node", "id": 1300538027, "lat": 53.2276212, "lon": 8.588536, "tags": {"name": "Schwanewede Ostlandstra\u00dfe", "operator": "EWE", "power": "substation", "ref": "64593"}}, {"type": "node", "id": 1300538100, "lat": 53.225434, "lon": 8.5893728, "tags": {"name": "Schwanewede Posener Stra\u00dfe", "operator": "EWE", "power": "substation", "ref": "50833"}}, {"type": "node", "id": 1300538119, "lat": 53.248756, "lon": 8.5858591, "tags": {"name": "Schwanewede Koppelsberg", "operator": "EWE", "power": "substation", "ref": "64711"}}, {"type": "node", "id": 1300766658, "lat": 53.2340994, "lon": 8.7943641, "tags": {"frequency": "50", "location": "indoor", "name": "Trafostation Krankenhaus I", "operator": "Osterholzer Stadtwerke", "power": "substation", "substation": "minor_distribution", "voltage": "20000"}}, {"type": "node", "id": 1300923714, "lat": 53.2220573, "lon": 8.5880093, "tags": {"name": "Schwanewede Waldschule", "operator": "EWE", "power": "substation", "ref": "64599"}}, {"type": "node", "id": 1300923727, "lat": 53.2153411, "lon": 8.5845117, "tags": {"operator": "swb", "power": "substation", "ref": "1193"}}, {"type": "node", "id": 1300923731, "lat": 53.2105429, "lon": 8.5177205, "tags": {"operator": "swb", "power": "substation", "ref": "1190"}}, {"type": "node", "id": 1300923744, "lat": 53.2203534, "lon": 8.5112081, "tags": {"operator": "swb", "power": "substation", "ref": "1168"}}, {"type": "node", "id": 1300923759, "lat": 53.1957244, "lon": 8.5312158, "tags": {"power": "substation", "ref": "1149"}}, {"type": "node", "id": 1300923770, "lat": 53.1993303, "lon": 8.5617286, "tags": {"power": "substation", "ref": "1110"}}, {"type": "node", "id": 1304564492, "lat": 53.2330484, "lon": 8.5949891, "tags": {"name": "Schwanewede Stillhorn", "operator": "EWE", "power": "substation", "ref": "51880"}}, {"type": "node", "id": 1304833761, "lat": 53.2212031, "lon": 8.790237, "tags": {"frequency": "50", "name": "Trafostation Im Steenesch", "operator": "Osterholzer Stadtwerke", "power": "substation", "substation": "minor_distribution", "voltage": "20000"}}, {"type": "node", "id": 1304974179, "lat": 53.2332822, "lon": 8.5143285, "tags": {"name": "Neuenkirchen Landstra\u00dfe", "note": "Ist dies die exakte Position?", "operator": "EWE", "power": "substation", "ref": "64655"}}, {"type": "node", "id": 1304974308, "lat": 53.2329162, "lon": 8.5425346, "tags": {"name": "Neuenkirchen Heidstra\u00dfe", "operator": "EWE", "power": "substation", "ref": "64653"}}, {"type": "node", "id": 1306144137, "lat": 53.2020934, "lon": 8.7499105, "tags": {"frequency": "50", "name": "Trafostation Am Acker", "operator": "Osterholzer Stadtwerke", "power": "substation", "substation": "minor_distribution", "voltage": "20000"}}, {"type": "node", "id": 1306144149, "lat": 53.200498, "lon": 8.749484, "tags": {"frequency": "50", "name": "Trafostation Am Fuhrenkamp 20", "operator": "Osterholzer Stadtwerke", "power": "substation", "substation": "minor_distribution", "voltage": "20000"}}, {"type": "node", "id": 1306144180, "lat": 53.1818774, "lon": 8.6805943, "tags": {"name": "Platjenwerbe Lindenhof", "operator": "EWE", "power": "substation", "ref": "40612"}}, {"type": "node", "id": 1306144242, "lat": 53.2012371, "lon": 8.74972, "tags": {"frequency": "50", "name": "Trafostation Am Fuhrenkamp 58", "operator": "Osterholzer Stadtwerke", "power": "substation", "substation": "minor_distribution", "voltage": "20000"}}, {"type": "node", "id": 1306144265, "lat": 53.2020629, "lon": 8.7661616, "tags": {"frequency": "50", "name": "Trafostation Am Rosenmoor", "operator": "Osterholzer Stadtwerke", "power": "substation", "substation": "minor_distribution", "voltage": "20000"}}, {"type": "node", "id": 1306144279, "lat": 53.1977624, "lon": 8.7459607, "tags": {"frequency": "50", "operator": "Osterholzer Stadtwerke", "power": "substation", "substation": "minor_distribution", "voltage": "20000"}}, {"type": "node", "id": 1306201949, "lat": 53.2055555, "lon": 8.7466811, "tags": {"frequency": "50", "name": "Trafostation Werschenreger Stra\u00dfe 90", "operator": "Osterholzer Stadtwerke", "power": "substation", "substation": "minor_distribution", "voltage": "20000"}}, {"type": "node", "id": 1306201982, "lat": 53.2055315, "lon": 8.7609044, "tags": {"frequency": "50", "name": "Trafostation Oberstacker 19", "operator": "Osterholzer Stadtwerke", "power": "substation", "substation": "minor_distribution", "voltage": "20000"}}, {"type": "node", "id": 1306201997, "lat": 53.1963382, "lon": 8.737455, "tags": {"frequency": "50", "operator": "Osterholzer Stadtwerke", "power": "substation", "ref": "5034", "substation": "minor_distribution", "voltage": "20000"}}, {"type": "node", "id": 1306777502, "lat": 53.1871394, "lon": 8.6911778, "tags": {"power": "substation"}}, {"type": "node", "id": 1306777510, "lat": 53.1863777, "lon": 8.6929132, "tags": {"frequency": "50", "operator": "Osterholzer Stadtwerke", "operator:wikidata": "Q124463159", "power": "substation", "substation": "minor_distribution", "voltage": "20000"}}, {"type": "node", "id": 1308194803, "lat": 53.247883, "lon": 8.6113617, "tags": {"name": "Schwanewede Schukamp", "operator": "EWE", "power": "substation", "ref": "51426"}}, {"type": "node", "id": 1308194810, "lat": 53.2483233, "lon": 8.7580077, "tags": {"frequency": "50", "location": "kiosk", "name": "Westerbeck Milit\u00e4r Anlage", "operator": "Osterholzer Stadtwerke", "power": "substation", "ref": "64524", "substation": "distribution", "voltage": "20000"}}, {"type": "node", "id": 1308194813, "lat": 53.2541539, "lon": 8.7061558, "tags": {"frequency": "50", "location": "kiosk", "name": "Heilshorn Am Waldberg", "operator": "EWE", "power": "substation", "ref": "64430", "substation": "minor_distribution", "voltage": "20000"}}, {"type": "node", "id": 1308194823, "lat": 53.2850626, "lon": 8.6091511, "tags": {"name": "Meyenburg Wasserwerk / D\u00fcngel", "operator": "EWE", "power": "substation", "ref": "64746"}}, {"type": "node", "id": 1308194824, "lat": 53.2481389, "lon": 8.7015643, "tags": {"frequency": "50", "location": "kiosk", "name": "Heilshorn Heidhofweg", "operator": "EWE", "power": "substation", "ref": "64481", "substation": "minor_distribution", "voltage": "20000"}}, {"type": "node", "id": 1308194829, "lat": 53.2784452, "lon": 8.6066647, "tags": {"name": "Meyenburg Brandberg", "operator": "EWE", "power": "substation", "ref": "64646"}}, {"type": "node", "id": 1308194837, "lat": 53.2538529, "lon": 8.7115154, "tags": {"frequency": "50", "location": "kiosk", "name": "Heilshorn Am Sportplatz", "operator": "EWE", "power": "substation", "ref": "64429", "substation": "minor_distribution", "voltage": "20000"}}, {"type": "node", "id": 1308194841, "lat": 53.2436715, "lon": 8.6016736, "tags": {"name": "Schwanewede Flachsberg", "operator": "EWE", "power": "substation", "ref": "64709"}}, {"type": "node", "id": 1308194844, "lat": 53.2823795, "lon": 8.6111831, "tags": {"name": "Meyenburg Bollmannsberg", "operator": "EWE", "power": "substation"}}, {"type": "node", "id": 1308194847, "lat": 53.2699994, "lon": 8.5993884, "tags": {"name": "Meyenburg Schwaneweder Stra\u00dfe", "operator": "EWE", "power": "substation", "ref": "64683"}}, {"type": "node", "id": 1308194849, "lat": 53.248207, "lon": 8.7582062, "tags": {"frequency": "50", "location": "kiosk", "name": "OHZ-Garlstedt Garlstedter Kirchweg 4", "operator": "Osterholzer Stadtwerke", "power": "substation", "ref": "24384", "substation": "distribution", "voltage": "20000"}}, {"type": "node", "id": 1308194851, "lat": 53.2527137, "lon": 8.7184064, "tags": {"frequency": "50", "location": "kiosk", "name": "OHZ-Heilshorn Hasenheide", "operator": "EWE", "power": "substation", "ref": "64790", "substation": "minor_distribution", "voltage": "20000"}}, {"type": "node", "id": 1308194858, "lat": 53.2723541, "lon": 8.6066303, "tags": {"name": "Meyenburg Up'n Barg", "operator": "EWE", "power": "substation", "ref": "64506", "substation": "minor_distribution"}}, {"type": "node", "id": 1308194860, "lat": 53.2521394, "lon": 8.5964272, "tags": {"name": "Schwanewede Fritz-Reuter-Weg", "operator": "EWE", "power": "substation", "ref": "64691"}}, {"type": "node", "id": 1308194865, "lat": 53.2404741, "lon": 8.7091014, "tags": {"frequency": "50", "location": "kiosk", "name": "Heilshorn Stundenweg", "operator": "EWE", "power": "substation", "ref": "50247", "substation": "minor_distribution", "voltage": "20000"}}, {"type": "node", "id": 1308194882, "lat": 53.2517349, "lon": 8.7150872, "tags": {"frequency": "50", "location": "kiosk", "name": "Heilshorn Erikaweg", "operator": "EWE", "power": "substation", "substation": "minor_distribution", "voltage": "20000"}}, {"type": "node", "id": 1308194890, "lat": 53.2282729, "lon": 8.6086055, "tags": {"name": "Schwanewede Kerkhop", "operator": "EWE", "power": "substation", "ref": "64702"}}, {"type": "node", "id": 1308272211, "lat": 53.2175593, "lon": 8.6014713, "tags": {"name": "Schwanewede Leibnizstra\u00dfe", "operator": "EWE", "power": "substation", "ref": "64589", "substation": "yes"}}, {"type": "node", "id": 1308276632, "lat": 53.2205094, "lon": 8.6023913, "tags": {"name": "Schwanewede Beethovenstra\u00dfe", "operator": "EWE", "power": "substation", "ref": "64661"}}, {"type": "node", "id": 1308283118, "lat": 53.2254937, "lon": 8.582539, "tags": {"name": "Schwanewede Zentralmarkt", "operator": "EWE", "power": "substation", "ref": "64576"}}, {"type": "node", "id": 1308283126, "lat": 53.2283262, "lon": 8.5921212, "tags": {"name": "Schwanewede Herderstra\u00dfe", "operator": "EWE", "power": "substation", "ref": "50288"}}, {"type": "node", "id": 1308285543, "lat": 53.2224653, "lon": 8.6032738, "tags": {"man_made": "street_cabinet", "name": "Schwanewede Sandbergweg", "operator": "EWE", "power": "substation", "ref": "64594", "utility": "power"}}, {"type": "node", "id": 1308658713, "lat": 53.2244019, "lon": 8.5913649, "tags": {"name": "Schwanewede Tannenberger Weg", "operator": "EWE", "power": "substation", "ref": "4/537"}}, {"type": "node", "id": 1309360148, "lat": 53.1895182, "lon": 8.7156938, "tags": {"frequency": "50", "name": "Osterhagen", "operator": "Osterholzer Stadtwerke", "power": "substation", "ref": "2966", "substation": "minor_distribution", "voltage": "20000"}}, {"type": "node", "id": 1309360149, "lat": 53.1920069, "lon": 8.7099268, "tags": {"frequency": "50", "name": "Auf den \u00c4ckern", "operator": "Osterholzer Stadtwerke", "power": "substation", "ref": "2965", "substation": "minor_distribution", "voltage": "20000"}}, {"type": "node", "id": 1310266454, "lat": 53.2342508, "lon": 8.7943113, "tags": {"frequency": "50", "location": "indoor", "name": "Trafostation Krankenhaus II", "operator": "Osterholzer Stadtwerke", "power": "substation", "substation": "minor_distribution", "voltage": "20000"}}, {"type": "node", "id": 1316034721, "lat": 53.1552645, "lon": 8.1553573, "tags": {"power": "substation"}}, {"type": "node", "id": 1345123168, "lat": 53.2746963, "lon": 8.9785972, "tags": {"name": "H\u00fcttenbusch Schulstra\u00dfe", "operator": "EWE", "power": "substation", "ref": "411/124/146"}}, {"type": "node", "id": 1345123169, "lat": 53.2601679, "lon": 8.9316848, "tags": {"frequency": "50", "location": "kiosk", "operator": "EWE", "power": "substation", "substation": "minor_distribution", "voltage": "20000"}}, {"type": "node", "id": 1345123170, "lat": 53.2734952, "lon": 8.9654699, "tags": {"name": "H\u00fcttenbusch Schule", "operator": "EWE", "power": "substation", "ref": "411/124/144", "substation": "minor_distribution"}}, {"type": "node", "id": 1345294513, "lat": 53.0890771, "lon": 8.0674613, "tags": {"frequency": "50", "operator": "EWE Netz", "power": "substation", "ref": "WJ 99 (Am D\u00fcker 18)", "substation": "minor_distribution", "voltage": "20000"}}, {"type": "node", "id": 1349426485, "lat": 53.2212237, "lon": 8.8022892, "tags": {"frequency": "50", "name": "Trafostation Berufsschule", "operator": "Osterholzer Stadtwerke", "power": "substation", "substation": "minor_distribution", "voltage": "20000"}}, {"type": "node", "id": 1349426492, "lat": 53.2229323, "lon": 8.8002642, "tags": {"frequency": "50", "name": "Trafostation Post", "operator": "Osterholzer Stadtwerke", "power": "substation", "substation": "minor_distribution", "voltage": "20000"}}, {"type": "node", "id": 1354143132, "lat": 53.2797521, "lon": 8.822686, "tags": {"name": "Hambergen Auf der Geest", "operator": "EWE", "power": "substation", "ref": "403/124/292"}}, {"type": "node", "id": 1372930876, "lat": 53.1838591, "lon": 8.739573, "tags": {"frequency": "50", "name": "Trafostation Gr\u00fcne Stra\u00dfe", "operator": "Osterholzer Stadtwerke", "power": "substation", "ref": "2831", "substation": "minor_distribution", "voltage": "20000"}}, {"type": "node", "id": 1372930957, "lat": 53.1843887, "lon": 8.7408274, "tags": {"frequency": "50", "name": "Trafostation Schillerstra\u00dfe", "operator": "Osterholzer Stadtwerke", "power": "substation", "substation": "minor_distribution", "voltage": "20000"}}, {"type": "node", "id": 1374133204, "lat": 53.1889084, "lon": 8.7583655, "tags": {"frequency": "50", "name": "Trafostation Heilshorn", "operator": "Osterholzer Stadtwerke", "power": "substation", "ref": "2813", "source": "survey", "substation": "minor_distribution", "voltage": "20000"}}, {"type": "node", "id": 1374133448, "lat": 53.1894739, "lon": 8.7589635, "tags": {"frequency": "50", "name": "Trafostation LINPAC Plastics", "operator": "Osterholzer Stadtwerke", "power": "substation", "ref": "2812", "source": "survey", "substation": "minor_distribution", "voltage": "20000"}}, {"type": "node", "id": 1374133539, "lat": 53.1910857, "lon": 8.7462311, "tags": {"frequency": "50", "name": "Trafostation Elsterstra\u00dfe", "operator": "Osterholzer Stadtwerke", "power": "substation", "ref": "2842", "source": "survey", "substation": "minor_distribution", "voltage": "20000"}}, {"type": "node", "id": 1374133574, "lat": 53.1945607, "lon": 8.7460765, "tags": {"frequency": "50", "name": "Trafostation Am Sande", "operator": "Osterholzer Stadtwerke", "power": "substation", "ref": "2844", "source": "survey", "substation": "minor_distribution", "voltage": "20000"}}, {"type": "node", "id": 1374155394, "lat": 53.1863577, "lon": 8.7532772, "tags": {"frequency": "50", "operator": "Osterholzer Stadtwerke", "power": "substation", "ref": "2819", "source": "survey", "substation": "minor_distribution", "voltage": "20000"}}, {"type": "node", "id": 1374155402, "lat": 53.1772937, "lon": 8.7484546, "tags": {"frequency": "50", "name": "Trafostation Riesstra\u00dfe", "operator": "Osterholzer Stadtwerke", "power": "substation", "ref": "2874", "source": "survey", "substation": "minor_distribution", "voltage": "20000"}}, {"type": "node", "id": 1374155418, "lat": 53.1797739, "lon": 8.7493972, "tags": {"frequency": "50", "name": "Trafostation Hegelstra\u00dfe", "operator": "Osterholzer Stadtwerke", "power": "substation", "ref": "2802", "source": "survey", "substation": "minor_distribution", "voltage": "20000"}}, {"type": "node", "id": 1374155423, "lat": 53.1808896, "lon": 8.7543018, "tags": {"frequency": "50", "name": "Trafostation Goethestra\u00dfe", "operator": "Osterholzer Stadtwerke", "power": "substation", "ref": "2804", "source": "survey", "substation": "minor_distribution", "voltage": "20000"}}, {"type": "node", "id": 1374155436, "lat": 53.2006454, "lon": 8.7550767, "tags": {"name": "Trafostation Hauptstra\u00dfe 23 / Am Kreuzacker", "operator": "Stadtwerke", "power": "substation"}}, {"type": "node", "id": 1374155442, "lat": 53.1797499, "lon": 8.7494256, "tags": {"frequency": "50", "name": "Trafostation Rathausstra\u00dfe", "operator": "Osterholzer Stadtwerke", "power": "substation", "ref": "2801", "source": "survey", "substation": "minor_distribution", "voltage": "20000"}}, {"type": "node", "id": 1374159785, "lat": 53.1834164, "lon": 8.7486156, "tags": {"frequency": "50", "name": "Trafostation Haydnstra\u00dfe", "operator": "Osterholzer Stadtwerke", "power": "substation", "ref": "2824", "source": "survey", "substation": "minor_distribution", "voltage": "20000"}}, {"type": "node", "id": 1374183043, "lat": 53.1785104, "lon": 8.7329582, "tags": {"frequency": "50", "name": "Trafostation Lehmbarg", "operator": "Osterholzer Stadtwerke", "power": "substation", "ref": "2872", "source": "survey", "substation": "minor_distribution", "voltage": "20000"}}, {"type": "node", "id": 1374183091, "lat": 53.1772406, "lon": 8.7347338, "tags": {"frequency": "50", "name": "Trafostation Kolde W\u00fcrde", "operator": "Osterholzer Stadtwerke", "power": "substation", "ref": "2871", "source": "survey", "substation": "minor_distribution", "voltage": "20000"}}, {"type": "node", "id": 1374183093, "lat": 53.1788915, "lon": 8.734833, "tags": {"frequency": "50", "name": "Trafostation Sch\u00fcttenbarg", "operator": "Osterholzer Stadtwerke", "power": "substation", "ref": "2869", "source": "survey", "substation": "minor_distribution", "voltage": "20000"}}, {"type": "node", "id": 1374183204, "lat": 53.1777903, "lon": 8.7359327, "tags": {"frequency": "50", "name": "Trafostation Erbrichterweg", "operator": "Osterholzer Stadtwerke", "power": "substation", "ref": "2870", "source": "survey", "substation": "minor_distribution", "voltage": "20000"}}, {"type": "node", "id": 1374183236, "lat": 53.175752, "lon": 8.7319604, "tags": {"frequency": "50", "name": "Trafostation Ringstra\u00dfe", "operator": "Osterholzer Stadtwerke", "power": "substation", "ref": "2833", "source": "survey", "substation": "minor_distribution", "voltage": "20000"}}, {"type": "node", "id": 1374469219, "lat": 53.1804085, "lon": 8.7331654, "tags": {"frequency": "50", "name": "Trafostation Struckbergstra\u00dfe", "operator": "Osterholzer Stadtwerke", "power": "substation", "ref": "2832", "source": "survey", "substation": "minor_distribution", "voltage": "20000"}}, {"type": "node", "id": 1374526381, "lat": 53.1818157, "lon": 8.7472808, "tags": {"frequency": "50", "name": "Trafostation Bachstra\u00dfe", "operator": "Osterholzer Stadtwerke", "power": "substation", "ref": "2877", "source": "survey", "substation": "minor_distribution", "voltage": "20000"}}, {"type": "node", "id": 1375138509, "lat": 53.191883, "lon": 8.7506353, "tags": {"frequency": "50", "name": "Trafostation Ulmenstra\u00dfe", "operator": "Osterholzer Stadtwerke", "power": "substation", "ref": "2846", "substation": "minor_distribution", "voltage": "20000"}}, {"type": "node", "id": 1375138650, "lat": 53.1930041, "lon": 8.7484327, "tags": {"frequency": "50", "name": "Trafostation Vor Vierhausen", "operator": "Osterholzer Stadtwerke", "power": "substation", "ref": "2845", "substation": "minor_distribution", "voltage": "20000"}}, {"type": "node", "id": 1385310874, "lat": 53.1871117, "lon": 8.7095747, "tags": {"frequency": "50", "name": "Trafostation Am Denkmal", "operator": "Osterholzer Stadtwerke", "power": "substation", "ref": "2850", "substation": "minor_distribution", "voltage": "20000"}}, {"type": "node", "id": 1396047281, "lat": 53.1064345, "lon": 8.1795728, "tags": {"power": "substation"}}, {"type": "node", "id": 1402696565, "lat": 53.2170933, "lon": 8.6131125, "tags": {"name": "Schwanewede Kreienmoor", "operator": "EWE", "power": "substation", "ref": "64715"}}, {"type": "node", "id": 1402696591, "lat": 53.2189465, "lon": 8.6131958, "tags": {"name": "Schwanewede Schwankenfurth", "operator": "EWE", "power": "substation", "ref": "64722"}}, {"type": "node", "id": 1402696680, "lat": 53.1920315, "lon": 8.5858407, "tags": {"frequency": "50", "man_made": "street_cabinet", "name": "Beckedorf Auetal", "operator": "EWE", "operator:wikidata": "Q1276459", "power": "substation", "ref": "22875", "substation": "minor_distribution", "utility": "power", "voltage": "20000"}}, {"type": "node", "id": 1402696746, "lat": 53.203234, "lon": 8.6245343, "tags": {"frequency": "50", "location": "kiosk", "name": "L\u00f6hnhorst Am Fosshall", "operator": "EWE", "power": "substation", "ref": "50729", "substation": "minor_distribution", "voltage": "20000"}}, {"type": "node", "id": 1402697061, "lat": 53.1919978, "lon": 8.5915993, "tags": {"frequency": "50", "man_made": "street_cabinet", "name": "Beckedorfer Feld", "operator": "EWE", "operator:wikidata": "Q1276459", "power": "substation", "ref": "51780", "substation": "minor_distribution", "utility": "power", "voltage": "20000"}}, {"type": "node", "id": 1403164151, "lat": 53.1939287, "lon": 8.6122894, "tags": {"power": "substation"}}, {"type": "node", "id": 1421277574, "lat": 53.1870067, "lon": 8.6651013, "tags": {"name": "Leuchtenburg Holthorster Weg", "operator": "EWE", "power": "substation", "ref": "23110"}}, {"type": "node", "id": 1421277575, "lat": 53.1834173, "lon": 8.6593669, "tags": {"frequency": "50", "location": "kiosk", "name": "Leuchtenburger Stra\u00dfe", "operator": "EWE", "power": "substation", "ref": "64639", "substation": "minor_distribution", "voltage": "20000"}}, {"type": "node", "id": 1421296634, "lat": 53.1601254, "lon": 8.6192613, "tags": {"operator": "EWE", "operator:wikidata": "Q1276459", "power": "substation", "substation": "minor_distribution", "voltage": "20000"}}, {"type": "node", "id": 1421296660, "lat": 53.1657808, "lon": 8.6155931, "tags": {"name": "Industriestra\u00dfe", "operator": "EWE", "power": "substation", "substation": "minor_distribution", "voltage": "20000"}}, {"type": "node", "id": 1421296672, "lat": 53.160772, "lon": 8.6002233, "tags": {"name": "Mellumring", "operator": "EWE", "power": "substation", "substation": "minor_distribution", "voltage": "20000"}}, {"type": "node", "id": 1421296686, "lat": 53.1609215, "lon": 8.6169654, "tags": {"name": "Eschhofstra\u00dfe", "operator": "EWE", "power": "substation", "substation": "minor_distribution", "voltage": "20000"}}, {"type": "node", "id": 1421296688, "lat": 53.1678216, "lon": 8.6045122, "tags": {"name": "Friedhofstra\u00dfe", "power": "substation"}}, {"type": "node", "id": 1421310782, "lat": 53.163631, "lon": 8.6128615, "tags": {"operator": "EWE", "operator:wikidata": "Q1276459", "operator:wikipedia": "de:EWE (Versorgungsunternehmen)", "power": "substation", "substation": "minor_distribution", "voltage": "20000"}}, {"type": "node", "id": 1421310844, "lat": 53.1638949, "lon": 8.610212, "tags": {"man_made": "street_cabinet", "operator": "EWE", "operator:wikidata": "Q1276459", "operator:wikipedia": "de:EWE (Versorgungsunternehmen)", "power": "substation", "street_cabinet": "power", "substation": "minor_distribution", "voltage": "20000"}}, {"type": "node", "id": 1421310846, "lat": 53.1626952, "lon": 8.6071114, "tags": {"name": "Oldenburger Stra\u00dfe", "operator": "EWE", "operator:wikidata": "Q1276459", "operator:wikipedia": "de:EWE (Versorgungsunternehmen)", "power": "substation", "substation": "minor_distribution", "voltage": "20000"}}, {"type": "node", "id": 1421310884, "lat": 53.1627435, "lon": 8.6145674, "tags": {"operator": "EWE", "power": "substation", "substation": "minor_distribution", "voltage": "20000"}}, {"type": "node", "id": 1421396048, "lat": 53.1902711, "lon": 8.7486769, "tags": {"frequency": "50", "name": "Trafostation Stettiner Stra\u00dfe", "operator": "Osterholzer Stadtwerke", "power": "substation", "ref": "2817", "source": "survey", "substation": "minor_distribution", "voltage": "20000"}}, {"type": "node", "id": 1421396204, "lat": 53.1857536, "lon": 8.753856, "tags": {"frequency": "50", "operator": "Osterholzer Stadtwerke", "power": "substation", "ref": "2820", "source": "survey", "substation": "minor_distribution", "voltage": "20000"}}, {"type": "node", "id": 1448523165, "lat": 53.2747402, "lon": 8.7277125, "tags": {"frequency": "50", "location": "kiosk", "name": "OHZ-Garlstedt H\u00fclseberger Stra\u00dfe", "operator": "EWE", "power": "substation", "ref": "64254", "substation": "minor_distribution", "voltage": "20000"}}, {"type": "node", "id": 1448523167, "lat": 53.2781483, "lon": 8.7101717, "tags": {"frequency": "50", "location": "kiosk", "name": "OHZ-Garlstedt Flitteresche", "note": "member of RA23", "operator": "EWE", "power": "substation", "ref": "51445", "substation": "minor_distribution", "voltage": "20000"}}, {"type": "node", "id": 1448523168, "lat": 53.2703789, "lon": 8.7234944, "tags": {"frequency": "50", "location": "kiosk", "name": "OHZ-Garlstedt Kirchacker", "operator": "EWE", "power": "substation", "substation": "minor_distribution", "voltage": "20000"}}, {"type": "node", "id": 1449768307, "lat": 53.1858397, "lon": 8.7358043, "tags": {"frequency": "50", "operator": "Osterholzer Stadtwerke", "power": "substation", "ref": "2829", "substation": "minor_distribution", "voltage": "20000"}}, {"type": "node", "id": 1449768344, "lat": 53.1870147, "lon": 8.7354393, "tags": {"frequency": "50", "operator": "Osterholzer Stadtwerke", "power": "substation", "ref": "2827", "substation": "minor_distribution", "voltage": "20000"}}, {"type": "node", "id": 1449768374, "lat": 53.1865453, "lon": 8.7355146, "tags": {"frequency": "50", "operator": "Osterholzer Stadtwerke", "power": "substation", "ref": "2830", "substation": "minor_distribution", "voltage": "20000"}}, {"type": "node", "id": 1449853704, "lat": 53.1927068, "lon": 8.7445535, "tags": {"frequency": "50", "name": "Trafostation Val-de-Reuil-Stra\u00dfe", "operator": "Osterholzer Stadtwerke", "power": "substation", "ref": "2843", "source": "survey", "substation": "minor_distribution", "voltage": "20000"}}, {"type": "node", "id": 1449888352, "lat": 53.2039247, "lon": 8.7023617, "tags": {"name": "Stendorf An der B 6 Nr. 8", "operator": "EWE", "power": "substation", "ref": "23109"}}, {"type": "node", "id": 1483188396, "lat": 53.0923993, "lon": 8.8096603, "tags": {"operator": "swb", "power": "substation", "ref": "1871"}}, {"type": "node", "id": 1497138218, "lat": 53.1282248, "lon": 8.1678276, "tags": {"man_made": "street_cabinet", "power": "substation", "street_cabinet": "power", "substation": "minor_distribution"}}, {"type": "node", "id": 1539661328, "lat": 53.1089715, "lon": 8.2343542, "tags": {"addr:housenumber": "197", "addr:street": "Klingenbergstra\u00dfe", "frequency": "50", "name": "OD61", "operator": "EWE_Netz", "power": "substation", "ref": "OL Klingenbergstra\u00dfe Schule", "voltage": "20000"}}, {"type": "node", "id": 1539661330, "lat": 53.1108717, "lon": 8.2283101, "tags": {"addr:street": "F\u00fcrstenwalder Stra\u00dfe", "frequency": "50", "location": "indoor", "name": "OM08", "operator": "EWE_Netz", "power": "substation", "ref": "OL F\u00fcrstenwalder Stra\u00dfe", "substation": "minor_distribution", "voltage": "20000"}}, {"type": "node", "id": 1570775933, "lat": 53.0946856, "lon": 8.8154741, "tags": {"operator": "swb", "power": "substation", "ref": "830", "substation": "minor_distribution"}}, {"type": "node", "id": 1582574704, "lat": 53.1249927, "lon": 8.2251576, "tags": {"man_made": "street_cabinet", "operator": "EWE", "operator:wikidata": "Q1276459", "power": "substation", "substation": "minor_distribution", "utility": "power"}}, {"type": "node", "id": 1582574708, "lat": 53.1252385, "lon": 8.2234686, "tags": {"operator": "EWE", "operator:wikidata": "Q1276459", "power": "substation"}}, {"type": "node", "id": 1704654608, "lat": 53.1246113, "lon": 8.0918774, "tags": {"frequency": "50", "operator": "EWE Netz", "operator:wikidata": "Q42825991", "power": "substation", "substation": "minor_distribution", "voltage": "20000"}}, {"type": "node", "id": 1704773233, "lat": 53.1186739, "lon": 8.0973319, "tags": {"frequency": "50", "operator": "EWE Netz", "power": "substation", "substation": "minor_distribution", "voltage": "20000"}}, {"type": "node", "id": 1716932266, "lat": 52.9966709, "lon": 9.1116945, "tags": {"power": "substation"}}, {"type": "node", "id": 1719373995, "lat": 52.9279014, "lon": 9.138077, "tags": {"power": "substation", "substation": "minor_distribution"}}, {"type": "node", "id": 1721224608, "lat": 53.1415781, "lon": 8.713593, "tags": {"power": "substation", "ref": "2507", "source": "survey", "substation": "minor_distribution"}}, {"type": "node", "id": 1725112825, "lat": 53.027053, "lon": 8.0707521, "tags": {"frequency": "50", "operator": "EWE Netz", "power": "substation", "ref": "CJ 63 (Petersdorf Lutzweg)", "substation": "minor_distribution", "voltage": "20000"}}, {"type": "node", "id": 1725201506, "lat": 53.0202287, "lon": 8.0605565, "tags": {"frequency": "50", "operator": "EWE Netz", "power": "substation", "ref": "CJ 63 (Petersdorf Benthullener Str.)", "substation": "minor_distribution", "voltage": "20000"}}, {"type": "node", "id": 1775533613, "lat": 53.0268865, "lon": 8.6442539, "tags": {"frequency": "50", "name": "DEL Annenriede", "operator": "EWE Netz", "power": "substation", "ref": "DS 35", "substation": "minor_distribution", "voltage": "20000"}}, {"type": "node", "id": 1793786363, "lat": 53.0221391, "lon": 8.6217524, "tags": {"frequency": "50", "name": "DEL Dresdener Stra\u00dfe", "operator": "EWE Netz", "power": "substation", "ref": "DS 14", "substation": "minor_distribution", "voltage": "20000"}}, {"type": "node", "id": 1798815693, "lat": 53.0387417, "lon": 8.6766258, "tags": {"man_made": "street_cabinet", "operator": "EWE", "operator:wikidata": "Q1276459", "operator:wikipedia": "de:EWE (Versorgungsunternehmen)", "power": "substation", "ref": "DEL OBI-Markt EWE 26362", "street_cabinet": "power", "substation": "minor_distribution", "voltage": "20000"}}, {"type": "node", "id": 1848073400, "lat": 53.2241699, "lon": 8.5957306, "tags": {"operator": "EWE", "operator:wikidata": "Q1276459", "power": "substation", "ref": "64744"}}, {"type": "node", "id": 1849541726, "lat": 52.9662573, "lon": 8.4987345, "tags": {"frequency": "50", "man_made": "street_cabinet", "name": "Uhlhorn Landriede SV", "operator": "EWE Netz", "power": "substation", "ref": "DP 91", "street_cabinet": "power", "substation": "minor_distribution", "voltage": "20000"}}, {"type": "node", "id": 1898737960, "lat": 53.156429, "lon": 8.9211847, "tags": {"frequency": "50", "name": "Station Am Uhlenbrookgraben", "operator": "Osterholzer Stadtwerke", "operator:wikidata": "Q1740682", "power": "substation", "ref": "66", "source": "survey", "substation": "minor_distribution", "voltage": "20000"}}, {"type": "node", "id": 1898737985, "lat": 53.1598697, "lon": 8.9231468, "tags": {"frequency": "50", "name": "Station Auf dem Kamp", "operator": "Osterholzer Stadtwerke", "operator:wikidata": "Q1740682", "power": "substation", "ref": "39", "source": "survey", "substation": "minor_distribution", "voltage": "20000"}}, {"type": "node", "id": 1898738007, "lat": 53.1411817, "lon": 8.9063397, "tags": {"frequency": "50", "name": "Station Bahnhofstra\u00dfe", "operator": "Osterholzer Stadtwerke", "power": "substation", "ref": "4", "source": "survey", "voltage": "20000"}}, {"type": "node", "id": 1898738018, "lat": 53.1512173, "lon": 8.9304397, "tags": {"frequency": "50", "name": "Station Brauereiweg", "operator": "Osterholzer Stadtwerke", "operator:wikidata": "Q1740682", "power": "substation", "ref": "63", "source": "survey", "substation": "minor_distribution", "voltage": "20000"}}, {"type": "node", "id": 1898738028, "lat": 53.1367527, "lon": 8.8980099, "tags": {"frequency": "50", "name": "Station Doktor-H\u00fcnerhoff-Stra\u00dfe", "operator": "Osterholzer Stadtwerke", "power": "substation", "ref": "1", "source": "survey", "voltage": "20000"}}, {"type": "node", "id": 1898738032, "lat": 53.1527221, "lon": 8.9290176, "tags": {"frequency": "50", "name": "Station Falkenweg", "operator": "Osterholzer Stadtwerke", "operator:wikidata": "Q1740682", "power": "substation", "ref": "48", "source": "survey", "substation": "minor_distribution", "voltage": "20000"}}, {"type": "node", "id": 1898738057, "lat": 53.1575473, "lon": 8.9206671, "tags": {"frequency": "50", "name": "Station Fr.Wilhelm-Raasch-Stra\u00dfe", "operator": "Osterholzer Stadtwerke", "operator:wikidata": "Q1740682", "power": "substation", "ref": "65", "source": "survey", "substation": "minor_distribution", "voltage": "20000"}}, {"type": "node", "id": 1898738060, "lat": 53.1556965, "lon": 8.9173794, "tags": {"frequency": "50", "name": "Station Gertrud-Scheene-Stra\u00dfe", "operator": "Osterholzer Stadtwerke", "operator:wikidata": "Q1740682", "power": "substation", "ref": "68", "source": "survey", "substation": "minor_distribution", "voltage": "20000"}}, {"type": "node", "id": 1898738063, "lat": 53.1552625, "lon": 8.9190304, "tags": {"frequency": "50", "name": "Station Heidloge", "operator": "Osterholzer Stadtwerke", "operator:wikidata": "Q1740682", "power": "substation", "ref": "67", "source": "survey", "substation": "minor_distribution", "voltage": "20000"}}, {"type": "node", "id": 1898738065, "lat": 53.1543829, "lon": 8.9156894, "tags": {"frequency": "50", "name": "Station Im \u00d6kodorf", "operator": "Osterholzer Stadtwerke", "operator:wikidata": "Q1740682", "power": "substation", "ref": "69", "source": "survey", "substation": "minor_distribution", "voltage": "20000"}}, {"type": "node", "id": 1898738077, "lat": 53.1528404, "lon": 8.9271528, "tags": {"frequency": "50", "name": "Station K\u00f6nigsbergerstra\u00dfe", "operator": "Osterholzer Stadtwerke", "operator:wikidata": "Q1740682", "power": "substation", "ref": "49", "source": "survey", "substation": "minor_distribution", "voltage": "20000"}}, {"type": "node", "id": 1898738078, "lat": 53.15299, "lon": 8.9306146, "tags": {"frequency": "50", "name": "Station Molkerei", "operator": "Osterholzer Stadtwerke", "operator:wikidata": "Q1740682", "power": "substation", "ref": "47", "source": "survey", "substation": "minor_distribution", "voltage": "20000"}}, {"type": "node", "id": 1898738097, "lat": 53.1533727, "lon": 8.9255447, "tags": {"frequency": "50", "name": "Station Pillauer Stra\u00dfe", "operator": "Osterholzer Stadtwerke", "operator:wikidata": "Q1740682", "power": "substation", "ref": "67", "source": "survey", "substation": "minor_distribution", "voltage": "20000"}}, {"type": "node", "id": 1907337608, "lat": 53.2191657, "lon": 8.9397765, "tags": {"frequency": "50", "location": "kiosk", "name": "Worpswede Kantstra\u00dfe", "operator": "EWE", "power": "substation", "ref": "64870", "substation": "minor_distribution", "voltage": "20000"}}, {"type": "node", "id": 1907337609, "lat": 53.2243634, "lon": 8.9344783, "tags": {"frequency": "50", "location": "kiosk", "name": "Worpswede Im Schluh", "operator": "EWE", "power": "substation", "ref": "21331", "substation": "minor_distribution", "voltage": "20000"}}, {"type": "node", "id": 1907337611, "lat": 53.2264254, "lon": 8.928805, "tags": {"frequency": "50", "location": "kiosk", "name": "Worpswede Kattenpad", "operator": "EWE", "power": "substation", "ref": "64809", "substation": "minor_distribution", "voltage": "20000"}}, {"type": "node", "id": 1907337612, "lat": 53.2341998, "lon": 8.9498455, "tags": {"frequency": "50", "location": "kiosk", "name": "Worpswede Schlu\u00dfdorfer Stra\u00dfe", "operator": "EWE", "power": "substation", "ref": "64876", "substation": "minor_distribution", "voltage": "20000"}}, {"type": "node", "id": 1907337613, "lat": 53.2243234, "lon": 8.9190372, "tags": {"frequency": "50", "location": "kiosk", "name": "Worpswede Schule", "operator": "EWE", "power": "substation", "ref": "64843", "substation": "minor_distribution", "voltage": "20000"}}, {"type": "node", "id": 1909596695, "lat": 53.1743814, "lon": 8.7233666, "tags": {"power": "substation"}}, {"type": "node", "id": 1911102590, "lat": 53.1713753, "lon": 8.7253546, "tags": {"power": "substation"}}, {"type": "node", "id": 1911333806, "lat": 53.1685673, "lon": 8.7024149, "tags": {"power": "substation"}}, {"type": "node", "id": 1911357238, "lat": 53.1734236, "lon": 8.6976245, "tags": {"power": "substation"}}, {"type": "node", "id": 1912830448, "lat": 53.2524683, "lon": 8.7048138, "tags": {"designation": "EWE", "frequency": "50", "location": "kiosk", "power": "substation", "substation": "minor_distribution", "voltage": "20000"}}, {"type": "node", "id": 1922555893, "lat": 53.0920439, "lon": 8.8010625, "tags": {"power": "substation"}}, {"type": "node", "id": 1923953336, "lat": 52.9089901, "lon": 8.5938487, "tags": {"power": "substation", "source": "Survey", "substation": "distribution"}}, {"type": "node", "id": 1994441048, "lat": 52.8107235, "lon": 8.1664451, "tags": {"power": "substation"}}, {"type": "node", "id": 2018674267, "lat": 52.9298999, "lon": 8.6449435, "tags": {"power": "substation"}}, {"type": "node", "id": 2085977719, "lat": 53.1074812, "lon": 8.0928499, "tags": {"frequency": "50", "operator": "EWE Netz", "power": "substation", "substation": "minor_distribution", "voltage": "20000"}}, {"type": "node", "id": 2088212670, "lat": 52.884316, "lon": 8.0572407, "tags": {"operator": "EWE Netz AG", "power": "substation"}}, {"type": "node", "id": 2125082049, "lat": 53.1280821, "lon": 8.0983959, "tags": {"frequency": "50", "operator": "EWE Netz", "operator:wikidata": "Q42825991", "power": "substation", "ref": "0C33", "substation": "minor_distribution", "voltage": "20000"}}, {"type": "node", "id": 2142258895, "lat": 53.0946176, "lon": 8.7797014, "tags": {"frequency": "50", "operator": "swb", "power": "substation", "ref": "759", "substation": "minor_distribution", "voltage": "10000"}}, {"type": "node", "id": 2270983278, "lat": 53.2888932, "lon": 8.7586524, "tags": {"frequency": "50", "location": "kiosk", "name": "OHZ-Ohlenstedt Campingplatz", "operator": "Osterholzer Stadtwerke", "power": "substation", "ref": "51106", "substation": "minor_distribution", "voltage": "20000"}}, {"type": "node", "id": 2270983279, "lat": 53.2848535, "lon": 8.7517671, "tags": {"frequency": "50", "location": "kiosk", "name": "OHZ-H\u00fclseberg Friedhof", "operator": "Osterholzer Stadtwerke", "power": "substation", "ref": "51120", "substation": "minor_distribution", "voltage": "20000"}},