{"version": 0.6, "generator": "Overpass API 0.7.62.8 e802775f", "osm3s": {"timestamp_osm_base": "2025-11-17T18:27:06Z", "copyright": "The data included in this document is from www.openstreetmap.org. The data is made available under ODbL."}, "elements": [{"type": "node", "id": 544972782, "lat": 45.1469451, "lon": 5.7907342, "tags": {"operator": "Enedis", "operator:wikidata": "Q3587594", "power": "substation", "source": "cadastre-dgi-fr source : Direction G\u00e9n\u00e9rale des Imp\u00f4ts - Cadastre;mise \u00e0 jour :2009"}}, {"type": "node", "id": 1201815682, "lat": 45.1429754, "lon": 5.7221536, "tags": {"location": "indoor", "name": "Langevin 1", "operator": "Enedis", "operator:wikidata": "Q3587594", "power": "substation", "ref:FR:gdo": "38151P0234", "source": "Photos g\u00e9olocalis\u00e9es", "substation": "minor_distribution", "voltage": "20000;400"}}, {"type": "node", "id": 1240241301, "lat": 45.564227, "lon": 5.911456, "tags": {"location": "indoor", "name": "Transfusion Sanguine", "operator": "Enedis", "operator:wikidata": "Q3587594", "power": "substation", "ref:FR:gdo": "73065P1005", "substation": "minor_distribution", "voltage": "20000;400"}}, {"type": "node", "id": 1469699639, "lat": 45.1871977, "lon": 5.7751936, "tags": {"operator": "Enedis", "operator:wikidata": "Q3587594", "power": "substation", "source": "cadastre-dgi-fr source : Direction G\u00e9n\u00e9rale des Imp\u00f4ts - Cadastre;mise \u00e0 jour : 2011"}}, {"type": "node", "id": 1685111373, "lat": 45.2293836, "lon": 5.5813433, "tags": {"location": "indoor", "name": "Sure", "operator": "Enedis", "operator:wikidata": "Q3587594", "power": "substation", "ref:FR:gdo": "38021P1014", "substation": "minor_distribution", "voltage": "20000;400"}}, {"type": "node", "id": 1976523461, "lat": 45.0553358, "lon": 6.0804718, "tags": {"operator": "Enedis", "operator:wikidata": "Q3587594", "power": "substation"}}, {"type": "node", "id": 2012494230, "lat": 45.1438747, "lon": 5.7175862, "tags": {"location": "indoor", "name": "HLM Mairie", "operator": "Enedis", "operator:wikidata": "Q3587594", "power": "substation", "ref:FR:gdo": "38151P0217", "source": "Enedis - 06/2018", "substation": "minor_distribution", "voltage": "20000;400"}}, {"type": "node", "id": 2261624722, "lat": 45.3768509, "lon": 5.6948745, "tags": {"operator": "Enedis", "operator:wikidata": "Q3587594", "power": "substation"}}, {"type": "node", "id": 2261642885, "lat": 45.3743283, "lon": 5.6979585, "tags": {"operator": "Enedis", "operator:wikidata": "Q3587594", "power": "substation"}}, {"type": "node", "id": 2421529751, "lat": 45.0179746, "lon": 6.1244226, "tags": {"location": "indoor", "name": "Vall\u00e9e Blanche", "operator": "Enedis", "operator:wikidata": "Q3587594", "power": "substation", "ref:FR:gdo": "38253P1001", "substation": "minor_distribution", "voltage": "20000;400"}}, {"type": "node", "id": 2426415199, "lat": 44.9901319, "lon": 6.1164899, "tags": {"location": "indoor", "name": "Le Sellier", "operator": "Enedis", "operator:wikidata": "Q3587594", "power": "substation", "ref:FR:gdo": "38534P0037", "substation": "minor_distribution", "voltage": "20000;400"}}, {"type": "node", "id": 2447999172, "lat": 45.5584573, "lon": 5.2521204, "tags": {"operator": "Enedis", "operator:wikidata": "Q3587594", "power": "substation", "substation": "minor_distribution", "voltage": "20000;400"}}, {"type": "node", "id": 2461329946, "lat": 45.0222476, "lon": 6.1244511, "tags": {"location": "indoor", "name": "Jardin Alpin", "operator": "Enedis", "operator:wikidata": "Q3587594", "power": "substation", "ref:FR:gdo": "38253P0060", "substation": "minor_distribution", "voltage": "20000;400"}}, {"type": "node", "id": 2461329948, "lat": 45.0225282, "lon": 6.1249685, "tags": {"location": "indoor", "name": "Petit Plan", "operator": "Enedis", "operator:wikidata": "Q3587594", "power": "substation", "substation": "minor_distribution", "voltage": "20000;400"}}, {"type": "node", "id": 2476348431, "lat": 45.6942961, "lon": 5.1257308, "tags": {"building": "service", "location": "indoor", "name": "Salle Polyvalente", "operator": "Enedis", "operator:wikidata": "Q3587594", "power": "substation", "ref:FR:gdo": "38475P0008", "substation": "minor_distribution", "utility": "power", "voltage": "20000;400"}}, {"type": "node", "id": 2480930514, "lat": 45.0040415, "lon": 6.1223107, "tags": {"location": "indoor", "name": "Zac de la Place", "operator": "Enedis", "operator:wikidata": "Q3587594", "power": "substation", "ref:FR:gdo": "38534P0020", "substation": "minor_distribution", "voltage": "20000;400"}}, {"type": "node", "id": 2488782083, "lat": 45.5614851, "lon": 5.915523, "tags": {"addr:housenumber": "21", "addr:postcode": "73000", "addr:street": "Rue du Chaney", "location": "indoor", "name": "21 Rue du Chaney", "operator": "Enedis", "operator:wikidata": "Q3587594", "power": "substation", "ref:FR:gdo": "73137P0013", "substation": "minor_distribution", "voltage": "20000;400"}}, {"type": "node", "id": 2503389544, "lat": 45.5592313, "lon": 5.3983212, "tags": {"man_made": "street_cabinet", "operator": "Enedis", "operator:wikidata": "Q3587594", "power": "substation", "substation": "minor_distribution", "utility": "power", "voltage": "20000;400"}}, {"type": "node", "id": 2686489578, "lat": 45.1317278, "lon": 5.736022, "tags": {"operator": "Enedis", "operator:wikidata": "Q3587594", "power": "substation", "ref:FR:gdo": "38200P0033", "source": "cadastre-dgi-fr source : Direction G\u00e9n\u00e9rale des Imp\u00f4ts - Cadastre ; mise \u00e0 jour :2012", "voltage": "20000"}}, {"type": "node", "id": 2686489956, "lat": 45.1435353, "lon": 5.7478332, "tags": {"building": "service", "location": "indoor", "operator": "Enedis", "operator:wikidata": "Q3587594", "power": "substation", "ref:FR:gdo": "38158P0210", "source": "Enedis - 06/2018", "substation": "minor_distribution", "utility": "power", "voltage": "20000;400"}}, {"type": "node", "id": 3052021482, "lat": 45.1165642, "lon": 5.7828385, "tags": {"name": "Montiou", "operator": "Enedis", "operator:wikidata": "Q3587594", "power": "substation", "ref": "Montiou 38059P00018", "ref:FR:gdo": "38059P0018", "source": "cadastre-dgi-fr source : Direction G\u00e9n\u00e9rale des Imp\u00f4ts - Cadastre. Mise \u00e0 jour : 2014", "substation": "minor_distribution", "voltage": "20000"}}, {"type": "node", "id": 3175015716, "lat": 45.1992987, "lon": 5.6821254, "tags": {"location": "indoor", "name": "Marat", "operator": "Enedis", "operator:wikidata": "Q3587594", "power": "substation", "ref": "Marat 38 169 267", "ref:FR:gdo": "38169P0267", "source": "cadastre-dgi-fr source : Direction G\u00e9n\u00e9rale des Imp\u00f4ts - Cadastre ; mise \u00e0 jour :2012", "voltage": "20000"}}, {"type": "node", "id": 3402735271, "lat": 45.6851736, "lon": 5.8524813, "tags": {"location": "indoor", "name": "Tunnel du Chat Est", "operator": "Enedis", "operator:wikidata": "Q3587594", "power": "substation", "ref:FR:gdo": "73030P1012", "substation": "minor_distribution"}}, {"type": "node", "id": 3508812813, "lat": 45.6059707, "lon": 5.8743801, "tags": {"building": "yes", "name": "Grands Champs", "operator": "Enedis", "operator:wikidata": "Q3587594", "power": "substation", "ref:FR:gdo": "73179P0126", "source": "cadastre-dgi-fr source : Direction G\u00e9n\u00e9rale des Imp\u00f4ts - Cadastre. Mise \u00e0 jour : 2012", "substation": "minor_distribution", "utility": "power", "voltage": "20000;400"}}, {"type": "node", "id": 3644907888, "lat": 45.5637321, "lon": 5.9238688, "tags": {"operator": "Enedis", "operator:wikidata": "Q3587594", "power": "substation", "ref": "73C65PC242", "short_name": "DDTMO"}}, {"type": "node", "id": 3644907890, "lat": 45.5801838, "lon": 5.9059709, "tags": {"name": "PAE Les Fontanettes", "operator": "Enedis", "operator:wikidata": "Q3587594", "operator:wikipedia": "fr:Enedis", "power": "substation", "ref:FR:gdo": "73065P0265", "substation": "minor_distribution", "voltage": "20000;400"}}, {"type": "node", "id": 3644907892, "lat": 45.5674527, "lon": 5.9192542, "tags": {"location": "indoor", "name": "11 Rue Doppet", "operator": "Enedis", "operator:wikidata": "Q3587594", "power": "substation", "ref:FR:gdo": "73065P0043", "substation": "minor_distribution", "voltage": "20000;400"}}, {"type": "node", "id": 3661671642, "lat": 45.187756, "lon": 5.7487141, "tags": {"operator": "Enedis", "operator:wikidata": "Q3587594", "power": "substation", "ref:FR:gdo": "38421P222"}}, {"type": "node", "id": 3694074703, "lat": 45.4787591, "lon": 5.5513155, "tags": {"name": "Veyssin", "operator": "Enedis", "operator:wikidata": "Q3587594", "power": "substation", "source": "GPS+local survey", "substation": "minor_distribution", "voltage": "20000;400"}}, {"type": "node", "id": 3708905404, "lat": 45.4672655, "lon": 5.6607953, "tags": {"man_made": "street_cabinet", "operator": "Enedis", "operator:wikidata": "Q3587594", "power": "substation", "ref:FR:gdo": "38386P0020", "substation": "minor_distribution", "utility": "power", "voltage": "20000"}}, {"type": "node", "id": 3761786349, "lat": 45.5647074, "lon": 5.9288292, "tags": {"location": "indoor", "name": "Pompes Pasteur", "operator": "Enedis", "operator:wikidata": "Q3587594", "power": "substation", "ref:FR:gdo": "73065P0097", "substation": "minor_distribution", "voltage": "20000;400"}}, {"type": "node", "id": 3863210605, "lat": 45.7356123, "lon": 6.0982113, "tags": {"location": "outdoor", "operator": "Enedis", "operator:wikidata": "Q3587594", "power": "substation", "substation": "minor_distribution", "voltage": "20000;400"}}, {"type": "node", "id": 3918764889, "lat": 45.1986663, "lon": 5.7253279, "tags": {"name": "615", "operator": "GreenAlp", "operator:wikidata": "Q115580260", "power": "substation", "ref": "615", "substation": "minor_distribution", "survey:date": "2024-09-20", "voltage": "20000;400"}}, {"type": "node", "id": 3994317388, "lat": 45.2546085, "lon": 5.7710733, "tags": {"name": "Le Gouillat", "operator": "Enedis", "operator:wikidata": "Q3587594", "power": "substation", "ref:FR:gdo": "38471P0213"}}, {"type": "node", "id": 4070023767, "lat": 45.6846385, "lon": 5.853235, "tags": {"location": "indoor", "name": "Poste Allegrets", "operator": "Enedis", "operator:wikidata": "Q3587594", "power": "substation", "ref:FR:gdo": "73050P0008", "substation": "minor_distribution"}}, {"type": "node", "id": 4133841441, "lat": 45.0433351, "lon": 5.6747604, "tags": {"name": "P\u00e9age du Crozet", "operator": "Enedis", "operator:wikidata": "Q3587594", "power": "substation", "ref:FR:gdo": "38545P0057", "substation": "minor_distribution"}}, {"type": "node", "id": 4307448833, "lat": 45.5661359, "lon": 5.9192636, "tags": {"addr:city": "Chamb\u00e9ry", "addr:housenumber": "7", "addr:postcode": "73000", "location": "indoor", "name": "7 Rue Bonivard", "operator": "Enedis", "operator:wikidata": "Q3587594", "power": "substation", "ref:FR:gdo": "73065P0045", "substation": "minor_distribution", "voltage": "20000;400"}}, {"type": "node", "id": 4332443297, "lat": 45.205031, "lon": 6.0433945, "tags": {"location": "pavement", "man_made": "street_cabinet", "name": "Ch\u00e2teau", "operator": "Enedis", "operator:wikidata": "Q3587594", "power": "substation", "ref:FR:gdo": "38005P0007", "substation": "minor_distribution", "utility": "power", "voltage": "20000"}}, {"type": "node", "id": 4360082514, "lat": 45.5663819, "lon": 5.924001, "tags": {"location": "indoor", "name": "Banque de Savoie", "operator": "Enedis", "operator:wikidata": "Q3587594", "power": "substation", "ref:FR:gdo": "73065P1046", "substation": "minor_distribution", "voltage": "20000;400"}}, {"type": "node", "id": 4360082521, "lat": 45.5658718, "lon": 5.9204828, "tags": {"addr:city": "Chamb\u00e9ry", "addr:housenumber": "1", "addr:postcode": "73000", "location": "indoor", "name": "1 Rue de Lans", "operator": "Enedis", "operator:wikidata": "Q3587594", "power": "substation", "ref:FR:gdo": "73065P0235", "substation": "minor_distribution", "voltage": "20000;400"}}, {"type": "node", "id": 4806554896, "lat": 45.2202032, "lon": 5.9276585, "tags": {"man_made": "street_cabinet", "operator": "Enedis", "operator:wikidata": "Q3587594", "power": "substation", "substation": "minor_distribution", "utility": "power", "voltage": "20000;400"}}, {"type": "node", "id": 4870712199, "lat": 45.6845152, "lon": 5.4220359, "tags": {"design:ref": "PSSA", "location": "green", "man_made": "street_cabinet", "name": "Ch\u00e2teau", "operator": "Enedis", "operator:wikidata": "Q3587594", "power": "substation", "ref:FR:gdo": "38297P0040", "substation": "minor_distribution", "transformer": "distribution", "utility": "power", "voltage:primary": "20000", "voltage:secondary": "400"}}, {"type": "node", "id": 4870712871, "lat": 45.7048779, "lon": 5.369008, "tags": {"man_made": "street_cabinet", "operator": "Enedis", "operator:wikidata": "Q3587594", "power": "substation", "substation": "minor_distribution", "utility": "power", "voltage": "20000;400"}}, {"type": "node", "id": 4870712872, "lat": 45.7035213, "lon": 5.3822131, "tags": {"man_made": "street_cabinet", "operator": "Enedis", "operator:wikidata": "Q3587594", "power": "substation", "substation": "minor_distribution", "utility": "power", "voltage": "20000;400"}}, {"type": "node", "id": 4870712996, "lat": 45.6940366, "lon": 5.427281, "tags": {"operator": "Enedis", "operator:wikidata": "Q3587594", "power": "substation", "substation": "minor_distribution", "utility": "power", "voltage": "20000;400"}}, {"type": "node", "id": 4884378031, "lat": 45.4989937, "lon": 6.1003102, "tags": {"man_made": "street_cabinet", "operator": "Enedis", "operator:wikidata": "Q3587594", "power": "substation", "substation": "minor_distribution", "utility": "power", "voltage": "20000;400"}}, {"type": "node", "id": 4884378052, "lat": 45.4816469, "lon": 6.0500738, "tags": {"man_made": "street_cabinet", "operator": "Enedis", "operator:wikidata": "Q3587594", "power": "substation", "substation": "minor_distribution", "utility": "power", "voltage": "20000;400"}}, {"type": "node", "id": 4963091919, "lat": 45.7694351, "lon": 5.922398, "tags": {"man_made": "street_cabinet", "operator": "Enedis", "operator:wikidata": "Q3587594", "power": "substation", "substation": "minor_distribution", "utility": "power", "voltage": "20000;400"}}, {"type": "node", "id": 4963103094, "lat": 45.74197, "lon": 5.9618627, "tags": {"man_made": "street_cabinet", "operator": "Enedis", "operator:wikidata": "Q3587594", "power": "substation", "substation": "minor_distribution", "switch": "mechanical", "utility": "power", "voltage": "20000;400"}}, {"type": "node", "id": 4963103154, "lat": 45.7362853, "lon": 5.9882127, "tags": {"location": "green", "man_made": "street_cabinet", "operator": "Enedis", "operator:wikidata": "Q3587594", "power": "substation", "substation": "minor_distribution", "transformer": "main", "utility": "power", "voltage:primary": "20000", "voltage:secondary": "400"}}, {"type": "node", "id": 4988787211, "lat": 45.6790101, "lon": 5.9802036, "tags": {"man_made": "street_cabinet", "operator": "Enedis", "operator:wikidata": "Q3587594", "power": "substation", "substation": "minor_distribution", "utility": "power", "voltage": "20000;400"}}, {"type": "node", "id": 4988787212, "lat": 45.6733203, "lon": 5.9751657, "tags": {"man_made": "street_cabinet", "operator": "Enedis", "operator:wikidata": "Q3587594", "power": "substation", "substation": "minor_distribution", "utility": "power", "voltage": "20000;400"}}, {"type": "node", "id": 4988788333, "lat": 45.6851031, "lon": 5.9385744, "tags": {"design:ref": "PSSA", "man_made": "street_cabinet", "mapillary": "5640126006060311", "operator": "Enedis", "operator:wikidata": "Q3587594", "power": "substation", "street_cabinet": "power", "substation": "minor_distribution", "survey:date": "2018-07-21", "voltage": "20000;400"}}, {"type": "node", "id": 4988788357, "lat": 45.7099384, "lon": 5.9573807, "tags": {"man_made": "street_cabinet", "operator": "Enedis", "operator:wikidata": "Q3587594", "power": "substation", "substation": "minor_distribution", "utility": "power", "voltage": "20000;400"}}, {"type": "node", "id": 4988788493, "lat": 45.7382842, "lon": 5.9224556, "tags": {"man_made": "street_cabinet", "operator": "Enedis", "operator:wikidata": "Q3587594", "power": "substation", "substation": "distribution", "utility": "power", "voltage": "20000"}}, {"type": "node", "id": 5043360961, "lat": 45.6119304, "lon": 5.8426572, "tags": {"design:ref": "PSSB", "man_made": "street_cabinet", "operator": "Enedis", "operator:wikidata": "Q3587594", "power": "substation", "substation": "minor_distribution", "utility": "power", "voltage": "20000;400"}}, {"type": "node", "id": 5043360962, "lat": 45.6085423, "lon": 5.8406489, "tags": {"design:ref": "PSSA", "man_made": "street_cabinet", "operator": "Enedis", "operator:wikidata": "Q3587594", "power": "substation", "substation": "minor_distribution", "utility": "power", "voltage": "20000;400"}}, {"type": "node", "id": 5043360995, "lat": 45.596576, "lon": 5.8482711, "tags": {"man_made": "street_cabinet", "operator": "Enedis", "operator:wikidata": "Q3587594", "power": "substation", "street_cabinet": "power", "substation": "minor_distribution", "voltage": "20000;400"}}, {"type": "node", "id": 5043369163, "lat": 45.6185874, "lon": 5.8489068, "tags": {"man_made": "street_cabinet", "operator": "Enedis", "operator:wikidata": "Q3587594", "power": "substation", "substation": "minor_distribution", "utility": "power", "voltage": "20000;400"}}, {"type": "node", "id": 5043369341, "lat": 45.6142738, "lon": 5.9165816, "tags": {"man_made": "street_cabinet", "operator": "Enedis", "operator:wikidata": "Q3587594", "power": "substation", "substation": "minor_distribution", "utility": "power", "voltage": "20000;400"}}, {"type": "node", "id": 5043369750, "lat": 45.6787215, "lon": 5.9472728, "tags": {"design:ref": "PSSA", "man_made": "street_cabinet", "mapillary": "498020844661396", "name": "Les Mentens", "operator": "Enedis", "operator:wikidata": "Q3587594", "power": "substation", "substation": "minor_distribution", "survey:date": "2016-03-20", "utility": "power", "voltage": "20000;400"}}, {"type": "node", "id": 5057299927, "lat": 45.7627825, "lon": 5.8268845, "tags": {"man_made": "street_cabinet", "operator": "Enedis", "operator:wikidata": "Q3587594", "power": "substation", "substation": "distribution", "utility": "power", "voltage": "20000"}}, {"type": "node", "id": 5065131680, "lat": 45.6920488, "lon": 5.7837331, "tags": {"man_made": "street_cabinet", "name": "Volontaz", "operator": "Enedis", "operator:wikidata": "Q3587594", "power": "substation", "ref:FR:gdo": "73330J0009", "substation": "minor_distribution", "utility": "power", "voltage": "20000;400"}}, {"type": "node", "id": 5065131693, "lat": 45.6575773, "lon": 5.7674716, "tags": {"man_made": "street_cabinet", "operator": "Enedis", "operator:wikidata": "Q3587594", "power": "substation", "substation": "minor_distribution", "utility": "power", "voltage": "20000;400"}}, {"type": "node", "id": 5065137071, "lat": 45.6900787, "lon": 5.815347, "tags": {"man_made": "street_cabinet", "operator": "Enedis", "operator:wikidata": "Q3587594", "power": "substation", "substation": "minor_distribution", "utility": "power", "voltage": "20000;400"}}, {"type": "node", "id": 5065137419, "lat": 45.690978, "lon": 5.7560313, "tags": {"man_made": "street_cabinet", "operator": "Enedis", "operator:wikidata": "Q3587594", "power": "substation", "substation": "minor_distribution", "utility": "power", "voltage": "20000;400"}}, {"type": "node", "id": 5072332212, "lat": 45.5697178, "lon": 5.7665294, "tags": {"man_made": "street_cabinet", "operator": "Enedis", "operator:wikidata": "Q3587594", "power": "substation", "start_date": "2009", "substation": "minor_distribution", "utility": "power", "voltage": "20000;400"}}, {"type": "node", "id": 5072332215, "lat": 45.5688578, "lon": 5.7604328, "tags": {"man_made": "street_cabinet", "operator": "Enedis", "operator:wikidata": "Q3587594", "power": "substation", "start_date": "2009", "substation": "minor_distribution", "utility": "power", "voltage": "20000;400"}}, {"type": "node", "id": 5106318970, "lat": 45.5243382, "lon": 5.7632357, "tags": {"man_made": "street_cabinet", "operator": "Enedis", "operator:wikidata": "Q3587594", "power": "substation", "substation": "minor_distribution", "utility": "power", "voltage": "20000;400"}}, {"type": "node", "id": 5106319523, "lat": 45.4631303, "lon": 5.7497093, "tags": {"design:ref": "PSSA", "man_made": "street_cabinet", "operator": "Enedis", "operator:wikidata": "Q3587594", "power": "substation", "substation": "minor_distribution", "utility": "power", "voltage": "20000;400"}}, {"type": "node", "id": 5106319559, "lat": 45.4664496, "lon": 5.7363881, "tags": {"man_made": "street_cabinet", "operator": "Enedis", "operator:wikidata": "Q3587594", "power": "substation", "substation": "distribution", "utility": "power", "voltage": "20000"}}, {"type": "node", "id": 5113577366, "lat": 45.5081604, "lon": 5.7699982, "tags": {"man_made": "street_cabinet", "operator": "Enedis", "operator:wikidata": "Q3587594", "power": "substation", "substation": "minor_distribution", "utility": "power", "voltage": "20000;400"}}, {"type": "node", "id": 5122856507, "lat": 45.109897, "lon": 5.8221826, "tags": {"location": "green", "man_made": "street_cabinet", "name": "Lagorge", "operator": "Enedis", "operator:wikidata": "Q3587594", "power": "substation", "ref:FR:gdo": "38528P6002", "substation": "minor_distribution", "utility": "power", "voltage": "20000"}}, {"type": "node", "id": 5138315849, "lat": 45.7534623, "lon": 5.9237498, "tags": {"man_made": "street_cabinet", "name": "Le Clos", "operator": "Enedis", "operator:wikidata": "Q3587594", "power": "substation", "substation": "minor_distribution", "utility": "power", "voltage": "20000;400"}}, {"type": "node", "id": 5150661884, "lat": 45.7003855, "lon": 6.1290816, "tags": {"man_made": "street_cabinet", "operator": "Enedis", "operator:wikidata": "Q3587594", "power": "substation", "street_cabinet": "power", "substation": "minor_distribution", "voltage": "20000;400"}}, {"type": "node", "id": 5150665447, "lat": 45.7055818, "lon": 6.0980465, "tags": {"man_made": "street_cabinet", "note": "Poste sans transformateur", "operator": "Enedis", "operator:wikidata": "Q3587594", "power": "substation", "substation": "distribution", "utility": "power", "voltage": "20000"}}, {"type": "node", "id": 5150666274, "lat": 45.6421832, "lon": 5.9875448, "tags": {"man_made": "street_cabinet", "operator": "Enedis", "operator:wikidata": "Q3587594", "power": "substation", "substation": "minor_distribution", "utility": "power", "voltage": "20000;400"}}, {"type": "node", "id": 5150829281, "lat": 45.4472854, "lon": 6.0954769, "tags": {"man_made": "street_cabinet", "operator": "Enedis", "operator:wikidata": "Q3587594", "power": "substation", "substation": "minor_distribution", "utility": "power", "voltage": "20000;400"}}, {"type": "node", "id": 5215161822, "lat": 45.5116185, "lon": 6.0023251, "tags": {"location": "green", "man_made": "street_cabinet", "operator": "Enedis", "operator:wikidata": "Q3587594", "power": "substation", "substation": "minor_distribution", "utility": "power", "voltage": "20000;400"}}, {"type": "node", "id": 5220593184, "lat": 45.5716015, "lon": 6.0266219, "tags": {"location": "green", "man_made": "street_cabinet", "operator": "Enedis", "operator:wikidata": "Q3587594", "power": "substation", "substation": "minor_distribution", "utility": "power", "voltage": "20000;400"}}, {"type": "node", "id": 5220593191, "lat": 45.5726678, "lon": 6.0282919, "tags": {"location": "green", "man_made": "street_cabinet", "operator": "Enedis", "operator:wikidata": "Q3587594", "power": "substation", "substation": "distribution", "utility": "power", "voltage": "20000"}}, {"type": "node", "id": 5220599054, "lat": 45.5229147, "lon": 5.9964551, "tags": {"man_made": "street_cabinet", "operator": "Enedis", "operator:wikidata": "Q3587594", "power": "substation", "substation": "minor_distribution", "utility": "power", "voltage": "20000;400"}}, {"type": "node", "id": 5244954292, "lat": 45.5401074, "lon": 5.698858, "tags": {"location": "green", "man_made": "street_cabinet", "operator": "Enedis", "operator:wikidata": "Q3587594", "power": "substation", "substation": "minor_distribution", "utility": "power", "voltage": "20000;400"}}, {"type": "node", "id": 5244959700, "lat": 45.5890567, "lon": 5.6469908, "tags": {"location": "green", "man_made": "street_cabinet", "operator": "Enedis", "operator:wikidata": "Q3587594", "power": "substation", "substation": "minor_distribution", "utility": "power", "voltage": "20000;400"}}, {"type": "node", "id": 5244961289, "lat": 45.5556139, "lon": 5.6783666, "tags": {"location": "green", "man_made": "street_cabinet", "operator": "Enedis", "operator:wikidata": "Q3587594", "power": "substation", "substation": "minor_distribution", "utility": "power", "voltage": "20000;400"}}, {"type": "node", "id": 5244961769, "lat": 45.4510399, "lon": 5.7740544, "tags": {"location": "green", "man_made": "street_cabinet", "operator": "Enedis", "operator:wikidata": "Q3587594", "power": "substation", "substation": "minor_distribution", "utility": "power", "voltage": "20000;400"}}, {"type": "node", "id": 5252852719, "lat": 45.6052389, "lon": 5.6542066, "tags": {"location": "green", "man_made": "street_cabinet", "operator": "Enedis", "operator:wikidata": "Q3587594", "power": "substation", "substation": "minor_distribution", "utility": "power", "voltage": "20000;400"}}, {"type": "node", "id": 5266934350, "lat": 45.3827883, "lon": 6.0081522, "tags": {"location": "green", "man_made": "street_cabinet", "name": "Cheminee Equilibre", "operator": "Enedis", "operator:wikidata": "Q3587594", "power": "substation", "ref:FR:gdo": "38262P0213", "substation": "minor_distribution", "utility": "power", "voltage": "20000;400"}}, {"type": "node", "id": 5693806948, "lat": 45.2407562, "lon": 5.9673682, "tags": {"design:ref": "PSSA", "man_made": "street_cabinet", "mapillary": "226311862586441", "operator": "Enedis", "operator:wikidata": "Q3587594", "power": "substation", "source": "Enedis - 06/2018", "substation": "minor_distribution", "survey:date": "2019-03-10", "utility": "power", "voltage": "20000;400"}}, {"type": "node", "id": 5713212773, "lat": 45.2746061, "lon": 5.478776, "tags": {"man_made": "street_cabinet", "name": "Sous la Pique", "operator": "Enedis", "operator:wikidata": "Q3587594", "power": "substation", "substation": "minor_distribution"}}, {"type": "node", "id": 5716675887, "lat": 45.759663, "lon": 5.442518, "tags": {"location": "green", "man_made": "street_cabinet", "name": "Mairif", "operator": "Enedis", "operator:wikidata": "Q3587594", "power": "substation", "ref:FR:gdo": "38139P0028", "source": "survey", "substation": "minor_distribution", "transformer": "distribution", "utility": "power", "voltage:primary": "20000", "voltage:secondary": "400"}}, {"type": "node", "id": 5718536476, "lat": 45.6098829, "lon": 5.1588596, "tags": {"location": "indoor", "name": "Portique 3", "operator": "Enedis", "operator:wikidata": "Q3587594", "power": "substation", "substation": "minor_distribution", "voltage": "20000;400"}}, {"type": "node", "id": 5723635295, "lat": 45.6075131, "lon": 5.1534188, "tags": {"location": "outdoor", "man_made": "street_cabinet", "name": "La Pin\u00e8de n\u00b04", "operator": "Enedis", "operator:wikidata": "Q3587594", "power": "substation", "substation": "minor_distribution", "transformer": "distribution", "utility": "power", "voltage:primary": "20000", "voltage:secondary": "400"}}, {"type": "node", "id": 5734880217, "lat": 45.6118713, "lon": 5.1603935, "tags": {"location": "indoor", "name": "Serpentine", "operator": "Enedis", "operator:wikidata": "Q3587594", "power": "substation", "substation": "minor_distribution"}}, {"type": "node", "id": 5744394028, "lat": 45.5988117, "lon": 5.1819086, "tags": {"location": "indoor", "operator": "Enedis", "operator:wikidata": "Q3587594", "power": "substation", "substation": "minor_distribution", "voltage": "20000;400"}}, {"type": "node", "id": 5804013127, "lat": 45.4160024, "lon": 5.5560303, "tags": {"design:ref": "RC", "man_made": "street_cabinet", "name": "Buissonnet", "operator": "Enedis", "operator:wikidata": "Q3587594", "power": "substation", "ref:FR:gdo": "38105P0025", "source": "Enedis - 06/2018", "substation": "minor_distribution", "utility": "power", "voltage": "20000;400"}}, {"type": "node", "id": 5814176853, "lat": 45.3126275, "lon": 5.8870567, "tags": {"man_made": "street_cabinet", "name": "B 15 station", "operator": "Enedis", "operator:wikidata": "Q3587594", "power": "substation", "ref:FR:gdo": "38395P6000", "substation": "distribution", "utility": "power", "voltage": "20000"}}, {"type": "node", "id": 5821109177, "lat": 45.3995944, "lon": 5.5810301, "tags": {"man_made": "street_cabinet", "name": "Au Frette", "operator": "Enedis", "operator:wikidata": "Q3587594", "power": "substation", "ref:FR:gdo": "38563P0141", "source": "Enedis - 06/2018", "substation": "minor_distribution", "utility": "power", "voltage": "20000;400"}}, {"type": "node", "id": 5851194906, "lat": 45.6211287, "lon": 5.2208308, "tags": {"location": "indoor", "name": "Poste Cardo", "operator": "Enedis", "operator:wikidata": "Q3587594", "power": "substation", "substation": "minor_distribution", "voltage": "20000;400"}}, {"type": "node", "id": 5851194918, "lat": 45.6217129, "lon": 5.2278961, "tags": {"location": "indoor", "name": "Coteau de l\u2019\u00c9glise", "operator": "Enedis", "operator:wikidata": "Q3587594", "power": "substation", "substation": "minor_distribution", "voltage": "20000;400"}}, {"type": "node", "id": 5852126435, "lat": 45.3101036, "lon": 5.8875849, "tags": {"name": "Fontenette", "operator": "Enedis", "operator:wikidata": "Q3587594", "power": "substation", "ref:FR:gdo": "38395P0220", "substation": "minor_distribution"}}, {"type": "node", "id": 5855940172, "lat": 45.6089903, "lon": 5.1449641, "tags": {"location": "indoor", "name": "Les Hauts de Villefontaine - le Domaine", "operator": "Enedis", "operator:wikidata": "Q3587594", "power": "substation", "source": "Enedis - 06/2018", "substation": "minor_distribution", "voltage": "20000;400"}}, {"type": "node", "id": 5855940175, "lat": 45.6054076, "lon": 5.1496597, "tags": {"location": "indoor", "name": "Vert Bocage", "operator": "Enedis", "operator:wikidata": "Q3587594", "power": "substation", "source": "Enedis - 06/2018", "substation": "minor_distribution", "voltage": "20000;400"}}, {"type": "node", "id": 5866011191, "lat": 45.5848586, "lon": 5.2792208, "tags": {"location": "indoor", "name": "M\u00e9dicis", "operator": "Enedis", "operator:wikidata": "Q3587594", "power": "substation", "ref:FR:gdo": "38053P0121", "substation": "minor_distribution", "voltage": "20000;400"}}, {"type": "node", "id": 5866110611, "lat": 45.5854363, "lon": 5.2788744, "tags": {"location": "indoor", "operator": "Enedis", "operator:wikidata": "Q3587594", "power": "substation", "ref:FR:gdo": "38053P0112", "substation": "minor_distribution", "voltage": "20000;400"}}, {"type": "node", "id": 5868979269, "lat": 45.1899216, "lon": 5.7129071, "tags": {"operator": "GreenAlp", "operator:wikidata": "Q115580260", "power": "substation", "ref": "419", "substation": "minor_distribution", "voltage": "20000;400"}}, {"type": "node", "id": 5884030033, "lat": 45.6278272, "lon": 5.1512088, "tags": {"building": "service", "location": "indoor", "name": "La Gare", "operator": "Enedis", "operator:wikidata": "Q3587594", "power": "substation", "ref:FR:gdo": "38537P0022", "substation": "minor_distribution", "utility": "power", "voltage": "20000;400"}}, {"type": "node", "id": 5884030042, "lat": 45.6079292, "lon": 5.150454, "tags": {"location": "indoor", "operator": "Enedis", "operator:wikidata": "Q3587594", "power": "substation", "source": "cadastre-dgi-fr source : Direction G\u00e9n\u00e9rale des Imp\u00f4ts - Cadastre. Mise \u00e0 jour : 2011", "substation": "minor_distribution", "voltage": "20000;400"}}, {"type": "node", "id": 5901370684, "lat": 45.0726393, "lon": 5.7613132, "tags": {"name": "Le Moulin", "operator": "Enedis", "operator:wikidata": "Q3587594", "power": "substation", "ref": "38279 P0009"}}, {"type": "node", "id": 5902485002, "lat": 45.5888465, "lon": 5.2747793, "tags": {"location": "indoor", "name": "Paul Bert", "operator": "Enedis", "operator:wikidata": "Q3587594", "power": "substation", "ref:FR:gdo": "38053P0083", "substation": "minor_distribution", "voltage": "20000;400"}}, {"type": "node", "id": 5955689092, "lat": 45.6173116, "lon": 5.1555669, "tags": {"building": "service", "location": "indoor", "name": "La Vern\u00e9e A3", "operator": "Enedis", "operator:wikidata": "Q3587594", "power": "substation", "substation": "minor_distribution", "voltage": "20000;400"}}, {"type": "node", "id": 5955689093, "lat": 45.6174569, "lon": 5.1555366, "tags": {"building": "service", "location": "indoor", "name": "Les Gen\u00eats", "operator": "Enedis", "operator:wikidata": "Q3587594", "power": "substation", "substation": "minor_distribution", "voltage": "20000;400"}}, {"type": "node", "id": 5973315773, "lat": 45.6209408, "lon": 5.1527502, "tags": {"location": "indoor", "name": "Le Bret B3", "operator": "Enedis", "operator:wikidata": "Q3587594", "power": "substation", "substation": "minor_distribution", "voltage": "20000;400"}}, {"type": "node", "id": 5973315778, "lat": 45.6217559, "lon": 5.1502738, "tags": {"location": "indoor", "name": "Vallon de l\u2019Isle", "operator": "Enedis", "operator:wikidata": "Q3587594", "power": "substation", "substation": "minor_distribution", "voltage": "20000;400"}}, {"type": "node", "id": 5976221875, "lat": 45.6174878, "lon": 5.1485602, "tags": {"location": "indoor", "name": "Claire Fontaine B5", "operator": "Enedis", "operator:wikidata": "Q3587594", "power": "substation", "substation": "minor_distribution", "voltage": "20000;400"}}, {"type": "node", "id": 5986925666, "lat": 45.6167944, "lon": 5.237563, "tags": {"location": "indoor", "name": "Les Coudriers", "operator": "Enedis", "operator:wikidata": "Q3587594", "power": "substation", "ref:FR:gdo": "38193P0028", "substation": "minor_distribution", "voltage": "20000;400"}}, {"type": "node", "id": 5991592114, "lat": 45.6189352, "lon": 5.2214724, "tags": {"location": "indoor", "name": "G.S. 14", "operator": "Enedis", "operator:wikidata": "Q3587594", "power": "substation", "substation": "minor_distribution", "voltage": "20000;400"}}, {"type": "node", "id": 6011042170, "lat": 45.6235572, "lon": 5.1764072, "tags": {"location": "indoor", "name": "Novempor", "operator": "Enedis", "operator:wikidata": "Q3587594", "power": "substation", "ref:FR:gdo": "38530P1006", "substation": "minor_distribution", "voltage": "20000;400"}}, {"type": "node", "id": 6049446240, "lat": 45.6149788, "lon": 5.2397107, "tags": {"location": "indoor", "name": "Coteaux de Chasse", "operator": "Enedis", "operator:wikidata": "Q3587594", "power": "substation", "substation": "minor_distribution", "voltage": "20000;400"}}, {"type": "node", "id": 6051624498, "lat": 45.6346912, "lon": 5.1464282, "tags": {"location": "indoor", "name": "Bourg", "operator": "Enedis", "operator:wikidata": "Q3587594", "power": "substation", "substation": "minor_distribution", "voltage": "20000;400"}}, {"type": "node", "id": 6054813288, "lat": 45.0054267, "lon": 6.1240018, "tags": {"operator": "Enedis", "operator:wikidata": "Q3587594", "power": "substation", "source": "Enedis - 06/2018", "substation": "minor_distribution", "voltage": "20000;400"}}, {"type": "node", "id": 6126860830, "lat": 45.673754, "lon": 5.9095983, "tags": {"location": "indoor", "name": "Thermes Marlioz", "operator": "Enedis", "operator:wikidata": "Q3587594", "power": "substation", "ref:FR:gdo": "73008P1068", "substation": "minor_distribution", "voltage": "20000"}}, {"type": "node", "id": 6165824895, "lat": 45.1787043, "lon": 5.7164382, "tags": {"operator": "GreenAlp", "operator:wikidata": "Q115580260", "power": "substation", "ref": "1318", "substation": "minor_distribution", "voltage": "20000;400"}}, {"type": "node", "id": 6173317436, "lat": 45.6302625, "lon": 5.1527788, "tags": {"building": "service", "location": "indoor", "name": "Ecorcheboeuf", "operator": "Enedis", "operator:wikidata": "Q3587594", "power": "substation", "substation": "minor_distribution", "voltage": "20000;400"}}, {"type": "node", "id": 6181463333, "lat": 45.6029331, "lon": 5.1717637, "tags": {"location": "indoor", "name": "Groupe Scolaire n\u00b012", "operator": "Enedis", "operator:wikidata": "Q3587594", "power": "substation", "substation": "minor_distribution", "voltage": "20000;400"}}, {"type": "node", "id": 6185807083, "lat": 45.7210393, "lon": 5.1402045, "tags": {"design:ref": "PSSB", "location": "outdoor", "man_made": "street_cabinet", "name": "STEP", "operator": "Enedis", "operator:wikidata": "Q3587594", "power": "substation", "ref:FR:gdo": "69299P0041", "substation": "minor_distribution", "transformer": "distribution", "utility": "power", "voltage:primary": "20000", "voltage:secondary": "400"}}, {"type": "node", "id": 6185809990, "lat": 45.7269707, "lon": 5.1417518, "tags": {"location": "outdoor", "man_made": "street_cabinet", "name": "Verch\u00e8re", "operator": "Enedis", "operator:wikidata": "Q3587594", "power": "substation", "ref:FR:gdo": "38085P0030", "substation": "minor_distribution", "transformer": "distribution", "utility": "power", "voltage:primary": "20000", "voltage:secondary": "400"}}, {"type": "node", "id": 6198311890, "lat": 45.5852993, "lon": 5.2695966, "tags": {"location": "indoor", "name": "Garde Mobile", "operator": "Enedis", "operator:wikidata": "Q3587594", "power": "substation", "substation": "minor_distribution", "voltage": "20000;400"}}, {"type": "node", "id": 6223366031, "lat": 45.6183147, "lon": 5.1288792, "tags": {"location": "indoor", "man_made": "street_cabinet", "name": "\u00c9comus\u00e9e", "operator": "Enedis", "operator:wikidata": "Q3587594", "power": "substation", "substation": "minor_distribution", "utility": "power", "voltage": "20000;400"}}, {"type": "node", "id": 6225925406, "lat": 45.6259358, "lon": 5.1338004, "tags": {"location": "indoor", "operator": "Enedis", "operator:wikidata": "Q3587594", "power": "substation", "substation": "minor_distribution", "voltage": "20000;400"}}, {"type": "node", "id": 6228122508, "lat": 45.6176799, "lon": 5.1364819, "tags": {"location": "indoor", "name": "Le Velin", "operator": "Enedis", "operator:wikidata": "Q3587594", "power": "substation", "substation": "minor_distribution", "voltage": "20000;400"}}, {"type": "node", "id": 6228122576, "lat": 45.6183543, "lon": 5.1455149, "tags": {"man_made": "street_cabinet", "name": "Cruizille Auto", "operator": "Enedis", "operator:wikidata": "Q3587594", "power": "substation", "ref:FR:gdo": "38553P0501", "substation": "distribution", "utility": "power", "voltage": "20000"}}, {"type": "node", "id": 6234827663, "lat": 45.5965919, "lon": 5.2145087, "tags": {"location": "green", "man_made": "street_cabinet", "name": "Sachet", "operator": "Enedis", "operator:wikidata": "Q3587594", "power": "substation", "substation": "minor_distribution", "transformer": "distribution", "utility": "power", "voltage:primary": "20000", "voltage:secondary": "400"}}, {"type": "node", "id": 6234827684, "lat": 45.6033694, "lon": 5.2180874, "tags": {"man_made": "street_cabinet", "name": "3 Vallons", "operator": "Enedis", "operator:wikidata": "Q3587594", "power": "substation", "substation": "minor_distribution", "transformer": "distribution", "utility": "power", "voltage:primary": "20000", "voltage:secondary": "400"}}, {"type": "node", "id": 6245547249, "lat": 45.5985207, "lon": 5.2293131, "tags": {"location": "green", "man_made": "street_cabinet", "name": "Les Rameaux", "operator": "Enedis", "operator:wikidata": "Q3587594", "power": "substation", "substation": "minor_distribution", "transformer": "distribution", "utility": "power", "voltage:primary": "20000", "voltage:secondary": "400"}}, {"type": "node", "id": 6245547594, "lat": 45.6049841, "lon": 5.225772, "tags": {"location": "green", "man_made": "street_cabinet", "name": "Sulitec", "operator": "Enedis", "operator:wikidata": "Q3587594", "power": "substation", "ref:FR:gdo": "38193P0076", "substation": "minor_distribution", "transformer": "distribution", "utility": "power", "voltage:primary": "20000", "voltage:secondary": "400"}}, {"type": "node", "id": 6248726090, "lat": 45.5837549, "lon": 5.2864993, "tags": {"location": "green", "man_made": "street_cabinet", "operator": "Enedis", "operator:wikidata": "Q3587594", "power": "substation", "ref:FR:gdo": "38053P0129", "substation": "minor_distribution", "transformer": "distribution", "utility": "power", "voltage:primary": "20000", "voltage:secondary": "400"}}, {"type": "node", "id": 6260747391, "lat": 45.5914738, "lon": 5.2273786, "tags": {"location": "outdoor", "man_made": "street_cabinet", "name": "Les Combes", "operator": "Enedis", "operator:wikidata": "Q3587594", "power": "substation", "ref:FR:gdo": "38352P0002", "substation": "minor_distribution", "transformer": "distribution", "utility": "power", "voltage:primary": "20000", "voltage:secondary": "400"}}, {"type": "node", "id": 6260747414, "lat": 45.5917347, "lon": 5.2326163, "tags": {"man_made": "street_cabinet", "name": "Gattaz", "operator": "Enedis", "operator:wikidata": "Q3587594", "power": "substation", "substation": "minor_distribution", "transformer": "distribution", "utility": "power", "voltage:primary": "20000", "voltage:secondary": "400"}}, {"type": "node", "id": 6275313243, "lat": 45.5856906, "lon": 5.2223635, "tags": {"building": "service", "location": "indoor", "name": "Revollay", "operator": "Enedis", "operator:wikidata": "Q3587594", "power": "substation", "substation": "minor_distribution", "voltage": "20000;400"}}, {"type": "node", "id": 6275313268, "lat": 45.5829568, "lon": 5.2318981, "tags": {"location": "green", "man_made": "street_cabinet", "name": "La Radi\u00e8re", "operator": "Enedis", "operator:wikidata": "Q3587594", "power": "substation", "ref:FR:gdo": "38352P0017", "substation": "minor_distribution", "transformer": "distribution", "utility": "power", "voltage:primary": "20000", "voltage:secondary": "400"}}, {"type": "node", "id": 6275313269, "lat": 45.5861365, "lon": 5.2296297, "tags": {"location": "green", "man_made": "street_cabinet", "name": "Virigot", "operator": "Enedis", "operator:wikidata": "Q3587594", "power": "substation", "substation": "minor_distribution", "transformer": "distribution", "utility": "power", "voltage:primary": "20000", "voltage:secondary": "400"}}, {"type": "node", "id": 6275313900, "lat": 45.5984929, "lon": 5.2460409, "tags": {"location": "green", "man_made": "street_cabinet", "name": "Jacquier", "operator": "Enedis", "operator:wikidata": "Q3587594", "power": "substation", "ref:FR:gdo": "38053P6001", "substation": "distribution", "utility": "power", "voltage": "20000"}}, {"type": "node", "id": 6287199398, "lat": 45.5868896, "lon": 5.1975182, "tags": {"location": "green", "man_made": "street_cabinet", "name": "Les Ecoteys", "operator": "Enedis", "operator:wikidata": "Q3587594", "power": "substation", "ref:FR:gdo": "38172P0016", "substation": "minor_distribution", "transformer": "distribution", "utility": "power", "voltage:primary": "20000", "voltage:secondary": "400"}}, {"type": "node", "id": 6287199426, "lat": 45.5928411, "lon": 5.213411, "tags": {"location": "green", "man_made": "street_cabinet", "name": "Les Combes", "operator": "Enedis", "operator:wikidata": "Q3587594", "power": "substation", "ref:FR:gdo": "38172P0020", "substation": "minor_distribution", "transformer": "distribution", "utility": "power", "voltage:primary": "20000", "voltage:secondary": "400"}}, {"type": "node", "id": 6292036604, "lat": 45.5860923, "lon": 5.1920781, "tags": {"location": "indoor", "operator": "Enedis", "operator:wikidata": "Q3587594", "power": "substation", "substation": "minor_distribution", "voltage": "20000;400"}}, {"type": "node", "id": 6292036635, "lat": 45.5747553, "lon": 5.1905331, "tags": {"man_made": "street_cabinet", "name": "Pompage Route d'Aillat", "operator": "Enedis", "operator:wikidata": "Q3587594", "power": "substation", "substation": "minor_distribution", "transformer": "distribution", "utility": "power", "voltage:primary": "20000", "voltage:secondary": "400"}}, {"type": "node", "id": 6297801128, "lat": 45.5995271, "lon": 5.1492727, "tags": {"location": "green", "man_made": "street_cabinet", "name": "Croix Chatain", "operator": "Enedis", "operator:wikidata": "Q3587594", "power": "substation", "ref:FR:gdo": "38339P0038", "substation": "minor_distribution", "transformer": "distribution", "utility": "power", "voltage:primary": "20000", "voltage:secondary": "400"}}, {"type": "node", "id": 6332016976, "lat": 45.5866714, "lon": 5.158354, "tags": {"design:ref": "PSSB", "location": "green", "man_made": "street_cabinet", "name": "Bersoudi\u00e8re", "operator": "Enedis", "operator:wikidata": "Q3587594", "power": "substation", "ref:FR:gdo": "38339P0035", "substation": "minor_distribution", "transformer": "distribution", "utility": "power", "voltage:primary": "20000", "voltage:secondary": "400"}}, {"type": "node", "id": 6332019613, "lat": 45.5811624, "lon": 5.1568888, "tags": {"location": "indoor", "name": "Pompage", "operator": "Enedis", "operator:wikidata": "Q3587594", "power": "substation", "substation": "minor_distribution", "voltage": "20000"}}, {"type": "node", "id": 6332019642, "lat": 45.5840021, "lon": 5.1668968, "tags": {"location": "green", "man_made": "street_cabinet", "name": "Tholin", "operator": "Enedis", "operator:wikidata": "Q3587594", "power": "substation", "ref:FR:gdo": "38339P0041", "substation": "minor_distribution", "transformer": "distribution", "utility": "power", "voltage:primary": "20000", "voltage:secondary": "400"}}, {"type": "node", "id": 6332019644, "lat": 45.5823802, "lon": 5.1708081, "tags": {"design:ref": "PSSB", "location": "green", "man_made": "street_cabinet", "name": "AC3T Berriat", "operator": "Enedis", "operator:wikidata": "Q3587594", "power": "substation", "ref:FR:gdo": "38339P7001", "substation": "minor_distribution", "transformer": "distribution", "utility": "power", "voltage:primary": "20000", "voltage:secondary": "400"}}, {"type": "node", "id": 6336437887, "lat": 45.5903905, "lon": 5.1633761, "tags": {"location": "green", "man_made": "street_cabinet", "name": "Route de Bonnefamille", "operator": "Enedis", "operator:wikidata": "Q3587594", "power": "substation", "ref:FR:gdo": "38339P0501", "substation": "minor_distribution", "transformer": "distribution", "utility": "power", "voltage:primary": "20000", "voltage:secondary": "400"}}, {"type": "node", "id": 6336437888, "lat": 45.5911509, "lon": 5.1696695, "tags": {"location": "green", "man_made": "street_cabinet", "name": "La Chapeli\u00e8re", "operator": "Enedis", "operator:wikidata": "Q3587594", "power": "substation", "ref:FR:gdo": "38339P0040", "substation": "minor_distribution", "transformer": "distribution", "utility": "power", "voltage:primary": "20000", "voltage:secondary": "400"}}, {"type": "node", "id": 6337319252, "lat": 45.5895536, "lon": 5.2651247, "tags": {"location": "indoor", "name": "Oiselet B", "operator": "Enedis", "operator:wikidata": "Q3587594", "power": "substation", "substation": "minor_distribution", "voltage": "20000;400"}}, {"type": "node", "id": 6369106145, "lat": 45.5632208, "lon": 5.1578273, "tags": {"location": "green", "man_made": "street_cabinet", "name": "Fourn\u00e9at", "operator": "Enedis", "operator:wikidata": "Q3587594", "power": "substation", "substation": "minor_distribution", "transformer": "distribution", "utility": "power", "voltage:primary": "20000", "voltage:secondary": "400"}}, {"type": "node", "id": 6370088010, "lat": 45.5848631, "lon": 5.1300057, "tags": {"design:ref": "PSSB", "location": "green", "man_made": "street_cabinet", "name": "Corni\u00e8re", "operator": "Enedis", "operator:wikidata": "Q3587594", "power": "substation", "ref:FR:gdo": "38048P0026", "substation": "minor_distribution", "transformer": "distribution", "utility": "power", "voltage:primary": "20000", "voltage:secondary": "400"}}, {"type": "node", "id": 6370088019, "lat": 45.5737734, "lon": 5.1423526, "tags": {"location": "green", "man_made": "street_cabinet", "name": "Ch\u00e2teau d'Eau", "operator": "Enedis", "operator:wikidata": "Q3587594", "power": "substation", "ref:FR:gdo": "38339P0039", "substation": "minor_distribution", "transformer": "distribution", "utility": "power", "voltage:primary": "20000", "voltage:secondary": "400"}}, {"type": "node", "id": 6391711154, "lat": 45.5833841, "lon": 5.1258816, "tags": {"location": "indoor", "name": "Pillard", "operator": "Enedis", "operator:wikidata": "Q3587594", "power": "substation", "ref:FR:gdo": "38048P0023", "substation": "minor_distribution", "voltage": "20000;400"}}, {"type": "node", "id": 6391711172, "lat": 45.5877843, "lon": 5.126717, "tags": {"location": "green", "man_made": "street_cabinet", "name": "Badin", "operator": "Enedis", "operator:wikidata": "Q3587594", "power": "substation", "ref:FR:gdo": "38048P0025", "substation": "minor_distribution", "transformer": "distribution", "utility": "power", "voltage:primary": "20000", "voltage:secondary": "400"}}, {"type": "node", "id": 6391870344, "lat": 45.5949014, "lon": 5.1196946, "tags": {"location": "green", "man_made": "street_cabinet", "name": "La Roche", "operator": "Enedis", "operator:wikidata": "Q3587594", "power": "substation", "ref:FR:gdo": "38048P6000", "substation": "distribution", "utility": "power", "voltage": "20000"}}, {"type": "node", "id": 6391870348, "lat": 45.5930724, "lon": 5.1205865, "tags": {"location": "green", "man_made": "street_cabinet", "name": "Th\u00e9venard", "operator": "Enedis", "operator:wikidata": "Q3587594", "power": "substation", "substation": "minor_distribution", "transformer": "distribution", "utility": "power", "voltage:primary": "20000", "voltage:secondary": "400"}}, {"type": "node", "id": 6391992589, "lat": 45.6038015, "lon": 5.1471075, "tags": {"location": "indoor", "name": "Gymnase", "operator": "Enedis", "operator:wikidata": "Q3587594", "power": "substation", "substation": "minor_distribution", "voltage": "20000;400"}}, {"type": "node", "id": 6430246389, "lat": 45.7166774, "lon": 5.1267166, "tags": {"location": "green", "man_made": "street_cabinet", "name": "Petite Enfance", "operator": "Enedis", "operator:wikidata": "Q3587594", "power": "substation", "substation": "minor_distribution", "transformer": "distribution", "utility": "power", "voltage:primary": "20000", "voltage:secondary": "400"}}, {"type": "node", "id": 6450266365, "lat": 45.1570857, "lon": 5.7321791, "tags": {"level": "0", "location": "indoor", "operator": "M Tag", "operator:wikidata": "Q3487837", "power": "substation", "ref:FR:GreenAlp": "225", "substation": "traction", "voltage": "20000;750"}}, {"type": "node", "id": 6463626897, "lat": 45.5890967, "lon": 5.2444248, "tags": {"location": "green", "man_made": "street_cabinet", "operator": "Enedis", "operator:wikidata": "Q3587594", "power": "substation", "substation": "minor_distribution", "transformer": "distribution", "utility": "power", "voltage:primary": "20000", "voltage:secondary": "400"}}, {"type": "node", "id": 6545728633, "lat": 45.393067, "lon": 5.5766827, "tags": {"design:ref": "RC", "man_made": "street_cabinet", "name": "Chareliere", "operator": "Enedis", "operator:wikidata": "Q3587594", "power": "substation", "ref:FR:gdo": "38563P0056", "source": "Enedis - 06/2018", "substation": "minor_distribution", "transformer": "distribution", "utility": "power", "voltage:primary": "20000", "voltage:secondary": "400"}}, {"type": "node", "id": 6564030562, "lat": 45.6254019, "lon": 5.1239794, "tags": {"location": "outdoor", "man_made": "street_cabinet", "name": "Le Fessy", "operator": "Enedis", "operator:wikidata": "Q3587594", "power": "substation", "ref:FR:gdo": "38449P0088", "substation": "minor_distribution", "transformer": "distribution", "utility": "power", "voltage:primary": "20000", "voltage:secondary": "400"}}, {"type": "node", "id": 6564453142, "lat": 45.6415241, "lon": 5.1315634, "tags": {"location": "indoor", "operator": "Enedis", "operator:wikidata": "Q3587594", "power": "substation", "substation": "minor_distribution", "voltage": "20000;400"}}, {"type": "node", "id": 6570019031, "lat": 45.6433693, "lon": 5.1331995, "tags": {"location": "green", "man_made": "street_cabinet", "operator": "Enedis", "operator:wikidata": "Q3587594", "power": "substation", "substation": "minor_distribution", "transformer": "distribution", "utility": "power", "voltage:primary": "20000", "voltage:secondary": "400"}}, {"type": "node", "id": 6578987537, "lat": 45.6374336, "lon": 5.1368876, "tags": {"location": "indoor", "operator": "Enedis", "operator:wikidata": "Q3587594", "power": "substation", "ref:FR:gdo": "38537P0011", "substation": "minor_distribution", "voltage": "20000;400"}}, {"type": "node", "id": 6594357169, "lat": 45.1563548, "lon": 5.7392373, "tags": {"building": "service", "location": "indoor", "name": "MARAIS", "operator": "Enedis", "operator:wikidata": "Q3587594", "power": "substation", "ref:FR:gdo": "38158P0245", "source": "Enedis - 06/2018", "substation": "minor_distribution", "voltage": "20000;400"}}, {"type": "node", "id": 6611365898, "lat": 45.6589189, "lon": 5.1336554, "tags": {"location": "green", "man_made": "street_cabinet", "name": "Le Biais", "operator": "Enedis", "operator:wikidata": "Q3587594", "power": "substation", "ref:FR:gdo": "38475P0042", "substation": "minor_distribution", "transformer": "distribution", "utility": "power", "voltage:primary": "20000", "voltage:secondary": "400"}}, {"type": "node", "id": 6613019834, "lat": 45.1923081, "lon": 5.694772, "tags": {"location": "indoor", "operator": "Enedis", "operator:wikidata": "Q3587594", "power": "substation", "source": "Enedis - 06/2018", "substation": "minor_distribution", "voltage": "20000;400"}}, {"type": "node", "id": 6613019835, "lat": 45.1949562, "lon": 5.6979893, "tags": {"location": "indoor", "operator": "Enedis", "operator:wikidata": "Q3587594", "power": "substation", "source": "Enedis - 06/2018", "substation": "minor_distribution", "voltage": "20000;400"}}, {"type": "node", "id": 6613019881, "lat": 45.1920945, "lon": 5.6884149, "tags": {"location": "indoor", "operator": "Enedis", "operator:wikidata": "Q3587594", "power": "substation", "source": "Enedis - 06/2018", "substation": "minor_distribution", "voltage": "20000;400"}}, {"type": "node", "id": 6657119139, "lat": 45.1436391, "lon": 5.7052674, "tags": {"building": "service", "location": "indoor", "name": "L\u00e9on Fournier", "operator": "Enedis", "operator:wikidata": "Q3587594", "power": "substation", "ref:FR:gdo": "38151P0330", "source": "Enedis - 06/2018", "substation": "minor_distribution", "voltage": "20000;400"}}, {"type": "node", "id": 6662621131, "lat": 45.614331, "lon": 5.1830068, "tags": {"location": "indoor", "name": "Grand Pire", "operator": "Enedis", "operator:wikidata": "Q3587594", "power": "substation", "substation": "minor_distribution", "voltage": "20000;400"}}, {"type": "node", "id": 6668083533, "lat": 45.5889563, "lon": 5.2779175, "tags": {"location": "indoor", "name": "Saint-Michel P6", "operator": "Enedis", "operator:wikidata": "Q3587594", "power": "substation", "ref:FR:gdo": "38053P0023", "substation": "minor_distribution", "voltage": "20000;400"}}, {"type": "node", "id": 6726583561, "lat": 45.196663, "lon": 5.676719, "tags": {"operator": "Enedis", "operator:wikidata": "Q3587594", "power": "substation", "source": "Enedis - 06/2018", "substation": "minor_distribution", "voltage": "20000;400"}}, {"type": "node", "id": 6726612955, "lat": 45.1966941, "lon": 5.6753198, "tags": {"operator": "Enedis", "operator:wikidata": "Q3587594", "power": "substation", "source": "Enedis - 06/2018", "substation": "minor_distribution", "voltage": "20000;400"}}, {"type": "node", "id": 6727082319, "lat": 45.1990668, "lon": 5.678933, "tags": {"operator": "Enedis", "operator:wikidata": "Q3587594", "power": "substation", "source": "Enedis - 06/2018", "substation": "minor_distribution", "voltage": "20000;400"}}, {"type": "node", "id": 6727107953, "lat": 45.1975306, "lon": 5.6819409, "tags": {"operator": "Enedis", "operator:wikidata": "Q3587594", "power": "substation", "source": "Enedis - 06/2018", "substation": "minor_distribution", "voltage": "20000;400"}}, {"type": "node", "id": 6727119144, "lat": 45.1960139, "lon": 5.6776879, "tags": {"operator": "Enedis", "operator:wikidata": "Q3587594", "power": "substation", "source": "Enedis - 06/2018", "substation": "minor_distribution", "voltage": "20000;400"}}, {"type": "node", "id": 6727120754, "lat": 45.1952528, "lon": 5.6797905, "tags": {"operator": "Enedis", "operator:wikidata": "Q3587594", "power": "substation", "source": "Enedis - 06/2018", "substation": "minor_distribution", "voltage": "20000;400"}}, {"type": "node", "id": 6727124121, "lat": 45.196769, "lon": 5.6802402, "tags": {"operator": "Enedis", "operator:wikidata": "Q3587594", "power": "substation", "source": "Enedis - 06/2018", "substation": "minor_distribution", "voltage": "20000;400"}}, {"type": "node", "id": 6778200378, "lat": 45.608532, "lon": 5.1531136, "tags": {"level": "-1", "location": "indoor", "name": "Pin\u00e8de 2", "operator": "Enedis", "operator:wikidata": "Q3587594", "power": "substation", "substation": "minor_distribution", "voltage": "20000;400"}}, {"type": "node", "id": 6789178194, "lat": 45.5885588, "lon": 5.2790272, "tags": {"location": "indoor", "name": "Perrin", "operator": "Enedis", "operator:wikidata": "Q3587594", "power": "substation", "ref:FR:gdo": "38053P0186", "substation": "minor_distribution", "voltage": "20000;400"}}, {"type": "node", "id": 6841868283, "lat": 45.5563092, "lon": 5.4658676, "tags": {"location": "green", "man_made": "street_cabinet", "name": "AC3M Morts", "operator": "Enedis", "operator:wikidata": "Q3587594", "power": "substation", "substation": "distribution", "utility": "power", "voltage": "20000"}}, {"type": "node", "id": 6852667281, "lat": 45.6966861, "lon": 5.1318906, "tags": {"location": "green", "man_made": "street_cabinet", "name": "\u00c9peron", "operator": "Enedis", "operator:wikidata": "Q3587594", "power": "substation", "substation": "minor_distribution", "transformer": "distribution", "utility": "power", "voltage:primary": "20000", "voltage:secondary": "400"}}, {"type": "node", "id": 6909376865, "lat": 45.1015194, "lon": 5.2517781, "tags": {"operator": "Enedis", "operator:wikidata": "Q3587594", "power": "substation"}}, {"type": "node", "id": 7001780301, "lat": 45.1469982, "lon": 5.7144544, "tags": {"location": "indoor", "operator": "Enedis", "operator:wikidata": "Q3587594", "power": "substation", "source": "Enedis - 06/2018", "substation": "minor_distribution", "voltage": "20000;400"}}, {"type": "node", "id": 7001780311, "lat": 45.1489151, "lon": 5.7145752, "tags": {"location": "indoor", "operator": "Enedis", "operator:wikidata": "Q3587594", "power": "substation", "source": "Enedis - 06/2018", "substation": "minor_distribution", "voltage": "20000;400"}}, {"type": "node", "id": 7015713727, "lat": 45.6802116, "lon": 5.9286997, "tags": {"building": "yes", "operator": "Enedis", "operator:wikidata": "Q3587594", "power": "substation"}}, {"type": "node", "id": 7052490365, "lat": 45.5674196, "lon": 5.9302423, "tags": {"location": "indoor", "name": "266 Quai de la Rize", "operator": "Enedis", "operator:wikidata": "Q3587594", "power": "substation", "ref:FR:gdo": "73065P1053", "substation": "minor_distribution", "voltage": "20000;400"}}, {"type": "node", "id": 7057699368, "lat": 45.2302759, "lon": 5.6836832, "tags": {"operator": "Enedis", "operator:wikidata": "Q3587594", "power": "substation", "source": "Enedis - 06/2018", "substation": "minor_distribution", "voltage": "20000;400"}}, {"type": "node", "id": 7061276741, "lat": 45.7162479, "lon": 5.2370597, "tags": {"location": "indoor", "name": "\u00c9glise", "operator": "Enedis", "operator:wikidata": "Q3587594", "power": "substation", "ref:FR:gdo": "38554P0004", "substation": "minor_distribution", "voltage": "20000;400"}}, {"type": "node", "id": 7061287288, "lat": 45.7311766, "lon": 5.1513098, "tags": {"design:ref": "PSSA", "man_made": "street_cabinet", "name": "Meige", "operator": "Enedis", "operator:wikidata": "Q3587594", "power": "substation", "ref:FR:gdo": "38085P0044", "substation": "minor_distribution", "transformer": "distribution", "utility": "power", "voltage:primary": "20000", "voltage:secondary": "400"}}, {"type": "node", "id": 7061287289, "lat": 45.730553, "lon": 5.1548171, "tags": {"design:ref": "PSSA", "man_made": "street_cabinet", "name": "Le Vernay", "operator": "Enedis", "operator:wikidata": "Q3587594", "power": "substation", "ref:FR:gdo": "38085P0048", "substation": "minor_distribution", "transformer": "distribution", "utility": "power", "voltage:primary": "20000", "voltage:secondary": "400"}}, {"type": "node", "id": 7061287294, "lat": 45.7265576, "lon": 5.1493044, "tags": {"man_made": "street_cabinet", "name": "Hameau bergerie", "operator": "Enedis", "operator:wikidata": "Q3587594", "power": "substation", "ref:FR:gdo": "38085P0032", "substation": "minor_distribution", "transformer": "distribution", "utility": "power", "voltage:primary": "20000", "voltage:secondary": "400"}}, {"type": "node", "id": 7070729109, "lat": 45.7108403, "lon": 5.2408983, "tags": {"man_made": "street_cabinet", "name": "Malin", "operator": "Enedis", "operator:wikidata": "Q3587594", "power": "substation", "ref:FR:gdo": "38554P0013", "substation": "distribution", "utility": "power", "voltage": "20000"}}, {"type": "node", "id": 7084430892, "lat": 45.1667788, "lon": 5.7464556, "tags": {"operator": "Enedis", "operator:wikidata": "Q3587594", "power": "substation", "source": "Enedis - 06/2018", "substation": "minor_distribution", "voltage": "20000;400"}}, {"type": "node", "id": 7101195798, "lat": 45.1921436, "lon": 5.72261, "tags": {"name": "Marcel Deprez", "note": "Historiquement c'\u00e9tait un poste 63kV, c'est encore le cas dans les donn\u00e9es RTE, mais la topologie du r\u00e9seau GreenAlp plaide plut\u00f4t pour un simple poste 20kV.", "operator": "RTE", "operator:wikidata": "Q2178795", "power": "substation", "ref:FR:GreenAlp": "MARCEL-DEPREZ", "ref:FR:RTE": "M.DEP", "ref:FR:RTE_nom": "MARCEL-DEPREZ", "source": "data.gouv.fr:RTE - 12/2018", "substation": "distribution", "voltage": "63000;20000"}}, {"type": "node", "id": 7110352391, "lat": 45.56525, "lon": 5.9320451, "tags": {"location": "indoor", "name": "Costa de Beauregard", "operator": "Enedis", "operator:wikidata": "Q3587594", "power": "substation", "substation": "minor_distribution", "voltage": "20000;400"}}, {"type": "node", "id": 7110352416, "lat": 45.5657819, "lon": 5.9367199, "tags": {"location": "indoor", "name": "piscine", "operator": "Enedis", "operator:wikidata": "Q3587594", "power": "substation", "ref:FR:gdo": "73065P1051", "substation": "minor_distribution", "voltage": "20000;400"}}, {"type": "node", "id": 7115114905, "lat": 45.6169482, "lon": 5.1651359, "tags": {"location": "indoor", "name": "Les Brondes", "operator": "Enedis", "operator:wikidata": "Q3587594", "power": "substation", "substation": "minor_distribution", "voltage": "20000;400"}}, {"type": "node", "id": 7115114920, "lat": 45.6143277, "lon": 5.181596, "tags": {"location": "indoor", "name": "Bois des Vosges", "operator": "Enedis", "operator:wikidata": "Q3587594", "power": "substation", "substation": "minor_distribution", "voltage": "20000;400"}}, {"type": "node", "id": 7115114921, "lat": 45.6081762, "lon": 5.1904646, "tags": {"location": "indoor", "name": "Monbally", "operator": "Enedis", "operator:wikidata": "Q3587594", "power": "substation", "ref:FR:gdo": "38530P0008", "substation": "minor_distribution", "voltage": "20000;400"}}, {"type": "node", "id": 7115426404, "lat": 45.732915, "lon": 5.1473469, "tags": {"design:ref": "PSSB", "man_made": "street_cabinet", "name": "Les Coteaux", "operator": "Enedis", "operator:wikidata": "Q3587594", "power": "substation", "substation": "minor_distribution", "transformer": "distribution", "utility": "power", "voltage:primary": "20000", "voltage:secondary": "400"}}, {"type": "node", "id": 7117817788, "lat": 45.5847436, "lon": 5.277147, "tags": {"location": "indoor", "name": "Delaunay", "operator": "Enedis", "operator:wikidata": "Q3587594", "power": "substation", "substation": "minor_distribution", "voltage": "20000;400"}}, {"type": "node", "id": 7117954491, "lat": 45.589494, "lon": 5.2760071, "tags": {"location": "indoor", "name": "Centre Commercial", "operator": "Enedis", "operator:wikidata": "Q3587594", "power": "substation", "ref:FR:gdo": "38053P0127", "substation": "minor_distribution", "voltage": "20000;400"}}, {"type": "node", "id": 7117954492, "lat": 45.5891159, "lon": 5.2772745, "tags": {"location": "indoor", "name": "Saint-Michel P3", "operator": "Enedis", "operator:wikidata": "Q3587594", "power": "substation", "ref:FR:gdo": "38053P0021", "source": "Enedis - 06/2018", "substation": "minor_distribution", "voltage": "20000;400"}}, {"type": "node", "id": 7117954499, "lat": 45.5890773, "lon": 5.2766441, "tags": {"location": "indoor", "name": "Saint-Michel P2", "operator": "Enedis", "operator:wikidata": "Q3587594", "power": "substation", "substation": "minor_distribution", "voltage": "20000;400"}}, {"type": "node", "id": 7117954500, "lat": 45.5890459, "lon": 5.2758019, "tags": {"location": "indoor", "name": "Michel P5", "operator": "Enedis", "operator:wikidata": "Q3587594", "power": "substation", "ref:FR:gdo": "38053P0026", "substation": "minor_distribution", "voltage": "20000;400"}}, {"type": "node", "id": 7117954501, "lat": 45.5883171, "lon": 5.2755652, "tags": {"level": "-1", "location": "indoor", "name": "Saint-Michel P7", "operator": "Enedis", "operator:wikidata": "Q3587594", "power": "substation", "ref:FR:gdo": "38053P0029", "substation": "minor_distribution", "voltage": "20000;400"}}, {"type": "node", "id": 7120313287, "lat": 45.6127312, "lon": 5.2260255, "tags": {"location": "indoor", "name": "Centre Commercial", "operator": "Enedis", "operator:wikidata": "Q3587594", "power": "substation", "ref:FR:gdo": "38193P0030", "substation": "minor_distribution", "voltage": "20000;400"}}, {"type": "node", "id": 7120313288, "lat": 45.6211444, "lon": 5.2243906, "tags": {"location": "indoor", "name": "Ob\u00e9lisque", "operator": "Enedis", "operator:wikidata": "Q3587594", "power": "substation", "ref:FR:gdo": "38193P0031", "substation": "minor_distribution", "voltage": "20000;400"}}, {"type": "node", "id": 7120313295, "lat": 45.6212701, "lon": 5.2222797, "tags": {"location": "indoor", "name": "Triforium", "operator": "Enedis", "operator:wikidata": "Q3587594", "power": "substation", "substation": "minor_distribution", "voltage": "20000;400"}}, {"type": "node", "id": 7120313314, "lat": 45.6202603, "lon": 5.2217292, "tags": {"location": "indoor", "name": "Decumanus", "operator": "Enedis", "operator:wikidata": "Q3587594", "power": "substation", "ref:FR:gdo": "38193P0042", "substation": "minor_distribution", "voltage": "20000;400"}}, {"type": "node", "id": 7120377694, "lat": 45.6091737, "lon": 5.1599365, "tags": {"location": "indoor", "name": "Ambroise Croizat", "operator": "Enedis", "operator:wikidata": "Q3587594", "power": "substation", "substation": "minor_distribution", "voltage": "20000;400"}}, {"type": "node", "id": 7120377695, "lat": 45.6089513, "lon": 5.1598218, "tags": {"location": "indoor", "name": "GS 10", "operator": "Enedis", "operator:wikidata": "Q3587594", "power": "substation", "substation": "minor_distribution", "voltage": "20000;400"}}, {"type": "node", "id": 7124047447, "lat": 45.6044278, "lon": 5.1431076, "tags": {"location": "indoor", "name": "La Chenaie", "operator": "Enedis", "operator:wikidata": "Q3587594", "power": "substation", "source": "Enedis - 06/2018", "substation": "minor_distribution", "voltage": "20000;400"}}, {"type": "node", "id": 7131063971, "lat": 45.6220082, "lon": 5.2184368, "tags": {"location": "indoor", "name": "IUT", "operator": "Enedis", "operator:wikidata": "Q3587594", "power": "substation", "substation": "minor_distribution", "voltage": "20000;400"}}, {"type": "node", "id": 7137088518, "lat": 45.6081717, "lon": 5.1520246, "tags": {"level": "-1", "location": "indoor", "name": "Pin\u00e8de 1", "operator": "Enedis", "operator:wikidata": "Q3587594", "power": "substation", "substation": "minor_distribution", "voltage": "20000;400"}}, {"type": "node", "id": 7137088519, "lat": 45.6105185, "lon": 5.1521091, "tags": {"location": "indoor", "name": "Les Colchiques", "operator": "Enedis", "operator:wikidata": "Q3587594", "power": "substation", "substation": "minor_distribution", "voltage": "20000;400"}}, {"type": "node", "id": 7139176016, "lat": 45.6072481, "lon": 5.1519462, "tags": {"location": "indoor", "name": "Les Pins", "operator": "Enedis", "operator:wikidata": "Q3587594", "power": "substation", "substation": "minor_distribution", "voltage": "20000;400"}}, {"type": "node", "id": 7139176022, "lat": 45.6070604, "lon": 5.150528, "tags": {"location": "indoor", "name": "Vernatay", "operator": "Enedis", "operator:wikidata": "Q3587594", "power": "substation", "substation": "minor_distribution", "voltage": "20000;400"}}, {"type": "node", "id": 7139176024, "lat": 45.6066772, "lon": 5.148181, "tags": {"location": "indoor", "name": "L'\u00c9chiquier", "operator": "Enedis", "operator:wikidata": "Q3587594", "power": "substation", "substation": "minor_distribution", "voltage": "20000;400"}}, {"type": "node", "id": 7148471381, "lat": 45.6061626, "lon": 5.1482159, "tags": {"location": "indoor", "name": "Pasteur", "operator": "Enedis", "operator:wikidata": "Q3587594", "power": "substation", "substation": "minor_distribution", "voltage": "20000;400"}}, {"type": "node", "id": 7152452781, "lat": 45.5896827, "lon": 5.2668158, "tags": {"level": "-1", "location": "indoor", "name": "Michelet", "operator": "Enedis", "operator:wikidata": "Q3587594", "power": "substation", "ref:FR:gdo": "38053P0043", "substation": "minor_distribution", "voltage": "20000;400"}}, {"type": "node", "id": 7152498587, "lat": 45.5872895, "lon": 5.2680503, "tags": {"level": "-1", "location": "indoor", "name": "Aristide Briand", "operator": "Enedis", "operator:wikidata": "Q3587594", "power": "substation", "substation": "minor_distribution", "voltage": "20000;400"}}, {"type": "node", "id": 7163719949, "lat": 45.616823, "lon": 5.1516666, "tags": {"location": "indoor", "name": "G.S. 2", "operator": "Enedis", "operator:wikidata": "Q3587594", "power": "substation", "substation": "minor_distribution", "voltage": "20000;400"}}, {"type": "node", "id": 7164259897, "lat": 45.6184723, "lon": 5.152659, "tags": {"location": "indoor", "name": "Les Ravinelles", "operator": "Enedis", "operator:wikidata": "Q3587594", "power": "substation", "substation": "minor_distribution", "voltage": "20000;400"}}, {"type": "node", "id": 7164259899, "lat": 45.6187316, "lon": 5.1517453, "tags": {"location": "indoor", "operator": "Enedis", "operator:wikidata": "Q3587594", "power": "substation", "substation": "minor_distribution", "voltage": "20000;400"}}, {"type": "node", "id": 7164259900, "lat": 45.6187213, "lon": 5.1517011, "tags": {"location": "indoor", "operator": "Enedis", "operator:wikidata": "Q3587594", "power": "substation", "substation": "minor_distribution", "voltage": "20000;400"}}, {"type": "node", "id": 7164372872, "lat": 45.6194921, "lon": 5.1501679, "tags": {"level": "-2", "location": "indoor", "name": "Le Plateau", "operator": "Enedis", "operator:wikidata": "Q3587594", "power": "substation", "substation": "minor_distribution", "voltage": "20000;400"}}, {"type": "node", "id": 7164372878, "lat": 45.6205234, "lon": 5.1515794, "tags": {"level": "-2", "location": "indoor", "name": "Garage", "operator": "Enedis", "operator:wikidata": "Q3587594", "power": "substation", "substation": "minor_distribution", "voltage": "20000;400"}}, {"type": "node", "id": 7184399205, "lat": 45.6202505, "lon": 5.1494792, "tags": {"location": "indoor", "operator": "Enedis", "operator:wikidata": "Q3587594", "power": "substation", "substation": "minor_distribution", "voltage": "20000;400"}}, {"type": "node", "id": 7207949083, "lat": 45.5940534, "lon": 5.2729555, "tags": {"location": "indoor", "name": "ZA Dolbeau", "operator": "Enedis", "operator:wikidata": "Q3587594", "power": "substation", "ref:FR:gdo": "38053P0045", "source": "Enedis - 06/2018", "substation": "minor_distribution", "voltage": "20000;400"}}, {"type": "node", "id": 7207949084, "lat": 45.5922535, "lon": 5.2763159, "tags": {"location": "indoor", "name": "Delphine Neyret", "operator": "Enedis", "operator:wikidata": "Q3587594", "power": "substation", "source": "Enedis - 06/2018", "substation": "minor_distribution", "voltage": "20000;400"}}, {"type": "node", "id": 7207989285, "lat": 45.5918708, "lon": 5.2768786, "tags": {"location": "indoor", "name": "Les \u00c9coles", "operator": "Enedis", "operator:wikidata": "Q3587594", "power": "substation", "source": "Enedis - 06/2018", "substation": "minor_distribution", "voltage": "20000;400"}}, {"type": "node", "id": 7207989286, "lat": 45.5898823, "lon": 5.2774984, "tags": {"location": "indoor", "name": "Saint-Michel 1", "operator": "Enedis", "operator:wikidata": "Q3587594", "power": "substation", "source": "Enedis - 06/2018", "substation": "minor_distribution", "voltage": "20000;400"}}, {"type": "node", "id": 7220692892, "lat": 45.1889176, "lon": 5.7253629, "tags": {"building": "service", "layer": "-1", "location": "underground", "operator": "GreenAlp", "operator:wikidata": "Q115580260", "power": "substation", "ref": "09", "substation": "minor_distribution", "voltage": "20000;400"}}, {"type": "node", "id": 7228999739, "lat": 45.5893204, "lon": 5.2821436, "tags": {"location": "indoor", "name": "R\u00e9sidence", "operator": "Enedis", "operator:wikidata": "Q3587594", "power": "substation", "ref:FR:gdo": "38053P0017", "substation": "minor_distribution", "voltage": "20000;400"}}, {"type": "node", "id": 7228999740, "lat": 45.5886386, "lon": 5.2812991, "tags": {"location": "indoor", "name": "Folati\u00e8re DP1", "operator": "Enedis", "operator:wikidata": "Q3587594", "power": "substation", "ref:FR:gdo": "38053P0182", "substation": "minor_distribution", "voltage": "20000;400"}}, {"type": "node", "id": 7228999741, "lat": 45.5883092, "lon": 5.2812628, "tags": {"location": "indoor", "name": "Armato", "operator": "Enedis", "operator:wikidata": "Q3587594", "power": "substation", "ref:FR:gdo": "38053P0183", "substation": "minor_distribution", "voltage": "20000;400"}}, {"type": "node", "id": 7228999742, "lat": 45.5882134, "lon": 5.2809517, "tags": {"location": "indoor", "name": "R\u00e9sidence Service", "operator": "Enedis", "operator:wikidata": "Q3587594", "power": "substation", "ref:FR:gdo": "38053P0187", "substation": "minor_distribution", "voltage": "20000;400"}}, {"type": "node", "id": 7228999743, "lat": 45.5882407, "lon": 5.2804568, "tags": {"location": "indoor", "name": "Ducolomb", "operator": "Enedis", "operator:wikidata": "Q3587594", "power": "substation", "ref:FR:gdo": "38053P0184", "substation": "minor_distribution", "voltage": "20000;400"}}, {"type": "node", "id": 7228999744, "lat": 45.5883035, "lon": 5.2797072, "tags": {"location": "indoor", "name": "Roze", "operator": "Enedis", "operator:wikidata": "Q3587594", "power": "substation", "ref:FR:gdo": "38053P0185", "substation": "minor_distribution", "voltage": "20000;400"}}, {"type": "node", "id": 7229673834, "lat": 45.5924957, "lon": 5.2757858, "tags": {"location": "indoor", "name": "Neyret", "operator": "Enedis", "operator:wikidata": "Q3587594", "power": "substation", "ref:FR:gdo": "38053P0180", "substation": "minor_distribution", "voltage": "20000;400"}}, {"type": "node", "id": 7229673835, "lat": 45.5902256, "lon": 5.2751809, "tags": {"location": "indoor", "name": "Fr\u00e9d\u00e9ric Dard", "operator": "Enedis", "operator:wikidata": "Q3587594", "power": "substation", "substation": "minor_distribution", "voltage": "20000;400"}}, {"type": "node", "id": 7251951191, "lat": 45.1899852, "lon": 5.7097672, "tags": {"location": "indoor", "operator": "GreenAlp", "operator:wikidata": "Q115580260", "power": "substation", "ref": "527", "substation": "minor_distribution", "voltage": "20000;400"}}, {"type": "node", "id": 7251951193, "lat": 45.1898278, "lon": 5.7083899, "tags": {"location": "indoor", "operator": "GreenAlp", "operator:wikidata": "Q115580260", "power": "substation", "ref": "406", "substation": "minor_distribution", "voltage": "20000;400"}}, {"type": "node", "id": 7251951198, "lat": 45.1881105, "lon": 5.7158035, "tags": {"location": "indoor", "operator": "GreenAlp", "operator:wikidata": "Q115580260", "power": "substation", "ref": "8", "substation": "minor_distribution", "voltage": "20000;400"}}, {"type": "node", "id": 7251951200, "lat": 45.1874814, "lon": 5.7061636, "tags": {"location": "indoor", "operator": "GreenAlp", "operator:wikidata": "Q115580260", "power": "substation", "ref": "1873", "substation": "minor_distribution", "voltage": "20000;400"}}, {"type": "node", "id": 7251951201, "lat": 45.1880391, "lon": 5.7050995, "tags": {"location": "indoor", "operator": "GreenAlp", "operator:wikidata": "Q115580260", "power": "substation", "ref": "246", "substation": "minor_distribution", "voltage": "20000;400"}}, {"type": "node", "id": 7255486648, "lat": 45.5861046, "lon": 5.2797541, "tags": {"location": "indoor", "name": "Emma", "operator": "Enedis", "operator:wikidata": "Q3587594", "power": "substation", "ref:FR:gdo": "38053P0135", "substation": "minor_distribution", "voltage": "20000;400"}}, {"type": "node", "id": 7255486650, "lat": 45.5853565, "lon": 5.2813265, "tags": {"location": "indoor", "name": "Leclerc", "operator": "Enedis", "operator:wikidata": "Q3587594", "power": "substation", "ref:FR:gdo": "38053P0024", "substation": "minor_distribution", "voltage": "20000;400"}}, {"type": "node", "id": 7508422124, "lat": 45.6254673, "lon": 5.1584385, "tags": {"level": "0", "location": "indoor", "name": "Bafoussam", "operator": "Enedis", "operator:wikidata": "Q3587594", "power": "substation", "ref:FR:gdo": "38553P0068", "substation": "minor_distribution", "voltage": "20000;400"}}, {"type": "node", "id": 7508422125, "lat": 45.6252666, "lon": 5.1589917, "tags": {"level": "0", "location": "indoor", "name": "V D Marques", "operator": "Enedis", "operator:wikidata": "Q3587594", "power": "substation", "ref:FR:gdo": "38553P1028", "substation": "minor_distribution", "voltage": "20000;400"}}, {"type": "node", "id": 7508422126, "lat": 45.6261459, "lon": 5.1573991, "tags": {"level": "0", "location": "indoor", "name": "Kilimandjaro", "operator": "Enedis", "operator:wikidata": "Q3587594", "power": "substation", "ref:FR:gdo": "38553P0066", "substation": "minor_distribution", "voltage": "20000;400"}}, {"type": "node", "id": 7529141753, "lat": 45.5609668, "lon": 5.9013314, "tags": {"location": "indoor", "name": "Berges de L'Hy\u00e8re", "operator": "Enedis", "operator:wikidata": "Q3587594", "power": "substation", "ref:FR:gdo": "73065P0342", "substation": "minor_distribution", "voltage": "20000;400"}}, {"type": "node", "id": 7581281813, "lat": 45.1463027, "lon": 5.7043507, "tags": {"location": "indoor", "operator": "Enedis", "operator:wikidata": "Q3587594", "power": "substation", "source": "Enedis - 06/2018", "substation": "minor_distribution", "voltage": "20000;400"}}, {"type": "node", "id": 7628419988, "lat": 45.1645807, "lon": 5.7437172, "tags": {"operator": "Enedis", "operator:wikidata": "Q3587594", "power": "substation", "source": "Enedis - 06/2018", "substation": "minor_distribution", "voltage": "20000;400"}}, {"type": "node", "id": 7628419989, "lat": 45.1631559, "lon": 5.7422464, "tags": {"operator": "Enedis", "operator:wikidata": "Q3587594", "power": "substation", "source": "Enedis - 06/2018", "substation": "minor_distribution", "voltage": "20000;400"}}, {"type": "node", "id": 7628419990, "lat": 45.179208, "lon": 5.7536838, "tags": {"operator": "Enedis", "operator:wikidata": "Q3587594", "power": "substation", "source": "Enedis - 06/2018", "substation": "minor_distribution", "voltage": "20000;400"}}, {"type": "node", "id": 7628419991, "lat": 45.1777957, "lon": 5.7518626, "tags": {"operator": "Enedis", "operator:wikidata": "Q3587594", "power": "substation", "source": "Enedis - 06/2018", "substation": "minor_distribution", "voltage": "20000;400"}}, {"type": "node", "id": 7628419992, "lat": 45.1800778, "lon": 5.7508124, "tags": {"operator": "Enedis", "operator:wikidata": "Q3587594", "power": "substation", "source": "Enedis - 06/2018", "substation": "minor_distribution", "voltage": "20000;400"}}, {"type": "node", "id": 7628419996, "lat": 45.2011102, "lon": 5.7475629, "tags": {"operator": "Enedis", "operator:wikidata": "Q3587594", "power": "substation", "source": "Enedis - 06/2018", "substation": "minor_distribution", "voltage": "20000;400"}}, {"type": "node", "id": 7628419997, "lat": 45.2022976, "lon": 5.7352899, "tags": {"operator": "Enedis", "operator:wikidata": "Q3587594", "power": "substation", "source": "Enedis - 06/2018", "substation": "minor_distribution", "voltage": "20000;400"}}, {"type": "node", "id": 7628419998, "lat": 45.190172, "lon": 5.7437993, "tags": {"operator": "Enedis", "operator:wikidata": "Q3587594", "power": "substation", "source": "Enedis - 06/2018", "substation": "minor_distribution", "voltage": "20000;400"}}, {"type": "node", "id": 7628419999, "lat": 45.1838601, "lon": 5.7374605, "tags": {"name": "Mistral", "note": "Poste probablement d\u00e9safect\u00e9, plus de signes ext\u00e9rieurs, aucun cable r\u00e9f\u00e9renc\u00e9.", "operator": "GreenAlp", "operator:wikidata": "Q115580260", "power": "substation", "ref:FR:RTE": "MISTR", "ref:FR:RTE_nom": "MISTRAL", "source": "data.gouv.fr:RTE - 12/2018", "substation": "distribution", "voltage": "63000"}}, {"type": "node", "id": 7628420002, "lat": 45.2093288, "lon": 5.7180317, "tags": {"operator": "Enedis", "operator:wikidata": "Q3587594", "power": "substation", "source": "Enedis - 06/2018", "substation": "minor_distribution", "voltage": "20000;400"}}, {"type": "node", "id": 7628420003, "lat": 45.2118234, "lon": 5.7146097, "tags": {"operator": "Enedis", "operator:wikidata": "Q3587594", "power": "substation", "source": "Enedis - 06/2018", "substation": "minor_distribution", "voltage": "20000;400"}}, {"type": "node", "id": 7628420004, "lat": 45.2132152, "lon": 5.7094672, "tags": {"operator": "Enedis", "operator:wikidata": "Q3587594", "power": "substation", "source": "Enedis - 06/2018", "substation": "minor_distribution", "voltage": "20000;400"}}, {"type": "node", "id": 7628420005, "lat": 45.2139412, "lon": 5.6958777, "tags": {"operator": "Enedis", "operator:wikidata": "Q3587594", "power": "substation", "source": "Enedis - 06/2018", "substation": "minor_distribution", "voltage": "20000;400"}}, {"type": "node", "id": 7628420006, "lat": 45.2125526, "lon": 5.6981289, "tags": {"operator": "Enedis", "operator:wikidata": "Q3587594", "power": "substation", "source": "Enedis - 06/2018", "substation": "minor_distribution", "voltage": "20000;400"}}, {"type": "node", "id": 7628420007, "lat": 45.2121519, "lon": 5.6998103, "tags": {"operator": "Enedis", "operator:wikidata": "Q3587594", "power": "substation", "source": "Enedis - 06/2018", "substation": "minor_distribution", "voltage": "20000;400"}}, {"type": "node", "id": 7628420008, "lat": 45.2110091, "lon": 5.6982083, "tags": {"name": "Is\u00e8re 2", "operator": "Enedis", "operator:wikidata": "Q3587594", "power": "substation", "ref": "38423PO238", "source": "Enedis - 06/2018", "substation": "minor_distribution", "voltage": "20000;400"}}, {"type": "node", "id": 7628420009, "lat": 45.2136264, "lon": 5.6889929, "tags": {"operator": "Enedis", "operator:wikidata": "Q3587594", "power": "substation", "source": "Enedis - 06/2018", "substation": "minor_distribution", "voltage": "20000;400"}}, {"type": "node", "id": 7628420010, "lat": 45.2123786, "lon": 5.6916727, "tags": {"operator": "Enedis", "operator:wikidata": "Q3587594", "power": "substation", "source": "Enedis - 06/2018", "substation": "minor_distribution", "voltage": "20000;400"}}, {"type": "node", "id": 7628420011, "lat": 45.2127956, "lon": 5.6884482, "tags": {"operator": "Enedis", "operator:wikidata": "Q3587594", "power": "substation", "source": "Enedis - 06/2018", "substation": "minor_distribution", "voltage": "20000;400"}}, {"type": "node", "id": 7628420012, "lat": 45.2052586, "lon": 5.6834411, "tags": {"operator": "Enedis", "operator:wikidata": "Q3587594", "power": "substation", "source": "Enedis - 06/2018", "substation": "minor_distribution", "voltage": "20000;400"}}, {"type": "node", "id": 7628420013, "lat": 45.2067021, "lon": 5.6808364, "tags": {"operator": "Enedis", "operator:wikidata": "Q3587594", "power": "substation", "source": "Enedis - 06/2018", "substation": "minor_distribution", "voltage": "20000;400"}}, {"type": "node", "id": 7628420014, "lat": 45.2060275, "lon": 5.6839439, "tags": {"operator": "Enedis", "operator:wikidata": "Q3587594", "power": "substation", "source": "Enedis - 06/2018", "substation": "minor_distribution", "voltage": "20000;400"}}, {"type": "node", "id": 7628420015, "lat": 45.2074456, "lon": 5.6828536, "tags": {"operator": "Enedis", "operator:wikidata": "Q3587594", "power": "substation", "source": "Enedis - 06/2018", "substation": "minor_distribution", "voltage": "20000;400"}}, {"type": "node", "id": 7628420016, "lat": 45.2119704, "lon": 5.7033184, "tags": {"operator": "Enedis", "operator:wikidata": "Q3587594", "power": "substation", "source": "Enedis - 06/2018", "substation": "minor_distribution", "voltage": "20000;400"}}, {"type": "node", "id": 7628420017, "lat": 45.2088272, "lon": 5.7058243, "tags": {"operator": "Enedis", "operator:wikidata": "Q3587594", "power": "substation", "source": "Enedis - 06/2018", "substation": "minor_distribution", "voltage": "20000;400"}}, {"type": "node", "id": 7628420018, "lat": 45.2098062, "lon": 5.7108874, "tags": {"operator": "Enedis", "operator:wikidata": "Q3587594", "power": "substation", "source": "Enedis - 06/2018", "substation": "minor_distribution", "voltage": "20000;400"}}, {"type": "node", "id": 7628420019, "lat": 45.2079553, "lon": 5.7073279, "tags": {"operator": "Enedis", "operator:wikidata": "Q3587594", "power": "substation", "source": "Enedis - 06/2018", "substation": "minor_distribution", "voltage": "20000;400"}}, {"type": "node", "id": 7628420020, "lat": 45.2021979, "lon": 5.7173753, "tags": {"operator": "Enedis", "operator:wikidata": "Q3587594", "power": "substation", "source": "Enedis - 06/2018", "substation": "minor_distribution", "voltage": "20000;400"}}, {"type": "node", "id": 7628420021, "lat": 45.2033622, "lon": 5.7175958, "tags": {"name": "3 Mai 1945", "operator": "Enedis", "operator:wikidata": "Q3587594", "power": "substation", "ref:FR:gdo": "38423P0235", "source": "Enedis - 06/2018", "substation": "minor_distribution", "survey:date": "2023-03-13", "voltage": "20000;400"}}, {"type": "node", "id": 7628420022, "lat": 45.2042027, "lon": 5.7150079, "tags": {"operator": "Enedis", "operator:wikidata": "Q3587594", "power": "substation", "ref:FR:gdo": "38243P0203", "source": "Enedis - 06/2018", "substation": "minor_distribution", "survey:date": "2023-03-13", "voltage": "20000;400"}}, {"type": "node", "id": 7628420025, "lat": 45.2028552, "lon": 5.7005445, "tags": {"operator": "RTE", "operator:wikidata": "Q2178795", "power": "substation", "ref:FR:RTE": "1CNRS", "ref:FR:RTE_nom": "CNRS CONFLUENT", "source": "data.gouv.fr:RTE - 12/2018"}}, {"type": "node", "id": 7746526521, "lat": 45.1566844, "lon": 5.7282068, "tags": {"location": "indoor", "operator": "Enedis", "operator:wikidata": "Q3587594", "power": "substation", "source": "Enedis - 06/2018", "substation": "minor_distribution", "voltage": "20000;400"}}, {"type": "node", "id": 7770521868, "lat": 45.6175862, "lon": 5.1218712, "tags": {"design:ref": "RC", "location": "green", "man_made": "street_cabinet", "name": "Guargues", "operator": "Enedis", "operator:wikidata": "Q3587594", "power": "substation", "substation": "minor_distribution", "transformer": "distribution", "utility": "power", "voltage:primary": "20000", "voltage:secondary": "400"}}, {"type": "node", "id": 7772064375, "lat": 45.6584686, "lon": 5.1577072, "tags": {"location": "green", "man_made": "street_cabinet", "name": "Lagunage", "operator": "Enedis", "operator:wikidata": "Q3587594", "power": "substation", "substation": "minor_distribution", "transformer": "distribution", "utility": "power", "voltage:primary": "20000", "voltage:secondary": "400"}}, {"type": "node", "id": 7917088699, "lat": 45.5783825, "lon": 5.2803422, "tags": {"design:ref": "RC", "location": "green", "man_made": "street_cabinet", "name": "Serve", "operator": "Enedis", "operator:wikidata": "Q3587594", "power": "substation", "substation": "minor_distribution", "transformer": "distribution", "utility": "power", "voltage:primary": "20000", "voltage:secondary": "400"}}, {"type": "node", "id": 7928718998, "lat": 45.6894375, "lon": 5.3731466, "tags": {"location": "green", "man_made": "street_cabinet", "name": "Les Marais", "operator": "Enedis", "operator:wikidata": "Q3587594", "power": "substation", "ref:FR:gdo": "38494P0502", "substation": "minor_distribution", "transformer": "distribution", "utility": "power", "voltage:primary": "20000", "voltage:secondary": "400"}}, {"type": "node", "id": 8010786548, "lat": 45.6113352, "lon": 5.2121423, "tags": {"fixme": "En cours d'installation. Est-ce un transformateur ou une armoire de coupure ? \u00c0 v\u00e9rifier fin novembre 2020.", "location": "green", "man_made": "street_cabinet", "name": "Projet AC3M l'Arche", "operator": "Enedis", "operator:wikidata": "Q3587594", "power": "substation", "ref:FR:gdo": "38193P0501", "substation": "minor_distribution", "transformer": "distribution", "utility": "power", "voltage:primary": "20000", "voltage:secondary": "400"}}, {"type": "node", "id": 8129413708, "lat": 45.1798301, "lon": 5.7359566, "tags": {"operator": "GreenAlp", "operator:wikidata": "Q115580260", "power": "substation", "ref": "118", "substation": "minor_distribution", "voltage": "20000;400"}}, {"type": "node", "id": 8165919900, "lat": 45.1973335, "lon": 5.7251715, "tags": {"power": "substation", "ref": "1831"}}, {"type": "node", "id": 8165998880, "lat": 45.2464075, "lon": 5.6978159, "tags": {"location": "green", "man_made": "street_cabinet", "operator": "Enedis", "operator:wikidata": "Q3587594", "power": "substation", "substation": "distribution", "utility": "power", "voltage": "20000"}}, {"type": "node", "id": 8168136184, "lat": 45.0369521, "lon": 5.9760372, "tags": {"man_made": "street_cabinet", "operator": "Enedis", "operator:wikidata": "Q3587594", "power": "substation", "source": "Enedis - 06/2018", "street_cabinet": "power", "substation": "minor_distribution", "voltage:primary": "20000", "voltage:secondary": "400"}}, {"type": "node", "id": 8171714392, "lat": 45.0735235, "lon": 5.9826133, "tags": {"note": "A completer", "operator": "Enedis", "operator:wikidata": "Q3587594", "power": "substation", "substation": "minor_distribution", "voltage:primary": "20000", "voltage:secondary": "400"}}, {"type": "node", "id": 8171759148, "lat": 45.0296682, "lon": 5.9798263, "tags": {"operator": "Enedis", "operator:wikidata": "Q3587594", "power": "substation", "source": "Enedis - 06/2018", "substation": "minor_distribution", "voltage:primary": "20000", "voltage:secondary": "400"}}, {"type": "node", "id": 8282130537, "lat": 45.5967289, "lon": 5.9402333, "tags": {"location": "green", "man_made": "street_cabinet", "operator": "Enedis", "operator:wikidata": "Q3587594", "power": "substation", "substation": "distribution", "utility": "power", "voltage": "20000"}}, {"type": "node", "id": 8311164437, "lat": 45.4254598, "lon": 6.0959617, "tags": {"fixme": "v\u00e9rifier type et position", "operator": "Enedis", "operator:wikidata": "Q3587594", "power": "substation", "source": "Enedis - 06/2018", "substation": "minor_distribution", "voltage": "20000;400"}}, {"type": "node", "id": 8420314453, "lat": 45.0938579, "lon": 6.0678877, "tags": {"operator": "Enedis", "operator:wikidata": "Q3587594", "power": "substation", "source": "Enedis - 2021-01", "substation": "minor_distribution", "voltage": "20000;400"}}, {"type": "node", "id": 8425694155, "lat": 45.6873405, "lon": 5.1208441, "tags": {"operator": "Enedis", "operator:wikidata": "Q3587594", "power": "substation", "source": "Enedis - 2021-01", "substation": "minor_distribution", "voltage": "20000;400"}}, {"type": "node", "id": 8425694156, "lat": 45.6883973, "lon": 5.1166505, "tags": {"building": "service", "building:levels": "1", "location": "indoor", "name": "Bas Bonce", "operator": "Enedis", "operator:wikidata": "Q3587594", "power": "substation", "roof:shape": "flat", "source": "Enedis - 2021-01", "substation": "minor_distribution", "voltage": "20000;400"}}, {"type": "node", "id": 8445383022, "lat": 45.6107976, "lon": 5.2110453, "tags": {"operator": "Enedis", "operator:wikidata": "Q3587594", "power": "substation", "ref:FR:gdo": "38193P0079", "substation": "minor_distribution", "transformer": "distribution", "voltage:primary": "20000", "voltage:secondary": "400"}}, {"type": "node", "id": 8489969717, "lat": 45.5710211, "lon": 5.9297726, "tags": {"addr:city": "Chamb\u00e9ry", "addr:housenumber": "83", "addr:postcode": "73000", "location": "indoor", "name": "83 rue mouxy de loche", "operator": "Enedis", "operator:wikidata": "Q3587594", "power": "substation", "source": "Enedis - 2021-01", "substation": "minor_distribution", "voltage:primary": "20000", "voltage:secondary": "400"}}, {"type": "node", "id": 8490451518, "lat": 45.5711071, "lon": 5.9268219, "tags": {"location": "indoor", "name": "420 Chemin des Moulins", "operator": "Enedis", "operator:wikidata": "Q3587594", "power": "substation", "ref:FR:gdo": "73065P0144", "source": "Enedis - 2021-01", "substation": "minor_distribution", "voltage:primary": "20000", "voltage:secondary": "400"}}, {"type": "node", "id": 8491002518, "lat": 45.5710976, "lon": 5.9329028, "tags": {"location": "indoor", "name": "45 Av de Bassens", "operator": "Enedis", "operator:wikidata": "Q3587594", "power": "substation", "ref:FR:gdo": "73065P0133", "source": "Enedis - 2021-01", "substation": "minor_distribution", "voltage:primary": "20000", "voltage:secondary": "400"}}, {"type": "node", "id": 8491008317, "lat": 45.5724167, "lon": 5.9329038, "tags": {"location": "indoor", "name": "Les Ifs", "operator": "Enedis", "operator:wikidata": "Q3587594", "power": "substation", "ref:FR:gdo": "73065P0135", "source": "Enedis - 2021-01", "substation": "minor_distribution", "voltage:primary": "20000", "voltage:secondary": "400"}}, {"type": "node", "id": 8491016717, "lat": 45.5708332, "lon": 5.9317085, "tags": {"location": "indoor", "name": "Voltaire", "operator": "Enedis", "operator:wikidata": "Q3587594", "power": "substation", "ref:FR:gdo": "73065P0134", "source": "Enedis - 2021-01", "substation": "minor_distribution", "voltage:primary": "20000", "voltage:secondary": "400"}}, {"type": "node", "id": 8494272618, "lat": 45.5633782, "lon": 5.9274264, "tags": {"addr:city": "Chamb\u00e9ry", "addr:housenumber": "404", "addr:postcode": "73000", "location": "indoor", "name": "404 rue R\u00e9publique", "operator": "Enedis", "operator:wikidata": "Q3587594", "power": "substation", "ref:FR:gdo": "73065P313", "source": "Enedis - 2021-01", "substation": "minor_distribution", "voltage:primary": "20000", "voltage:secondary": "400"}}, {"type": "node", "id": 8494272619, "lat": 45.5633196, "lon": 5.9276147, "tags": {"addr:city": "Chamb\u00e9ry", "addr:housenumber": "426", "addr:postcode": "73000", "location": "indoor", "name": "426 rue R\u00e9publique", "operator": "Enedis", "operator:wikidata": "Q3587594", "power": "substation", "ref:FR:gdo": "73065P0308", "source": "Enedis - 2021-01", "substation": "minor_distribution", "voltage:primary": "20000", "voltage:secondary": "400"}}, {"type": "node", "id": 8494287817, "lat": 45.5694033, "lon": 5.9299179, "tags": {"location": "indoor", "name": "51 Chemin des Moulins", "operator": "Enedis", "operator:wikidata": "Q3587594", "power": "substation", "ref:FR:gdo": "73065P0142", "source": "Enedis - 2021-01", "substation": "minor_distribution", "voltage:primary": "20000", "voltage:secondary": "400"}}, {"type": "node", "id": 8494287818, "lat": 45.5661105, "lon": 5.929503, "tags": {"building": "service", "name": "Jules Ferry", "operator": "Enedis", "operator:wikidata": "Q3587594", "power": "substation", "source": "Enedis - 2021-01", "substation": "minor_distribution", "voltage:primary": "20000", "voltage:secondary": "400"}}, {"type": "node", "id": 8494293217, "lat": 45.5679955, "lon": 5.9296258, "tags": {"location": "outdoor", "man_made": "street_cabinet", "operator": "Enedis", "operator:wikidata": "Q3587594", "power": "substation", "source": "Enedis - 2021-01", "substation": "minor_distribution", "utility": "power", "voltage:primary": "20000", "voltage:secondary": "400"}}, {"type": "node", "id": 8494295318, "lat": 45.5646514, "lon": 5.9288097, "tags": {"location": "indoor", "name": "Puits Pasteur", "operator": "Enedis", "operator:wikidata": "Q3587594", "power": "substation", "ref:FR:gdo": "73065P1025", "substation": "minor_distribution"}}, {"type": "node", "id": 8494298017, "lat": 45.5641913, "lon": 5.9272802, "tags": {"addr:city": "Chamb\u00e9ry", "addr:housenumber": "359", "addr:postcode": "73000", "location": "indoor", "name": "359 rue R\u00e9publique", "operator": "Enedis", "operator:wikidata": "Q3587594", "power": "substation", "ref:FR:gdo": "73065P0301", "source": "Enedis - 2021-01", "substation": "minor_distribution", "voltage:primary": "20000", "voltage:secondary": "400"}}, {"type": "node", "id": 8494298518, "lat": 45.5591487, "lon": 5.9222644, "tags": {"building": "service", "name": "Chartreuse", "operator": "Enedis", "operator:wikidata": "Q3587594", "power": "substation", "ref:FR:gdo": "73065P0335", "source": "Enedis - 2021-01", "substation": "minor_distribution", "voltage:primary": "20000", "voltage:secondary": "400"}}, {"type": "node", "id": 8494301517, "lat": 45.5625015, "lon": 5.9263413, "tags": {"building": "service", "name": "Rue Andr\u00e9 Jacques", "operator": "Enedis", "operator:wikidata": "Q3587594", "power": "substation", "ref:FR:gdo": "73065P0276", "source": "Enedis - 2021-01", "substation": "minor_distribution", "voltage:primary": "20000", "voltage:secondary": "400"}}, {"type": "node", "id": 8494304317, "lat": 45.5631117, "lon": 5.925512, "tags": {"location": "indoor", "name": "Espace Culturel", "operator": "Enedis", "operator:wikidata": "Q3587594", "power": "substation", "ref:FR:gdo": "73065P1164", "source": "Enedis - 2021-01", "substation": "minor_distribution", "voltage:primary": "20000", "voltage:secondary": "400"}}, {"type": "node", "id": 8494304319, "lat": 45.5558415, "lon": 5.9314983, "tags": {"building": "service", "name": "Ch. des Charmettes", "operator": "Enedis", "operator:wikidata": "Q3587594", "power": "substation", "ref:FR:gdo": "73065P0232", "source": "Enedis - 2021-01", "substation": "minor_distribution", "voltage:primary": "20000", "voltage:secondary": "400"}}, {"type": "node", "id": 8494304817, "lat": 45.5628716, "lon": 5.9248845, "tags": {"addr:city": "Chamb\u00e9ry", "addr:housenumber": "24", "addr:postcode": "73000", "location": "indoor", "name": "24 rue Michaud", "operator": "Enedis", "operator:wikidata": "Q3587594", "power": "substation", "source": "Enedis - 2021-01", "substation": "minor_distribution", "voltage:primary": "20000", "voltage:secondary": "400"}},